Terminal log file
Date: 31/10/2016 - 12:16:01
-----------------------------------------------
$IIMWV,156,R,09.5,N,A*1D
$IIVWR,156.,R,09.5,N,04.9,M,017.6,K*7A
$IIMWD,,,093.,M,09.4,N,04.8,M*05
$IIMTA,19.3,C*0E
$IIMTW,15.1,C*16
$IIVWT,156.,R,09.5,N,04.9,M,017.6,K*7C
$IIHDG,297.,,,,*75
$IIHDM,297.,M*1E
$IIGLL,4729.799,N,00222.958,W,111638,A,A*47
$IIZDA,111638,31,10,2016,,*55
$IIVTG,236.,T,,M,00.0,N,00.0,K,A*2D
$IIDPT,0003.2,,*73
$IIDBT,0010.6,f,0003.2,M,,*7F
$IIVLW,0001.0,N,001.35,N*4B
$IIVHW,,,297.,M,00.00,N,00.00,K*13
$IIMWV,155,R,09.6,N,A*1D
$IIVWR,155.,R,09.6,N,04.9,M,017.8,K*74
$IIMWD,,,093.,M,09.6,N,04.9,M*06
$IIMTA,19.3,C*0E
$IIMTW,15.1,C*16
$IIVWT,156.,R,09.6,N,04.9,M,017.8,K*71
$IIHDG,297.,,,,*75
$IIHDM,297.,M*1E
$IIGLL,4729.799,N,00222.958,W,111640,A,A*48
$IIZDA,111640,31,10,2016,,*5A
$IIVTG,236.,T,,M,00.0,N,00.0,K,A*2D
$IIDPT,0003.2,,*73
$IIDBT,0010.6,f,0003.2,M,,*7F
$IIVLW,0001.0,N,001.35,N*4B
$IIVHW,,,297.,M,00.00,N,00.00,K*13
$IIMWV,155,R,09.6,N,A*1D
$IIVWR,155.,R,09.6,N,04.9,M,017.8,K*74
$IIMWD,,,092.,M,09.6,N,04.9,M*07
$IIMTA,19.3,C*0E
$IIMTW,15.1,C*16
$IIVWT,155.,R,09.6,N,04.9,M,017.8,K*72
$IIHDG,297.,,,,*75
$IIHDM,297.,M*1E
$IIGLL,4729.799,N,00222.958,W,111640,A,A*48
$IIZDA,111640,31,10,2016,,*5A
$IIVTG,236.,T,,M,00.0,N,00.0,K,A*2D
$IIDPT,0003.2,,*73
$IIDBT,0010.6,f,0003.2,M,,*7F
$IIVLW,0001.0,N,001.35,N*4B
$IIVHW,,,297.,M,00.00,N,00.00,K*13
$IIMWV,155,R,09.7,N,A*1C
$IIVWR,155.,R,09.7,N,05.0,M,018.0,K*7A
$IIMWD,,,092.,M,09.7,N,05.0,M*0E
$IIMTA,19.3,C*0E
$IIMTW,15.1,C*16
WT,155.,R,09.7,N,05.0,M,018.0,K*7C
$IIHDG,297.,,,,*75
$IIHDM,297.,M*1E
$IIGLL,4729.799,N,00222.958,W,111642,A,A*4A
$IIZDA,111642,31,10,2016,,*58
$IIVTG,236.,T,,M,00.0,N,00.0,K,A*2D
$IIDPT,0003.2,,*73
$IIDBT,0010.6,f,0003.2,M,,*7F
$IIVLW,0001.0,N,001.35,N*4B
$IIVHW,,,297.,M,00.00,N,00.00,K*13
$IIMWV,156,R,09.9,N,A*11
$IIVWR,156.,R,09.9,N,05.1,M,018.3,K*75
$IIMWD,,,092.,M,09.8,N,05.0,M*01
$IIMTA,19.3,C*0E
$IIMTW,15.1,C*16
$IIVWT,155.,R,09.8,N,05.0,M,018.1,K*72
$IIHDG,297.,,,,*75
$IIHDM,297.,M*1E
$IIGLL,4729.799,N,00222.958,W,111642,A,A*4A
$IIZDA,111642,31,10,2016,,*58
$IIVTG,236.,T,,M,00.0,N,00.0,K,A*2D
$IIDPT,0003.2,,*73
$IIDBT,0010.6,f,0003.2,M,,*7F
$IIVLW,0001.0,N,001.35,N*4B
$IIVHW,,,297.,M,00.00,N,00.00,K*13
$IIMWV,156,R,10.1,N,A*11
$IIVWR,156.,R,10.1,N,05.2,M,018.7,K*72
$IIMWD,,,093.,M,09.9,N,05.1,M*00
$IIMTA,19.3,C*0E
$IIMTW,15.1,C*16
$IIVWT,156.,R,09.9,N,05.1,M,018.3,K*73
$IIHDG,297.,,,,*75
$IIHDM,297.,M*1E
$IIGLL,4729.799,N,00222.958,W,111644,A,A*4C
$IIZDA,111644,31,10,2016,,*5E
$IIVTG,236.,T,,M,00.0,N,00.0,K,A*2D
$IIDPT,0003.2,,*73
$IIDBT,0010.6,f,0003.2,M,,*7F
$IIVLW,0001.0,N,001.35,N*4B
$IIVHW,,,297.,M,00.00,N,00.00,K*13
$IIMWV,156,R,10.1,N,A*11
$IIVWR,156.,R,10.1,N,05.2,M,018.7,K*72
$IIMWD,,,093.,M,10.1,N,05.2,M*03
$IIMTA,19.3,C*0E
$IIMTW,15.1,C*16
$IIVWT,156.,R,10.1,N,05.2,M,018.7,K*74
$IIHDG,297.,,,,*75
$IIHDM,297.,M*1E
$IIGLL,4729.799,N,00222.958,W,111644,A,A*4C
$IIZDA,111644,31,10,2016,,*5E
$IIVTG,236.,T,,M,00.0,N,00.0,K,A*2D
$IIDPT,0003.2,,*73
$IIDBT,0010.6,f,0003.2,M,,*7F
$IIVLW,0001.0,N,001.35,N*4B
$IIVHW,,,297.,M,00.00,N,00.00,K*13
$IIMWV,156,R,10.2,N,A*12
$IIVWR,156.,R,10.2,N,05.2,M,018.9,K*7F
$IIMWD,,,093.,M,10.1,N,05.2,M*03
$IIMTA,19.4,C*09
$IIMTW,15.1,C*16
$IIVWT,156.,R,10.1,N,05.2,M,018.7,K*74
$IIHDG,297.,,,,*75
$IIHDM,297.,M*1E
$IIGLL,4729.799,N,00222.958,W,111646,A,A*4E
$IIZDA,111646,31,10,2016,,*5C
$IIVTG,236.,T,,M,00.0,N,00.0,K,A*2D
$IIDPT,0003.2,,*73
$IIDBT,0010.6,f,0003.2,M,,*7F
$IIVLW,0001.0,N,001.35,N*4B
$IIVHW,,,297.,M,00.00,N,00.00,K*13
$IIMWV,156,R,10.2,N,A*12
$IIVWR,156.,R,10.2,N,05.2,M,018.9,K*7F
$IIMWD,,,093.,M,10.2,N,05.2,M*00
$IIMTA,19.4,C*09
$IIMTW,15.1,C*16
$IIVWT,156.,R,10.2,N,05.2,M,018.9,K*79
$IIHDG,297.,,,,*75
$IIHDM,297.,M*1E
$IIGLL,4729.799,N,00222.958,W,111646,A,A*4E
$IIZDA,111646,31,10,2016,,*5C
$IIVTG,236.,T,,M,00.0,N,00.0,K,A*2D
$IIDPT,0003.2,,*73
$IIDBT,0010.6,f,0003.2,M,,*7F
$IIVLW,0001.0,N,001.35,N*4B
$IIVHW,,,297.,M,00.00,N,00.00,K*13
$IIMWV,157,R,10.2,N,A*13
$IIVWR,157.,R,10.2,N,05.2,M,018.9,K*7E
$IIMWD,,,093.,M,10.2,N,05.2,M*00
$IIMTA,19.4,C*09
$IIMTW,15.1,C*16
$IIVWT,156.,R,10.2,N,05.2,M,018.9,K*79
$IIHDG,297.,,,,*75
$IIHDM,297.,M*1E
$IIGLL,4729.799,N,00222.958,W,111648,A,A*40
$IIZDA,111648,31,10,2016,,*52
$IIVTG,236.,T,,M,00.0,N,00.0,K,A*2D
$IIDPT,0003.2,,*73
$IIDBT,0010.6,f,0003.2,M,,*7F
$IIVLW,0001.0,N,001.35,N*4B
$IIVHW,,,297.,M,00.00,N,00.00,K*13
$IIMWV,157,R,10.4,N,A*15
$IIVWR,157.,R,10.4,N,05.3,M,019.3,K*72
$IIMWD,,,094.,M,10.2,N,05.2,M*07
$IIMTA,19.4,C*09
$IIMTW,15.1,C*16
$IIVWT,157.,R,10.4,N,05.3,M,019.3,K*74
$IIHDG,297.,,,,*75
$IIHDM,297.,M*1E
$IIGLL,4729.799,N,00222.958,W,111650,A,A*49
$IIZDA,111650,31,10,2016,,*5B
$IIVTG,236.,T,,M,00.0,N,00.0,K,A*2D
$IIDPT,0003.2,,*73
$IIDBT,0010.6,f,0003.2,M,,*7F
$IIVLW,0001.0,N,001.35,N*4B
$IIVHW,,,297.,M,00.00,N,00.00,K*13
$IIMWV,158,R,10.5,N,A*1B
$IIVWR,158.,R,10.5,N,05.4,M,019.4,K*7C
$IIMWD,,,094.,M,10.4,N,05.3,M*00
$IIMTA,19.4,C*09
$IIMTW,15.1,C*16
$IIVWT,158.,R,10.4,N,05.3,M,019.3,K*7B
$IIHDG,297.,,,,*75
$IIHDM,297.,M*1E
$IIGLL,4729.799,N,00222.958,W,111650,A,A*49
$IIZDA,111650,31,10,2016,,*5B
$IIVTG,236.,T,,M,00.0,N,00.0,K,A*2D
$IIDPT,0003.2,,*73
$IIDBT,0010.6,f,0003.2,M,,*7F
$IIVLW,0001.0,N,001.35,N*4B
$IIVHW,,,297.,M,00.00,N,00.00,K*13
$IIMWV,158,R,10.6,N,A*18
$IIVWR,158.,R,10.6,N,05.5,M,019.6,K*7C
$IIMWD,,,095.,M,10.6,N,05.5,M*05
$IIMTA,19.4,C*09
$IIMTW,15.1,C*16
$IIVWT,158.,R,10.6,N,05.5,M,019.6,K*7A
$IIHDG,297.,,,,*75
$IIHDM,297.,M*1E
$IIGLL,4729.799,N,00222.958,W,111652,A,A*4B
$IIZDA,111652,31,10,2016,,*59
$IIVTG,236.,T,,M,00.0,N,00.0,K,A*2D
$IIDPT,0003.2,,*73
$IIDBT,0010.6,f,0003.2,M,,*7F
$IIVLW,0001.0,N,001.35,N*4B
$IIVHW,,,297.,M,00.00,N,00.00,K*13
$IIMWV,158,R,10.6,N,A*18
$IIVWR,158.,R,10.6,N,05.5,M,019.6,K*7C
$IIMWD,,,095.,M,10.6,N,05.5,M*05
$IIMTA,19.4,C*09
$IIMTW,15.1,C*16
$IIVWT,158.,R,10.6,N,05.5,M,019.6,K*7A
$IIHDG,297.,,,,*75
$IIHDM,297.,M*1E
$IIGLL,4729.799,N,00222.958,W,111652,A,A*4B
$IIZDA,111652,31,10,2016,,*59
$IIVTG,236.,T,,M,00.0,N,00.0,K,A*2D
$IIDPT,0003.2,,*73
$IIDBT,0010.6,f,0003.2,M,,*7F
$IIVLW,0001.0,N,001.35,N*4B
$IIVHW,,,297.,M,00.00,N,00.00,K*13
$IIMWV,158,R,10.7,N,A*19
$IIVWR,158.,R,10.7,N,05.5,M,019.8,K*73
$IIMWD,,,095.,M,10.6,N,05.5,M*05
$IIMTA,19.4,C*09
$IIMTW,15.1,C*16
$IIVWT,158.,R,10.6,N,05.5,M,019.6,K*7A
$IIHDG,297.,,,,*75
$IIHDM,297.,M*1E
$IIGLL,4729.799,N,00222.958,W,111654,A,A*4D
$IIZDA,111654,31,10,2016,,*5F
$IIVTG,236.,T,,M,00.0,N,00.0,K,A*2D
$IIDPT,0003.2,,*73
$IIDBT,0010.6,f,0003.2,M,,*7F
$IIVLW,0001.0,N,001.35,N*4B
$IIVHW,,,297.,M,00.00,N,00.00,K*13
$IIMWV,158,R,10.8,N,A*16
$IIVWR,158.,R,10.8,N,05.6,M,020.0,K*7D
$IIMWD,,,095.,M,10.8,N,05.6,M*08
$IIMTA,19.4,C*09
$IIMTW,15.1,C*16
$IIVWT,158.,R,10.8,N,05.6,M,020.0,K*7B
$IIHDG,297.,,,,*75
$IIHDM,297.,M*1E
$IIGLL,4729.799,N,00222.958,W,111654,A,A*4D
$IIZDA,111654,31,10,2016,,*5F
$IIVTG,236.,T,,M,00.0,N,00.0,K,A*2D
$IIDPT,0003.2,,*73
$IIDBT,0010.6,f,0003.2,M,,*7F
$IIVLW,0001.0,N,001.35,N*4B
$IIVHW,,,297.,M,00.00,N,00.00,K*13
$IIMWV,158,R,11.1,N,A*1E
$IIVWR,158.,R,11.1,N,05.7,M,020.6,K*72
$IIMWD,,,095.,M,10.9,N,05.6,M*09
$IIMTA,19.4,C*09
$IIMTW,15.1,C*16
$IIVWT,158.,R,10.9,N,05.6,M,020.2,K*78
$IIHDG,297.,,,,*75
$IIHDM,297.,M*1E
$IIGLL,4729.799,N,00222.958,W,111656,A,A*4F
$IIZDA,111656,31,10,2016,,*5D
$IIVTG,236.,T,,M,00.0,N,00.0,K,A*2D
$IIDPT,0003.2,,*73
$IIDBT,0010.6,f,0003.2,M,,*7F
$IIVLW,0001.0,N,001.35,N*4B
$IIVHW,,,297.,M,00.00,N,00.00,K*13
$IIMWV,158,R,11.2,N,A*1D
$IIVWR,158.,R,11.2,N,05.8,M,020.7,K*7F
$IIMWD,,,095.,M,11.1,N,05.7,M*01
$IIMTA,19.4,C*09
$IIMTW,15.1,C*16
$IIVWT,158.,R,11.1,N,05.7,M,020.6,K*74
$IIHDG,297.,,,,*75
$IIHDM,297.,M*1E
$IIGLL,4729.799,N,00222.958,W,111656,A,A*4F
$IIZDA,111656,31,10,2016,,*5D
$IIVTG,236.,T,,M,00.0,N,00.0,K,A*2D
$IIDPT,0003.2,,*73
$IIDBT,0010.6,f,0003.2,M,,*7F
$IIVLW,0001.0,N,001.35,N*4B
$IIVHW,,,297.,M,00.00,N,00.00,K*13
$IIMWV,158,R,11.2,N,A*1D
$IIVWR,158.,R,11.2,N,05.8,M,020.7,K*7F
$IIMWD,,,095.,M,11.2,N,05.8,M*0D
$IIMTA,19.4,C*09
$IIMTW,15.1,C*16
$IIVWT,158.,R,11.2,N,05.8,M,020.7,K*79
$IIHDG,297.,,,,*75
$IIHDM,297.,M*1E
$IIGLL,4729.799,N,00222.958,W,111658,A,A*41
$IIZDA,111658,31,10,2016,,*53
$IIVTG,236.,T,,M,00.0,N,00.0,K,A*2D
$IIDPT,0003.2,,*73
$IIDBT,0010.6,f,0003.2,M,,*7F
$IIVLW,0001.0,N,001.35,N*4B
$IIVHW,,,297.,M,00.00,N,00.00,K*13
$IIMWV,158,R,11.4,N,A*1B
$IIVWR,158.,R,11.4,N,05.9,M,021.1,K*7F
$IIMWD,,,095.,M,11.2,N,05.8,M*0D
$IIMTA,19.4,C*09
$IIMTW,15.1,C*16
$IIVWT,158.,R,11.2,N,05.8,M,020.7,K*79
$IIHDG,297.,,,,*75
$IIHDM,297.,M*1E
$IIGLL,4729.799,N,00222.958,W,111658,A,A*41
$IIZDA,111658,31,10,2016,,*53
$IIVTG,236.,T,,M,00.0,N,00.0,K,A*2D
$IIDPT,0003.2,,*73
$IIDBT,0010.6,f,0003.2,M,,*7F
$IIVLW,0001.0,N,001.35,N*4B
$IIVHW,,,297.,M,00.00,N,00.00,K*13
$IIMWV,158,R,11.4,N,A*1B
$IIVWR,158.,R,11.4,N,05.9,M,021.1,K*7F
$IIMWD,,,095.,M,11.4,N,05.9,M*0A
$IIMTA,19.4,C*09
$IIMTW,15.1,C*16
$IIVWT,158.,R,11.4,N,05.9,M,021.1,K*79
$IIHDG,297.,,,,*75
$IIHDM,297.,M*1E
$IIGLL,4729.799,N,00222.958,W,111700,A,A*4D
$IIZDA,111700,31,10,2016,,*5F
$IIVTG,236.,T,,M,00.0,N,00.0,K,A*2D
$IIDPT,0003.2,,*73
$IIDBT,0010.6,f,0003.2,M,,*7F
$IIVLW,0001.0,N,001.35,N*4B
$IIVHW,,,297.,M,00.00,N,00.00,K*13
$IIMWV,159,R,11.3,N,A*1D
$IIVWR,159.,R,11.3,N,05.8,M,020.9,K*71
$IIMWD,,,095.,M,11.4,N,05.9,M*0A
$IIMTA,19.5,C*08
$IIMTW,15.1,C*16
$IIVWT,159.,R,11.3,N,05.8,M,020.9,K*77
$IIHDG,297.,,,,*75
$IIHDM,297.,M*1E
$IIGLL,4729.799,N,00222.958,W,111702,A,A*4F
$IIZDA,111702,31,10,2016,,*5D
$IIVTG,236.,T,,M,00.0,N,00.0,K,A*2D
$IIDPT,0003.2,,*73
$IIDBT,0010.6,f,0003.2,M,,*7F
$IIVLW,0001.0,N,001.35,N*4B
$IIVHW,,,297.,M,00.00,N,00.00,K*13
$IIMWV,160,R,11.3,N,A*17
$IIVWR,160.,R,11.3,N,05.8,M,020.9,K*7B
$IIMWD,,,096.,M,11.3,N,05.8,M*0F
$IIMTA,19.5,C*08
$IIMTW,15.1,C*16
$IIVWT,160.,R,11.3,N,05.8,M,020.9,K*7D
$IIHDG,297.,,,,*75
$IIHDM,297.,M*1E
$IIGLL,4729.799,N,00222.958,W,111702,A,A*4F
$IIZDA,111702,31,10,2016,,*5D
$IIVTG,236.,T,,M,00.0,N,00.0,K,A*2D
$IIDPT,0003.2,,*73
$IIDBT,0010.6,f,0003.2,M,,*7F
$IIVLW,0001.0,N,001.35,N*4B
$IIVHW,,,297.,M,00.00,N,00.00,K*13
$IIMWV,160,R,11.3,N,A*17
$IIVWR,160.,R,11.3,N,05.8,M,020.9,K*7B
$IIMWD,,,097.,M,11.3,N,05.8,M*0E
$IIMTA,19.5,C*08
$IIMTW,15.1,C*16
$IIVWT,160.,R,11.3,N,05.8,M,020.9,K*7D
$IIHDG,297.,,,,*75
$IIHDM,297.,M*1E
$IIGLL,4729.799,N,00222.958,W,111704,A,A*49
$IIZDA,111704,31,10,2016,,*5B
$IIVTG,236.,T,,M,00.0,N,00.0,K,A*2D
$IIDPT,0003.2,,*73
$IIDBT,0010.6,f,0003.2,M,,*7F
$IIVLW,0001.0,N,001.35,N*4B
$IIVHW,,,297.,M,00.00,N,00.00,K*13
$IIMWV,160,R,11.3,N,A*17
$IIVWR,160.,R,11.3,N,05.8,M,020.9,K*7B
$IIMWD,,,097.,M,11.3,N,05.8,M*0E
$IIMTA,19.5,C*08
$IIMTW,15.1,C*16
$IIVWT,160.,R,11.3,N,05.8,M,020.9,K*7D
$IIHDG,297.,,,,*75
$IIHDM,297.,M*1E
$IIGLL,4729.799,N,00222.958,W,111704,A,A*49
$IIZDA,111704,31,10,2016,,*5B
$IIVTG,236.,T,,M,00.0,N,00.0,K,A*2D
$IIDPT,0003.2,,*73
$IIDBT,0010.6,f,0003.2,M,,*7F
$IIVLW,0001.0,N,001.35,N*4B
$IIVHW,,,297.,M,00.00,N,00.00,K*13
$IIMWV,159,R,11.2,N,A*1C
$IIVWR,159.,R,11.2,N,05.8,M,020.7,K*7E
$IIMWD,,,097.,M,11.2,N,05.8,M*0F
$IIMTA,19.5,C*08
$IIMTW,15.1,C*16
$IIVWT,160.,R,11.2,N,05.8,M,020.7,K*72
$IIHDG,297.,,,,*75
$IIHDM,297.,M*1E
$IIGLL,4729.799,N,00222.958,W,111706,A,A*4B
$IIZDA,111706,31,10,2016,,*59
$IIVTG,236.,T,,M,00.0,N,00.0,K,A*2D
$IIDPT,0003.2,,*73
$IIDBT,0010.6,f,0003.2,M,,*7F
$IIVLW,0001.0,N,001.35,N*4B
$IIVHW,,,297.,M,00.00,N,00.00,K*13
$IIMWV,159,R,11.3,N,A*1D
$IIVWR,159.,R,11.3,N,05.8,M,020.9,K*71
$IIMWD,,,096.,M,11.3,N,05.8,M*0F
$IIMTA,19.5,C*08
$IIMTW,15.1,C*16
$IIVWT,159.,R,11.3,N,05.8,M,020.9,K*77
$IIHDG,297.,,,,*75
$IIHDM,297.,M*1E
$IIGLL,4729.799,N,00222.958,W,111706,A,A*4B
$IIZDA,111706,31,10,2016,,*59
$IIVTG,236.,T,,M,00.0,N,00.0,K,A*2D
$IIDPT,0003.2,,*73
$IIDBT,0010.6,f,0003.2,M,,*7F
$IIVLW,0001.0,N,001.35,N*4B
$IIVHW,,,297.,M,00.00,N,00.00,K*13
$IIMWV,159,R,11.4,N,A*1A
$IIVWR,159.,R,11.4,N,05.9,M,021.1,K*7E
$IIMWD,,,096.,M,11.3,N,05.8,M*0F
$IIMTA,19.5,C*08
$IIMTW,15.1,C*16
$IIVWT,159.,R,11.3,N,05.8,M,020.9,K*77
$IIHDG,297.,,,,*75
$IIHDM,297.,M*1E
$IIGLL,4729.799,N,00222.958,W,111708,A,A*45
$IIZDA,111708,31,10,2016,,*57
$IIVTG,236.,T,,M,00.0,N,00.0,K,A*2D
$IIDPT,0003.2,,*73
$IIDBT,0010.6,f,0003.2,M,,*7F
$IIVLW,0001.0,N,001.35,N*4B
$IIVHW,,,297.,M,00.00,N,00.00,K*13
$IIMWV,160,R,11.3,N,A*17
$IIVWR,160.,R,11.3,N,05.8,M,020.9,K*7B
$IIMWD,,,096.,M,11.4,N,05.9,M*09
$IIMTA,19.5,C*08
$IIMTW,15.2,C*15
$IIVWT,159.,R,11.4,N,05.9,M,021.1,K*78
$IIHDG,297.,,,,*75
$IIHDM,297.,M*1E
$IIGLL,4729.799,N,00222.958,W,111710,A,A*4C
$IIZDA,111710,31,10,2016,,*5E
$IIVTG,236.,T,,M,00.0,N,00.0,K,A*2D
$IIDPT,0003.2,,*73
$IIDBT,0010.6,f,0003.2,M,,*7F
$IIVLW,0001.0,N,001.35,N*4B
$IIVHW,,,297.,M,00.00,N,00.00,K*13
$IIMWV,160,R,11.2,N,A*16
$IIVWR,160.,R,11.2,N,05.8,M,020.7,K*74
$IIMWD,,,097.,M,11.3,N,05.8,M*0E
$IIMTA,19.5,C*08
$IIMTW,15.1,C*16
$IIVWT,160.,R,11.3,N,05.8,M,020.9,K*7D
$IIHDG,297.,,,,*75
$IIHDM,297.,M*1E
$IIGLL,4729.799,N,00222.958,W,111710,A,A*4C
$IIZDA,111710,31,10,2016,,*5E
$IIVTG,236.,T,,M,00.0,N,00.0,K,A*2D
$IIDPT,0003.2,,*73
$IIDBT,0010.6,f,0003.2,M,,*7F
$IIVLW,0001.0,N,001.35,N*4B
$IIVHW,,,297.,M,00.00,N,00.00,K*13
$IIMWV,161,R,11.1,N,A*14
$IIVWR,161.,R,11.1,N,05.7,M,020.6,K*78
$IIMWD,,,097.,M,11.2,N,05.8,M*0F
$IIMTA,19.6,C*0B
$IIMTW,15.1,C*16
$IIVWT,160.,R,11.2,N,05.8,M,020.7,K*72
$IIHDG,297.,,,,*75
$IIHDM,297.,M*1E
$IIGLL,4729.799,N,00222.958,W,111710,A,A*4C
$IIZDA,111710,31,10,2016,,*5E
$IIVTG,236.,T,,M,00.0,N,00.0,K,A*2D
$IIDPT,0003.2,,*73
$IIDBT,0010.6,f,0003.2,M,,*7F
$IIVLW,0001.0,N,001.35,N*4B
$IIVHW,,,297.,M,00.00,N,00.00,K*13
$IIMWV,164,R,10.9,N,A*18
$IIVWR,164.,R,10.9,N,05.6,M,020.2,K*71
$IIMWD,,,098.,M,11.1,N,05.7,M*0C
$IIMTA,19.6,C*0B
$IIMTW,15.1,C*16
$IIVWT,161.,R,10.9,N,05.6,M,020.2,K*72
$IIHDG,297.,,,,*75
$IIHDM,297.,M*1E
$IIGLL,4729.799,N,00222.958,W,111712,A,A*4E
$IIZDA,111712,31,10,2016,,*5C
$IIVTG,236.,T,,M,00.0,N,00.0,K,A*2D
$IIDPT,0003.2,,*73
$IIDBT,0010.6,f,0003.2,M,,*7F
$IIVLW,0001.0,N,001.35,N*4B
$IIVHW,,,297.,M,00.00,N,00.00,K*13
$IIMWV,164,R,10.7,N,A*16
$IIVWR,164.,R,10.7,N,05.5,M,019.8,K*7C
$IIMWD,,,101.,M,10.9,N,05.6,M*05
$IIMTA,19.6,C*0B
$IIMTW,15.2,C*15
$IIVWT,164.,R,10.8,N,05.6,M,020.0,K*74
$IIHDG,297.,,,,*75
$IIHDM,297.,M*1E
$IIGLL,4729.799,N,00222.958,W,111714,A,A*48
$IIZDA,111714,31,10,2016,,*5A
$IIVTG,236.,T,,M,00.0,N,00.0,K,A*2D
$IIDPT,0003.2,,*73
$IIDBT,0010.6,f,0003.2,M,,*7F
$IIVLW,0001.0,N,001.35,N*4B
$IIVHW,,,297.,M,00.00,N,00.00,K*13
$IIMWV,165,R,10.5,N,A*15
$IIVWR,165.,R,10.5,N,05.4,M,019.4,K*72
$IIMWD,,,101.,M,10.8,N,05.6,M*04
$IIMTA,19.6,C*0B
$IIMTW,15.2,C*15
$IIVWT,165.,R,10.5,N,05.4,M,019.4,K*74
$IIHDG,297.,,,,*75
$IIHDM,297.,M*1E
$IIGLL,4729.799,N,00222.958,W,111714,A,A*48
$IIZDA,111714,31,10,2016,,*5A
$IIVTG,236.,T,,M,00.0,N,00.0,K,A*2D
$IIDPT,0003.2,,*73
$IIDBT,0010.6,f,0003.2,M,,*7F
$IIVLW,0001.0,N,001.35,N*4B
$IIVHW,,,297.,M,00.00,N,00.00,K*13
$IIMWV,167,R,10.4,N,A*16
$IIVWR,167.,R,10.4,N,05.3,M,019.3,K*71
$IIMWD,,,103.,M,10.4,N,05.3,M*0F
$IIMTA,19.6,C*0B
$IIMTW,15.2,C*15
$IIVWT,166.,R,10.4,N,05.3,M,019.3,K*76
$IIHDG,297.,,,,*75
$IIHDM,297.,M*1E
$IIGLL,4729.799,N,00222.958,W,111716,A,A*4A
$IIZDA,111716,31,10,2016,,*58
$IIVTG,236.,T,,M,00.0,N,00.0,K,A*2D
$IIDPT,0003.2,,*73
$IIDBT,0010.6,f,0003.2,M,,*7F
$IIVLW,0001.0,N,001.35,N*4B
$IIVHW,,,297.,M,00.00,N,00.00,K*13
$IIMWV,167,R,10.3,N,A*11
$IIVWR,167.,R,10.3,N,05.3,M,019.1,K*74
$IIMWD,,,104.,M,10.4,N,05.3,M*08
$IIMTA,19.6,C*0B
$IIMTW,15.1,C*16
$IIVWT,167.,R,10.4,N,05.3,M,019.3,K*77
$IIHDG,297.,,,,*75
$IIHDM,297.,M*1E
$IIGLL,4729.799,N,00222.958,W,111716,A,A*4A
$IIZDA,111716,31,10,2016,,*58
$IIVTG,236.,T,,M,00.0,N,00.0,K,A*2D
$IIDPT,0003.2,,*73
$IIDBT,0010.6,f,0003.2,M,,*7F
$IIVLW,0001.0,N,001.35,N*4B
$IIVHW,,,297.,M,00.00,N,00.00,K*13
$IIMWV,167,R,10.1,N,A*13
$IIVWR,167.,R,10.1,N,05.2,M,018.7,K*70
$IIMWD,,,104.,M,10.2,N,05.2,M*0F
$IIMTA,19.6,C*0B
$IIMTW,15.2,C*15
$IIVWT,167.,R,10.2,N,05.2,M,018.9,K*7B
$IIHDG,297.,,,,*75
$IIHDM,297.,M*1E
$IIGLL,4729.799,N,00222.958,W,111718,A,A*44
$IIZDA,111718,31,10,2016,,*56
$IIVTG,236.,T,,M,00.0,N,00.0,K,A*2D
$IIDPT,0003.2,,*73
$IIDBT,0010.6,f,0003.2,M,,*7F
$IIVLW,0001.0,N,001.35,N*4B
$IIVHW,,,297.,M,00.00,N,00.00,K*13
$IIMWV,166,R,09.9,N,A*12
$IIVWR,166.,R,09.9,N,05.1,M,018.3,K*76
$IIMWD,,,104.,M,10.1,N,05.2,M*0C
$IIMTA,19.6,C*0B
$IIMTW,15.2,C*15
$IIVWT,166.,R,10.1,N,05.2,M,018.7,K*77
$IIHDG,297.,,,,*75
$IIHDM,297.,M*1E
$IIGLL,4729.799,N,00222.958,W,111718,A,A*44
$IIZDA,111718,31,10,2016,,*56
$IIVTG,236.,T,,M,00.0,N,00.0,K,A*2D
$IIDPT,0003.2,,*73
$IIDBT,0010.6,f,0003.2,M,,*7F
$IIVLW,0001.0,N,001.35,N*4B
$IIVHW,,,297.,M,00.00,N,00.00,K*13
$IIMWV,167,R,09.8,N,A*12
$IIVWR,167.,R,09.8,N,05.0,M,018.1,K*75
$IIMWD,,,103.,M,09.9,N,05.1,M*08
$IIMTA,19.6,C*0B
$IIMTW,15.2,C*15
$IIVWT,166.,R,09.9,N,05.1,M,018.3,K*70
$IIHDG,297.,,,,*75
$IIHDM,297.,M*1E
$IIGLL,4729.799,N,00222.958,W,111720,A,A*4F
$IIZDA,111720,31,10,2016,,*5D
$IIVTG,236.,T,,M,00.0,N,00.0,K,A*2D
$IIDPT,0003.2,,*73
$IIDBT,0010.6,f,0003.2,M,,*7F
$IIVLW,0001.0,N,001.35,N*4B
$IIVHW,,,297.,M,00.00,N,00.00,K*13
$IIMWV,167,R,09.8,N,A*12
$IIVWR,167.,R,09.8,N,05.0,M,018.1,K*75
$IIMWD,,,104.,M,09.8,N,05.0,M*0F
$IIMTA,19.6,C*0B
$IIMTW,15.2,C*15
$IIVWT,167.,R,09.8,N,05.0,M,018.1,K*73
$IIHDG,297.,,,,*75
$IIHDM,297.,M*1E
$IIGLL,4729.799,N,00222.958,W,111720,A,A*4F
$IIZDA,111720,31,10,2016,,*5D
$IIVTG,236.,T,,M,00.0,N,00.0,K,A*2D
$IIDPT,0003.2,,*73
$IIDBT,0010.6,f,0003.2,M,,*7F
$IIVLW,0001.0,N,001.35,N*4B
$IIVHW,,,297.,M,00.00,N,00.00,K*13
$IIMWV,167,R,09.6,N,A*1C
$IIVWR,167.,R,09.6,N,04.9,M,017.8,K*75
$IIMWD,,,104.,M,09.6,N,04.9,M*09
$IIMTA,19.6,C*0B
$IIMTW,15.2,C*15
$IIVWT,167.,R,09.6,N,04.9,M,017.8,K*73
$IIHDG,297.,,,,*75
$IIHDM,297.,M*1E
$IIGLL,4729.799,N,00222.958,W,111722,A,A*4D
$IIZDA,111722,31,10,2016,,*5F
$IIVTG,236.,T,,M,00.0,N,00.0,K,A*2D
$IIDPT,0003.2,,*73
$IIDBT,0010.6,f,0003.2,M,,*7F
$IIVLW,0001.0,N,001.35,N*4B
$IIVHW,,,297.,M,00.00,N,00.00,K*13
$IIMWV,167,R,09.6,N,A*1C
$IIVWR,167.,R,09.6,N,04.9,M,017.8,K*75
$IIMWD,,,104.,M,09.6,N,04.9,M*09
$IIMTA,19.6,C*0B
$IIMTW,15.2,C*15
$IIVWT,167.,R,09.6,N,04.9,M,017.8,K*73
$IIHDG,297.,,,,*75
$IIHDM,297.,M*1E
$IIGLL,4729.799,N,00222.958,W,111724,A,A*4B
$IIZDA,111724,31,10,2016,,*59
$IIVTG,236.,T,,M,00.0,N,00.0,K,A*2D
$IIDPT,0003.2,,*73
$IIDBT,0010.6,f,0003.2,M,,*7F
$IIVLW,0001.0,N,001.35,N*4B
$IIVHW,,,297.,M,00.00,N,00.00,K*13
$IIMWV,168,R,09.4,N,A*11
$IIVWR,168.,R,09.4,N,04.8,M,017.4,K*75
$IIMWD,,,105.,M,09.6,N,04.9,M*08
$IIMTA,19.6,C*0B
$IIMTW,15.2,C*15
$IIVWT,168.,R,09.4,N,04.8,M,017.4,K*73
$IIHDG,297.,,,,*75
$IIHDM,297.,M*1E
$IIGLL,4729.799,N,00222.958,W,111724,A,A*4B
$IIZDA,111724,31,10,2016,,*59
$IIVTG,236.,T,,M,00.0,N,00.0,K,A*2D
$IIDPT,0003.2,,*73
$IIDBT,0010.6,f,0003.2,M,,*7F
$IIVLW,0001.0,N,001.35,N*4B
$IIVHW,,,297.,M,00.00,N,00.00,K*13
$IIMWV,168,R,09.3,N,A*16
$IIVWR,168.,R,09.3,N,04.8,M,017.2,K*74
$IIMWD,,,106.,M,09.4,N,04.8,M*08
$IIMTA,19.6,C*0B
$IIMTW,15.2,C*15
$IIVWT,169.,R,09.4,N,04.8,M,017.4,K*72
$IIHDG,297.,,,,*75
$IIHDM,297.,M*1E
$IIGLL,4729.799,N,00222.958,W,111726,A,A*49
$IIZDA,111726,31,10,2016,,*5B
$IIVTG,236.,T,,M,00.0,N,00.0,K,A*2D
$IIDPT,0003.2,,*73
$IIDBT,0010.6,f,0003.2,M,,*7F
$IIVLW,0001.0,N,001.35,N*4B
$IIVHW,,,297.,M,00.00,N,00.00,K*13
$IIMWV,169,R,09.2,N,A*16
$IIVWR,169.,R,09.2,N,04.7,M,017.0,K*79
$IIMWD,,,105.,M,09.3,N,04.8,M*0C
$IIMTA,19.6,C*0B
$IIMTW,15.2,C*15
$IIVWT,168.,R,09.3,N,04.8,M,017.2,K*72
$IIHDG,297.,,,,*75
$IIHDM,297.,M*1E
$IIGLL,4729.799,N,00222.958,W,111726,A,A*49
$IIZDA,111726,31,10,2016,,*5B
$IIVTG,236.,T,,M,00.0,N,00.0,K,A*2D
$IIDPT,0003.2,,*73
$IIDBT,0010.6,f,0003.2,M,,*7F
$IIVLW,0001.0,N,001.35,N*4B
$IIVHW,,,296.,M,00.00,N,00.00,K*12
$IIMWV,170,R,09.1,N,A*1D
$IIVWR,170.,R,09.1,N,04.7,M,016.9,K*7A
$IIMWD,,,107.,M,09.1,N,04.7,M*03
$IIMTA,19.7,C*0A
$IIMTW,15.2,C*15
$IIVWT,170.,R,09.1,N,04.7,M,016.9,K*7C
$IIHDG,296.,,,,*74
$IIHDM,296.,M*1F
$IIGLL,4729.799,N,00222.958,W,111728,A,A*47
$IIZDA,111728,31,10,2016,,*55
$IIVTG,236.,T,,M,00.0,N,00.0,K,A*2D
$IIDPT,0003.2,,*73
$IIDBT,0010.6,f,0003.2,M,,*7F
$IIVLW,0001.0,N,001.35,N*4B
$IIVHW,,,296.,M,00.00,N,00.00,K*12
$IIMWV,171,R,08.9,N,A*15
$IIVWR,171.,R,08.9,N,04.6,M,016.5,K*7F
$IIMWD,,,106.,M,09.0,N,04.6,M*02
$IIMTA,19.7,C*0A
$IIMTW,15.2,C*15
$IIVWT,170.,R,09.0,N,04.6,M,016.7,K*72
$IIHDG,296.,,,,*74
$IIHDM,296.,M*1F
$IIGLL,4729.799,N,00222.958,W,111728,A,A*47
$IIZDA,111728,31,10,2016,,*55
$IIVTG,236.,T,,M,00.0,N,00.0,K,A*2D
$IIDPT,0003.2,,*73
$IIDBT,0010.6,f,0003.2,M,,*7F
$IIVLW,0001.0,N,001.35,N*4B
$IIVHW,,,296.,M,00.00,N,00.00,K*12
$IIMWV,171,R,08.8,N,A*14
$IIVWR,171.,R,08.8,N,04.5,M,016.3,K*7B
$IIMWD,,,107.,M,08.8,N,04.5,M*09
$IIMTA,19.6,C*0B
$IIMTW,15.2,C*15
$IIVWT,171.,R,08.8,N,04.5,M,016.3,K*7D
$IIHDG,296.,,,,*74
$IIHDM,296.,M*1F
$IIGLL,4729.799,N,00222.958,W,111730,A,A*4E
$IIZDA,111730,31,10,2016,,*5C
$IIVTG,236.,T,,M,00.0,N,00.0,K,A*2D
$IIDPT,0003.2,,*73
$IIDBT,0010.6,f,0003.2,M,,*7F
$IIVLW,0001.0,N,001.35,N*4B
$IIVHW,,,296.,M,00.00,N,00.00,K*12
$IIMWV,172,R,08.7,N,A*18
$IIVWR,172.,R,08.7,N,04.5,M,016.1,K*75
$IIMWD,,,108.,M,08.7,N,04.5,M*09
$IIMTA,19.7,C*0A
$IIMTW,15.2,C*15
$IIVWT,172.,R,08.7,N,04.5,M,016.1,K*73
$IIHDG,296.,,,,*74
$IIHDM,296.,M*1F
$IIGLL,4729.799,N,00222.958,W,111730,A,A*4E
$IIZDA,111730,31,10,2016,,*5C
$IIVTG,236.,T,,M,00.0,N,00.0,K,A*2D
$IIDPT,0003.2,,*73
$IIDBT,0010.6,f,0003.2,M,,*7F
$IIVLW,0001.0,N,001.35,N*4B
$IIVHW,,,296.,M,00.00,N,00.00,K*12
$IIMWV,173,R,08.6,N,A*18
$IIVWR,173.,R,08.6,N,04.4,M,015.9,K*7F
$IIMWD,,,108.,M,08.7,N,04.5,M*09
$IIMTA,19.7,C*0A
$IIMTW,15.2,C*15
$IIVWT,173.,R,08.6,N,04.4,M,015.9,K*79
$IIHDG,296.,,,,*74
$IIHDM,296.,M*1F
$IIGLL,4729.799,N,00222.958,W,111732,A,A*4C
$IIZDA,111732,31,10,2016,,*5E
$IIVTG,236.,T,,M,00.0,N,00.0,K,A*2D
$IIDPT,0003.2,,*73
$IIDBT,0010.6,f,0003.2,M,,*7F
$IIVLW,0001.0,N,001.35,N*4B
$IIVHW,,,296.,M,00.00,N,00.00,K*12
$IIMWV,173,R,08.5,N,A*1B
$IIVWR,173.,R,08.5,N,04.4,M,015.7,K*72
$IIMWD,,,109.,M,08.5,N,04.4,M*0B
$IIMTA,19.7,C*0A
$IIMTW,15.2,C*15
$IIVWT,173.,R,08.5,N,04.4,M,015.7,K*74
$IIHDG,296.,,,,*74
$IIHDM,296.,M*1F
$IIGLL,4729.799,N,00222.958,W,111732,A,A*4C
$IIZDA,111732,31,10,2016,,*5E
$IIVTG,236.,T,,M,00.0,N,00.0,K,A*2D
$IIDPT,0003.2,,*73
$IIDBT,0010.6,f,0003.2,M,,*7F
$IIVLW,0001.0,N,001.35,N*4B
$IIVHW,,,296.,M,00.00,N,00.00,K*12
$IIMWV,173,R,08.4,N,A*1A
$IIVWR,173.,R,08.4,N,04.3,M,015.6,K*75
$IIMWD,,,109.,M,08.4,N,04.3,M*0D
$IIMTA,19.7,C*0A
$IIMTW,15.2,C*15
$IIVWT,173.,R,08.4,N,04.3,M,015.6,K*73
$IIHDG,296.,,,,*74
$IIHDM,296.,M*1F
$IIGLL,4729.799,N,00222.958,W,111734,A,A*4A
$IIZDA,111734,31,10,2016,,*58
$IIVTG,236.,T,,M,00.0,N,00.0,K,A*2D
$IIDPT,0003.2,,*73
$IIDBT,0010.6,f,0003.2,M,,*7F
$IIVLW,0001.0,N,001.35,N*4B
$IIVHW,,,296.,M,00.00,N,00.00,K*12
$IIMWV,173,R,08.3,N,A*1D
$IIVWR,173.,R,08.3,N,04.3,M,015.4,K*70
$IIMWD,,,109.,M,08.3,N,04.3,M*0A
$IIMTA,19.7,C*0A
$IIMTW,15.2,C*15
$IIVWT,173.,R,08.3,N,04.3,M,015.4,K*76
$IIHDG,296.,,,,*74
$IIHDM,296.,M*1F
$IIGLL,4729.799,N,00222.958,W,111736,A,A*48
$IIZDA,111736,31,10,2016,,*5A
$IIVTG,236.,T,,M,00.0,N,00.0,K,A*2D
$IIDPT,0003.2,,*73
$IIDBT,0010.6,f,0003.2,M,,*7F
$IIVLW,0001.0,N,001.35,N*4B
$IIVHW,,,296.,M,00.00,N,00.00,K*12
$IIMWV,173,R,08.2,N,A*1C
$IIVWR,173.,R,08.2,N,04.2,M,015.2,K*76
$IIMWD,,,109.,M,08.2,N,04.2,M*0A
$IIMTA,19.7,C*0A
$IIMTW,15.2,C*15
$IIVWT,173.,R,08.2,N,04.2,M,015.2,K*70
$IIHDG,296.,,,,*74
$IIHDM,296.,M*1F
$IIGLL,4729.799,N,00222.958,W,111736,A,A*48
$IIZDA,111736,31,10,2016,,*5A
$IIVTG,236.,T,,M,00.0,N,00.0,K,A*2D
$IIDPT,0003.2,,*73
$IIDBT,0010.6,f,0003.2,M,,*7F
$IIVLW,0001.0,N,001.35,N*4B
$IIVHW,,,296.,M,00.00,N,00.00,K*12
$IIMWV,173,R,08.1,N,A*1F
$IIVWR,173.,R,08.1,N,04.2,M,015.0,K*77
$IIMWD,,,109.,M,08.1,N,04.2,M*09
$IIMTA,19.7,C*0A
$IIMTW,15.2,C*15
$IIVWT,173.,R,08.1,N,04.2,M,015.0,K*71
$IIHDG,296.,,,,*74
$IIHDM,296.,M*1F
$IIGLL,4729.799,N,00222.958,W,111738,A,A*46
$IIZDA,111738,31,10,2016,,*54
$IIVTG,236.,T,,M,00.0,N,00.0,K,A*2D
$IIDPT,0003.2,,*73
$IIDBT,0010.6,f,0003.2,M,,*7F
$IIVLW,0001.0,N,001.35,N*4B
$IIVHW,,,296.,M,00.00,N,00.00,K*12
$IIMWV,173,R,07.9,N,A*18
$IIVWR,173.,R,07.9,N,04.1,M,014.6,K*74
$IIMWD,,,108.,M,08.0,N,04.1,M*0A
$IIMTA,19.7,C*0A
$IIMTW,15.2,C*15
$IIVWT,172.,R,08.0,N,04.1,M,014.8,K*7B
$IIHDG,296.,,,,*74
$IIHDM,296.,M*1F
$IIGLL,4729.799,N,00222.958,W,111738,A,A*46
$IIZDA,111738,31,10,2016,,*54
$IIVTG,236.,T,,M,00.0,N,00.0,K,A*2D
$IIDPT,0003.2,,*73
$IIDBT,0010.6,f,0003.2,M,,*7F
$IIVLW,0001.0,N,001.35,N*4B
$IIVHW,,,296.,M,00.00,N,00.00,K*12
$IIMWV,172,R,07.9,N,A*19
$IIVWR,172.,R,07.9,N,04.1,M,014.6,K*75
$IIMWD,,,109.,M,07.9,N,04.1,M*0D
$IIMTA,19.7,C*0A
$IIMTW,15.2,C*15
$IIVWT,173.,R,07.9,N,04.1,M,014.6,K*72
$IIHDG,296.,,,,*74
$IIHDM,296.,M*1F
$IIGLL,4729.799,N,00222.958,W,111740,A,A*49
$IIZDA,111740,31,10,2016,,*5B
$IIVTG,236.,T,,M,00.0,N,00.0,K,A*2D
$IIDPT,0003.4,,*75
$IIDBT,0011.0,f,0003.4,M,,*7E
$IIVLW,0001.0,N,001.35,N*4B
$IIVHW,,,296.,M,00.00,N,00.00,K*12
$IIMWV,172,R,07.8,N,A*18
$IIVWR,172.,R,07.8,N,04.0,M,014.4,K*77
$IIMWD,,,108.,M,07.8,N,04.0,M*0C
$IIMTA,19.7,C*0A
$IIMTW,15.2,C*15
$IIVWT,172.,R,07.8,N,04.0,M,014.4,K*71
$IIHDG,297.,,,,*75
$IIHDM,297.,M*1E
$IIGLL,4729.799,N,00222.958,W,111740,A,A*49
$IIZDA,111740,31,10,2016,,*5B
$IIVTG,236.,T,,M,00.0,N,00.0,K,A*2D
$IIDPT,0003.4,,*75
$IIDBT,0011.0,f,0003.4,M,,*7E
$IIVLW,0001.0,N,001.35,N*4B
$IIVHW,,,297.,M,00.00,N,00.00,K*13
$IIMWV,171,R,07.8,N,A*1B
$IIVWR,171.,R,07.8,N,04.0,M,014.4,K*74
$IIMWD,,,109.,M,07.8,N,04.0,M*0D
$IIMTA,19.7,C*0A
$IIMTW,15.2,C*15
$IIVWT,172.,R,07.8,N,04.0,M,014.4,K*71
$IIHDG,297.,,,,*75
$IIHDM,297.,M*1E
$IIGLL,4729.799,N,00222.958,W,111742,A,A*4B
$IIZDA,111742,31,10,2016,,*59
$IIVTG,236.,T,,M,00.0,N,00.0,K,A*2D
$IIDPT,0003.2,,*73
$IIDBT,0010.6,f,0003.2,M,,*7F
$IIVLW,0001.0,N,001.35,N*4B
$IIVHW,,,297.,M,00.00,N,00.00,K*13
$IIMWV,170,R,07.7,N,A*15
$IIVWR,170.,R,07.7,N,04.0,M,014.3,K*7D
$IIMWD,,,108.,M,07.7,N,04.0,M*03
$IIMTA,19.7,C*0A
$IIMTW,15.2,C*15
$IIVWT,170.,R,07.7,N,04.0,M,014.3,K*7B
$IIHDG,297.,,,,*75
$IIHDM,297.,M*1E
$IIGLL,4729.799,N,00222.958,W,111742,A,A*4B
$IIZDA,111742,31,10,2016,,*59
$IIVTG,236.,T,,M,00.0,N,00.0,K,A*2D
$IIDPT,0003.2,,*73
$IIDBT,0010.6,f,0003.2,M,,*7F
$IIVLW,0001.0,N,001.35,N*4B
$IIVHW,,,297.,M,00.00,N,00.00,K*13
$IIMWV,170,R,07.6,N,A*14
$IIVWR,170.,R,07.6,N,03.9,M,014.1,K*70
$IIMWD,,,107.,M,07.6,N,03.9,M*03
$IIMTA,19.7,C*0A
$IIMTW,15.2,C*15
$IIVWT,170.,R,07.6,N,03.9,M,014.1,K*76
$IIHDG,297.,,,,*75
$IIHDM,297.,M*1E
$IIGLL,4729.799,N,00222.958,W,111744,A,A*4D
$IIZDA,111744,31,10,2016,,*5F
$IIVTG,236.,T,,M,00.0,N,00.0,K,A*2D
$IIDPT,0003.2,,*73
$IIDBT,0010.6,f,0003.2,M,,*7F
$IIVLW,0001.0,N,001.35,N*4B
$IIVHW,,,297.,M,00.00,N,00.00,K*13
$IIMWV,170,R,07.5,N,A*17
$IIVWR,170.,R,07.5,N,03.9,M,013.9,K*7C
$IIMWD,,,107.,M,07.5,N,03.9,M*00
$IIMTA,19.7,C*0A
$IIMTW,15.2,C*15
$IIVWT,170.,R,07.5,N,03.9,M,013.9,K*7A
$IIHDG,297.,,,,*75
$IIHDM,297.,M*1E
$IIGLL,4729.799,N,00222.958,W,111744,A,A*4D
$IIZDA,111744,31,10,2016,,*5F
$IIVTG,236.,T,,M,00.0,N,00.0,K,A*2D
$IIDPT,0003.2,,*73
$IIDBT,0010.6,f,0003.2,M,,*7F
$IIVLW,0001.0,N,001.35,N*4B
$IIVHW,,,297.,M,00.00,N,00.00,K*13
$IIMWV,169,R,07.5,N,A*1F
$IIVWR,169.,R,07.5,N,03.9,M,013.9,K*74
$IIMWD,,,106.,M,07.5,N,03.9,M*01
$IIMTA,19.7,C*0A
$IIMTW,15.2,C*15
$IIVWT,169.,R,07.5,N,03.9,M,013.9,K*72
$IIHDG,297.,,,,*75
$IIHDM,297.,M*1E
$IIGLL,4729.799,N,00222.958,W,111746,A,A*4F
$IIZDA,111746,31,10,2016,,*5D
$IIVTG,236.,T,,M,00.0,N,00.0,K,A*2D
$IIDPT,0003.2,,*73
$IIDBT,0010.6,f,0003.2,M,,*7F
$IIVLW,0001.0,N,001.35,N*4B
$IIVHW,,,297.,M,00.00,N,00.00,K*13
$IIMWV,169,R,07.4,N,A*1E
$IIVWR,169.,R,07.4,N,03.8,M,013.7,K*7A
$IIMWD,,,106.,M,07.4,N,03.8,M*01
$IIMTA,19.7,C*0A
$IIMTW,15.2,C*15
$IIVWT,169.,R,07.4,N,03.8,M,013.7,K*7C
$IIHDG,297.,,,,*75
$IIHDM,297.,M*1E
$IIGLL,4729.799,N,00222.958,W,111748,A,A*41
$IIZDA,111748,31,10,2016,,*53
$IIVTG,236.,T,,M,00.0,N,00.0,K,A*2D
$IIDPT,0003.2,,*73
$IIDBT,0010.6,f,0003.2,M,,*7F
$IIVLW,0001.0,N,001.35,N*4B
$IIVHW,,,297.,M,00.00,N,00.00,K*13
$IIMWV,170,R,07.4,N,A*16
$IIVWR,170.,R,07.4,N,03.8,M,013.7,K*72
$IIMWD,,,106.,M,07.4,N,03.8,M*01
$IIMTA,19.7,C*0A
$IIMTW,15.2,C*15
$IIVWT,169.,R,07.4,N,03.8,M,013.7,K*7C
$IIHDG,297.,,,,*75
$IIHDM,297.,M*1E
$IIGLL,4729.799,N,00222.958,W,111748,A,A*41
$IIZDA,111748,31,10,2016,,*53
$IIVTG,236.,T,,M,00.0,N,00.0,K,A*2D
$IIDPT,0003.2,,*73
$IIDBT,0010.6,f,0003.2,M,,*7F
$IIVLW,0001.0,N,001.35,N*4B
$IIVHW,,,297.,M,00.00,N,00.00,K*13
$IIMWV,170,R,07.4,N,A*16
$IIVWR,170.,R,07.4,N,03.8,M,013.7,K*72
$IIMWD,,,107.,M,07.4,N,03.8,M*00
$IIMTA,19.7,C*0A
$IIMTW,15.2,C*15
$IIVWT,170.,R,07.4,N,03.8,M,013.7,K*74
$IIHDG,297.,,,,*75
$IIHDM,297.,M*1E
$IIGLL,4729.799,N,00222.958,W,111750,A,A*48
$IIZDA,111750,31,10,2016,,*5A
$IIVTG,236.,T,,M,00.0,N,00.0,K,A*2D
$IIDPT,0003.2,,*73
$IIDBT,0010.6,f,0003.2,M,,*7F
$IIVLW,0001.0,N,001.35,N*4B
$IIVHW,,,297.,M,00.00,N,00.00,K*13
$IIMWV,171,R,07.3,N,A*10
$IIVWR,171.,R,07.3,N,03.8,M,013.5,K*76
$IIMWD,,,108.,M,07.3,N,03.8,M*08
$IIMTA,19.8,C*05
$IIMTW,15.2,C*15
$IIVWT,171.,R,07.3,N,03.8,M,013.5,K*70
$IIHDG,297.,,,,*75
$IIHDM,297.,M*1E
$IIGLL,4729.799,N,00222.958,W,111750,A,A*48
$IIZDA,111750,31,10,2016,,*5A
$IIVTG,236.,T,,M,00.0,N,00.0,K,A*2D
$IIDPT,0003.2,,*73
$IIDBT,0010.6,f,0003.2,M,,*7F
$IIVLW,0001.0,N,001.35,N*4B
$IIVHW,,,297.,M,00.00,N,00.00,K*13
$IIMWV,172,R,07.3,N,A*13
$IIVWR,172.,R,07.3,N,03.8,M,013.5,K*75
$IIMWD,,,109.,M,07.3,N,03.8,M*09
$IIMTA,19.8,C*05
$IIMTW,15.2,C*15
$IIVWT,172.,R,07.3,N,03.8,M,013.5,K*73
$IIHDG,297.,,,,*75
$IIHDM,297.,M*1E
$IIGLL,4729.799,N,00222.958,W,111752,A,A*4A
$IIZDA,111752,31,10,2016,,*58
$IIVTG,236.,T,,M,00.0,N,00.0,K,A*2D
$IIDPT,0003.2,,*73
$IIDBT,0010.6,f,0003.2,M,,*7F
$IIVLW,0001.0,N,001.35,N*4B
$IIVHW,,,297.,M,00.00,N,00.00,K*13
$IIMWV,173,R,07.2,N,A*13
$IIVWR,173.,R,07.2,N,03.7,M,013.3,K*7C
$IIMWD,,,110.,M,07.3,N,03.8,M*01
$IIMTA,19.8,C*05
$IIMTW,15.2,C*15
$IIVWT,173.,R,07.3,N,03.8,M,013.5,K*72
$IIHDG,297.,,,,*75
$IIHDM,297.,M*1E
$IIGLL,4729.799,N,00222.958,W,111752,A,A*4A
$IIZDA,111752,31,10,2016,,*58
$IIVTG,236.,T,,M,00.0,N,00.0,K,A*2D
$IIDPT,0003.2,,*73
$IIDBT,0010.6,f,0003.2,M,,*7F
$IIVLW,0001.0,N,001.35,N*4B
$IIVHW,,,297.,M,00.00,N,00.00,K*13
$IIMWV,173,R,07.1,N,A*10
$IIVWR,173.,R,07.1,N,03.7,M,013.1,K*7D
$IIMWD,,,110.,M,07.2,N,03.7,M*0F
$IIMTA,19.8,C*05
$IIMTW,15.2,C*15
$IIVWT,173.,R,07.1,N,03.7,M,013.1,K*7B
$IIHDG,297.,,,,*75
$IIHDM,297.,M*1E
$IIGLL,4729.799,N,00222.958,W,111754,A,A*4C
$IIZDA,111754,31,10,2016,,*5E
$IIVTG,236.,T,,M,00.0,N,00.0,K,A*2D
$IIDPT,0003.2,,*73
$IIDBT,0010.6,f,0003.2,M,,*7F
$IIVLW,0001.0,N,001.35,N*4B
$IIVHW,,,297.,M,00.00,N,00.00,K*13
$IIMWV,173,R,07.1,N,A*10
$IIVWR,173.,R,07.1,N,03.7,M,013.1,K*7D
$IIMWD,,,110.,M,07.1,N,03.7,M*0C
$IIMTA,19.8,C*05
$IIMTW,15.2,C*15
$IIVWT,173.,R,07.1,N,03.7,M,013.1,K*7B
$IIHDG,297.,,,,*75
$IIHDM,297.,M*1E
$IIGLL,4729.799,N,00222.958,W,111754,A,A*4C
$IIZDA,111754,31,10,2016,,*5E
$IIVTG,236.,T,,M,00.0,N,00.0,K,A*2D
$IIDPT,0003.2,,*73
$IIDBT,0010.6,f,0003.2,M,,*7F
$IIVLW,0001.0,N,001.35,N*4B
$IIVHW,,,297.,M,00.00,N,00.00,K*13
$IIMWV,174,R,07.0,N,A*16
$IIVWR,174.,R,07.0,N,03.6,M,013.0,K*7B
$IIMWD,,,111.,M,07.0,N,03.6,M*0D
$IIMTA,19.8,C*05
$IIMTW,15.2,C*15
$IIVWT,174.,R,07.0,N,03.6,M,013.0,K*7D
$IIHDG,297.,,,,*75
$IIHDM,297.,M*1E
$IIGLL,4729.799,N,00222.958,W,111756,A,A*4E
$IIZDA,111756,31,10,2016,,*5C
$IIVTG,236.,T,,M,00.0,N,00.0,K,A*2D
$IIDPT,0003.2,,*73
$IIDBT,0010.6,f,0003.2,M,,*7F
$IIVLW,0001.0,N,001.35,N*4B
$IIVHW,,,297.,M,00.00,N,00.00,K*13
$IIMWV,176,R,07.0,N,A*14
$IIVWR,176.,R,07.0,N,03.6,M,013.0,K*79
$IIMWD,,,113.,M,07.0,N,03.6,M*0F
$IIMTA,19.8,C*05
$IIMTW,15.2,C*15
$IIVWT,176.,R,07.0,N,03.6,M,013.0,K*7F
$IIHDG,297.,,,,*75
$IIHDM,297.,M*1E
$IIGLL,4729.799,N,00222.958,W,111758,A,A*40
$IIZDA,111758,31,10,2016,,*52
$IIVTG,236.,T,,M,00.0,N,00.0,K,A*2D
$IIDPT,0003.2,,*73
$IIDBT,0010.6,f,0003.2,M,,*7F
$IIVLW,0001.0,N,001.35,N*4B
$IIVHW,,,297.,M,00.00,N,00.00,K*13
$IIMWV,177,R,06.9,N,A*1D
$IIVWR,177.,R,06.9,N,03.5,M,012.8,K*7A
$IIMWD,,,114.,M,06.9,N,03.5,M*03
$IIMTA,19.8,C*05
$IIMTW,15.2,C*15
$IIVWT,177.,R,06.9,N,03.5,M,012.8,K*7C
$IIHDG,297.,,,,*75
$IIHDM,297.,M*1E
$IIGLL,4729.799,N,00222.958,W,111758,A,A*40

-----------------------------------------------
Date: 31/10/2016 - 12:17:22
End log file
