$GPRMC,074918,A,4730.2010,N,00223.2003,W,0.0,275.8,290518,2.9,W,A*1D
$GPGGA,074918,4730.2010,N,00223.2003,W,1,11,0.8,1.7,M,48.9,M,,*59
$GPGSA,A,3,10,12,13,15,17,19,20,24,25,32,33,,1.5,0.8,1.3*34
$GPGSV,3,3,11,25,21,231,00,32,18,315,00,33,65,090,00*48
$GPGLL,4730.2010,N,00223.2003,W,074918,A,A*57
$GPBOD,,T,,M,,*47
$GPVTG,275.8,T,278.7,M,0.0,N,0.0,K*4C
$GPRTE,1,1,c,*37
$GPRMC,074920,A,4730.2010,N,00223.2003,W,0.0,275.8,290518,2.9,W,A*16
$GPGGA,074920,4730.2010,N,00223.2003,W,1,11,0.8,1.7,M,48.9,M,,*52
$GPGSA,A,3,10,12,13,15,17,19,20,24,25,32,33,,1.5,0.8,1.3*34
$GPGSV,3,1,11,10,24,284,00,12,64,221,00,13,13,144,00,15,40,169,00*7D
$GPGLL,4730.2010,N,00223.2003,W,074920,A,A*5C
$GPBOD,,T,,M,,*47
$GPVTG,275.8,T,278.7,M,0.0,N,0.0,K*4C
$GPRTE,1,1,c,*37
$GPRMC,074922,A,4730.2010,N,00223.2003,W,0.0,275.8,290518,2.9,W,A*14
$GPGGA,074922,4730.2010,N,00223.2003,W,1,11,0.8,1.7,M,48.9,M,,*50
$GPGSA,A,3,10,12,13,15,17,19,20,24,25,32,33,,1.5,0.8,1.3*34
$GPGSV,3,2,11,17,29,052,00,19,38,078,00,20,15,245,00,24,82,035,00*71
$GPGLL,4730.2010,N,00223.2003,W,074922,A,A*5E
$GPBOD,,T,,M,,*47
$GPVTG,275.8,T,278.7,M,0.0,N,0.0,K*4C
$GPRTE,1,1,c,*37
$GPRMC,074924,A,4730.2010,N,00223.2003,W,0.0,275.8,290518,2.9,W,A*12
$GPGGA,074924,4730.2010,N,00223.2003,W,1,11,0.8,1.7,M,48.9,M,,*56
$GPGSA,A,3,10,12,13,15,17,19,20,24,25,32,33,,1.5,0.8,1.3*34
$GPGSV,3,3,11,25,21,231,00,32,18,315,00,33,65,090,00*48
$GPGLL,4730.2010,N,00223.2003,W,074924,A,A*58
$GPBOD,,T,,M,,*47
$GPVTG,275.8,T,278.7,M,0.0,N,0.0,K*4C
$GPRTE,1,1,c,*37
$GPRMC,074926,A,4730.2010,N,00223.2003,W,0.0,275.8,290518,2.9,W,A*10
$GPGGA,074926,4730.2010,N,00223.2003,W,1,11,0.8,1.7,M,48.9,M,,*54
$GPGSA,A,3,10,12,13,15,17,19,20,24,25,32,33,,1.5,0.8,1.3*34
$GPGSV,3,1,11,10,24,284,00,12,64,221,00,13,13,144,00,15,40,169,00*7D
$GPGLL,4730.2010,N,00223.2003,W,074926,A,A*5A
$GPBOD,,T,,M,,*47
$GPVTG,275.8,T,278.7,M,0.0,N,0.0,K*4C
$GPRTE,1,1,c,*37
$GPRMC,074928,A,4730.2010,N,00223.2003,W,0.0,275.8,290518,2.9,W,A*1E
$GPGGA,074928,4730.2010,N,00223.2003,W,1,11,0.8,1.7,M,48.9,M,,*5A
$GPGSA,A,3,10,12,13,15,17,19,20,24,25,32,33,,1.5,0.8,1.3*34
$GPGSV,3,2,11,17,29,052,00,19,38,078,00,20,15,245,00,24,82,035,00*71
$GPGLL,4730.2010,N,00223.2003,W,074928,A,A*54
$GPBOD,,T,,M,,*47
$GPVTG,275.8,T,278.7,M,0.0,N,0.0,K*4C
$GPRTE,1,1,c,*37
$GPRMC,074930,A,4730.2010,N,00223.2003,W,0.0,275.8,290518,2.9,W,A*17
$GPGGA,074930,4730.2010,N,00223.2003,W,1,11,0.8,1.7,M,48.9,M,,*53
$GPGSA,A,3,10,12,13,15,17,19,20,24,25,32,33,,1.5,0.8,1.3*34
$GPGSV,3,3,11,25,21,231,00,32,18,315,00,33,65,090,00*48
$GPGLL,4730.2010,N,00223.2003,W,074930,A,A*5D
$GPBOD,,T,,M,,*47
$GPVTG,275.8,T,278.7,M,0.0,N,0.0,K*4C
$GPRTE,1,1,c,*37
$GPRMC,074932,A,4730.2010,N,00223.2003,W,0.0,275.8,290518,2.9,W,A*15
$GPGGA,074932,4730.2010,N,00223.2003,W,1,11,0.8,1.7,M,48.9,M,,*51
$GPGSA,A,3,10,12,13,15,17,19,20,24,25,32,33,,1.5,0.8,1.3*34
$GPGSV,3,1,11,10,24,283,00,12,64,221,00,13,13,144,00,15,40,169,00*7A
$GPGLL,4730.2010,N,00223.2003,W,074932,A,A*5F
$GPBOD,,T,,M,,*47
$GPVTG,275.8,T,278.7,M,0.0,N,0.0,K*4C
$GPRTE,1,1,c,*37
$GPRMC,074934,A,4730.2010,N,00223.2003,W,0.0,275.8,290518,2.9,W,A*13
$GPGGA,074934,4730.2010,N,00223.2003,W,1,11,0.8,1.7,M,48.9,M,,*57
$GPGSA,A,3,10,12,13,15,17,19,20,24,25,32,33,,1.5,0.8,1.3*34
$GPGSV,3,2,11,17,29,052,00,19,38,078,00,20,15,245,00,24,82,035,00*71
$GPGLL,4730.2010,N,00223.2003,W,074934,A,A*59
$GPBOD,,T,,M,,*47
$GPVTG,275.8,T,278.7,M,0.0,N,0.0,K*4C
$GPRTE,1,1,c,*37
$GPRMC,074936,A,4730.2010,N,00223.2003,W,0.0,275.8,290518,2.9,W,A*11
$GPGGA,074936,4730.2010,N,00223.2003,W,1,11,0.8,1.7,M,48.9,M,,*55
$GPGSA,A,3,10,12,13,15,17,19,20,24,25,32,33,,1.5,0.8,1.3*34
$GPGSV,3,3,11,25,21,231,00,32,18,315,00,33,65,090,00*48
$GPGLL,4730.2010,N,00223.2003,W,074936,A,A*5B
$GPBOD,,T,,M,,*47
$GPVTG,275.8,T,278.7,M,0.0,N,0.0,K*4C
$GPRTE,1,1,c,*37
$GPRMC,074938,A,4730.2010,N,00223.2003,W,0.0,275.8,290518,2.9,W,A*1F
$GPGGA,074938,4730.2010,N,00223.2003,W,1,11,0.8,1.7,M,48.9,M,,*5B
$GPGSA,A,3,10,12,13,15,17,19,20,24,25,32,33,,1.5,0.8,1.3*34
$GPGSV,3,1,11,10,24,283,00,12,64,222,00,13,13,145,00,15,40,169,00*78
$GPGLL,4730.2010,N,00223.2003,W,074938,A,A*55
$GPBOD,,T,,M,,*47
$GPVTG,275.8,T,278.7,M,0.0,N,0.0,K*4C
$GPRTE,1,1,c,*37
$GPRMC,074940,A,4730.2010,N,00223.2003,W,0.0,275.8,290518,2.9,W,A*10
$GPGGA,074940,4730.2010,N,00223.2003,W,1,11,0.8,1.7,M,48.9,M,,*54
$GPGSA,A,3,10,12,13,15,17,19,20,24,25,32,33,,1.5,0.8,1.3*34
$GPGSV,3,2,11,17,29,052,00,19,38,078,00,20,15,245,00,24,82,035,00*71
$GPGLL,4730.2010,N,00223.2003,W,074940,A,A*5A
$GPBOD,,T,,M,,*47
$GPVTG,275.8,T,278.7,M,0.0,N,0.0,K*4C
$GPRTE,1,1,c,*37
$GPRMC,074942,A,4730.2011,N,00223.2001,W,0.0,275.8,290518,2.9,W,A*11
$GPGGA,074942,4730.2011,N,00223.2001,W,1,11,0.8,1.6,M,48.9,M,,*54
$GPGSA,A,3,10,12,13,15,17,19,20,24,25,32,33,,1.5,0.8,1.3*34
$GPGSV,3,3,11,25,21,231,00,32,18,315,00,33,65,090,00*48
$GPGLL,4730.2011,N,00223.2001,W,074942,A,A*5B
$GPBOD,,T,,M,,*47
$GPVTG,275.8,T,278.7,M,0.0,N,0.0,K*4C
$GPRTE,1,1,c,*37
$GPRMC,074944,A,4730.2011,N,00223.2001,W,0.0,275.8,290518,2.9,W,A*17
$GPGGA,074944,4730.2011,N,00223.2001,W,1,11,0.8,1.6,M,48.9,M,,*52
$GPGSA,A,3,10,12,13,15,17,19,20,24,25,32,33,,1.5,0.8,1.3*34
$GPGSV,3,1,11,10,24,283,00,12,64,222,00,13,13,145,00,15,40,169,00*78
$GPGLL,4730.2011,N,00223.2001,W,074944,A,A*5D
$GPBOD,,T,,M,,*47
$GPVTG,275.8,T,278.7,M,0.0,N,0.0,K*4C
$GPRTE,1,1,c,*37
$GPRMC,074946,A,4730.2011,N,00223.2001,W,0.0,275.8,290518,2.9,W,A*15
$GPGGA,074946,4730.2011,N,00223.2001,W,1,11,0.8,1.6,M,48.9,M,,*50
$GPGSA,A,3,10,12,13,15,17,19,20,24,25,32,33,,1.5,0.8,1.3*34
$GPGSV,3,2,11,17,28,052,00,19,38,078,00,20,15,245,00,24,82,035,00*70
$GPGLL,4730.2011,N,00223.2001,W,074946,A,A*5F
$GPBOD,,T,,M,,*47
$GPVTG,275.8,T,278.7,M,0.0,N,0.0,K*4C
$GPRTE,1,1,c,*37
$GPRMC,074948,A,4730.2011,N,00223.2001,W,0.0,275.8,290518,2.9,W,A*1B
$GPGGA,074948,4730.2011,N,00223.2001,W,1,11,0.8,1.6,M,48.9,M,,*5E
$GPGSA,A,3,10,12,13,15,17,19,20,24,25,32,33,,1.5,0.8,1.3*34
$GPGSV,3,3,11,25,21,231,00,32,18,315,00,33,65,090,00*48
$GPGLL,4730.2011,N,00223.2001,W,074948,A,A*51
$GPBOD,,T,,M,,*47
$GPVTG,275.8,T,278.7,M,0.0,N,0.0,K*4C
$GPRTE,1,1,c,*37
$GPRMC,074950,A,4730.2011,N,00223.2001,W,0.0,275.8,290518,2.9,W,A*12
$GPGGA,074950,4730.2011,N,00223.2001,W,1,11,0.8,1.6,M,48.9,M,,*57
$GPGSA,A,3,10,12,13,15,17,19,20,24,25,32,33,,1.5,0.8,1.3*34
$GPGSV,3,1,11,10,24,283,00,12,64,222,00,13,13,145,00,15,40,169,00*78
$GPGLL,4730.2011,N,00223.2001,W,074950,A,A*58
$GPBOD,,T,,M,,*47
$GPVTG,275.8,T,278.7,M,0.0,N,0.0,K*4C
$GPRTE,1,1,c,*37
$GPRMC,074952,A,4730.2011,N,00223.2001,W,0.0,275.8,290518,2.9,W,A*10
$GPGGA,074952,4730.2011,N,00223.2001,W,1,11,0.8,1.6,M,48.9,M,,*55
$GPGSA,A,3,10,12,13,15,17,19,20,24,25,32,33,,1.5,0.8,1.3*34
$GPGSV,3,2,11,17,28,052,00,19,38,077,00,20,15,244,00,24,82,035,00*7E
$GPGLL,4730.2011,N,00223.2001,W,074952,A,A*5A
$GPBOD,,T,,M,,*47
$GPVTG,275.8,T,278.7,M,0.0,N,0.0,K*4C
$GPRTE,1,1,c,*37
$GPRMC,074954,A,4730.2011,N,00223.2001,W,0.0,275.8,290518,2.9,W,A*16
$GPGGA,074954,4730.2011,N,00223.2001,W,1,11,0.8,1.6,M,48.9,M,,*53
$GPGSA,A,3,10,12,13,15,17,19,20,24,25,32,33,,1.5,0.8,1.3*34
$GPGSV,3,3,11,25,21,231,00,32,18,315,00,33,65,090,00*48
$GPGLL,4730.2011,N,00223.2001,W,074954,A,A*5C
$GPBOD,,T,,M,,*47
$GPVTG,275.8,T,278.7,M,0.0,N,0.0,K*4C
$GPRTE,1,1,c,*37
$GPRMC,074956,A,4730.2011,N,00223.2001,W,0.0,275.8,290518,2.9,W,A*14
$GPGGA,074956,4730.2011,N,00223.2001,W,1,11,0.8,1.6,M,48.9,M,,*51
$GPGSA,A,3,10,12,13,15,17,19,20,24,25,32,33,,1.5,0.8,1.3*34
$GPGSV,3,1,11,10,24,283,00,12,64,222,00,13,13,145,00,15,40,169,00*78
$GPGLL,4730.2011,N,00223.2001,W,074956,A,A*5E
$GPBOD,,T,,M,,*47
$GPVTG,275.8,T,278.7,M,0.0,N,0.0,K*4C
$GPRTE,1,1,c,*37
$GPRMC,074958,A,4730.2011,N,00223.2001,W,0.0,275.8,290518,2.9,W,A*1A
$GPGGA,074958,4730.2011,N,00223.2001,W,1,11,0.8,1.6,M,48.9,M,,*5F
$GPGSA,A,3,10,12,13,15,17,19,20,24,25,32,33,,1.5,0.8,1.3*34
$GPGSV,3,2,11,17,28,052,00,19,38,077,00,20,15,244,00,24,82,038,00*73
$GPGLL,4730.2011,N,00223.2001,W,074958,A,A*50
$GPBOD,,T,,M,,*47
$GPVTG,275.8,T,278.7,M,0.0,N,0.0,K*4C
$GPRTE,1,1,c,*37
$GPRMC,075000,A,4730.2011,N,00223.2001,W,0.0,275.8,290518,2.9,W,A*1F
$GPGGA,075000,4730.2011,N,00223.2001,W,1,11,0.8,1.6,M,48.9,M,,*5A
$GPGSA,A,3,10,12,13,15,17,19,20,24,25,32,33,,1.5,0.8,1.3*34
$GPGSV,3,3,11,25,22,231,00,32,18,315,00,33,65,090,00*4B
$GPGLL,4730.2011,N,00223.2001,W,075000,A,A*55
$GPBOD,,T,,M,,*47
$GPVTG,275.8,T,278.7,M,0.0,N,0.0,K*4C
$GPRTE,1,1,c,*37
$GPRMC,075002,A,4730.2011,N,00223.2001,W,0.0,275.8,290518,2.9,W,A*1D
$GPGGA,075002,4730.2011,N,00223.2001,W,1,11,0.8,1.6,M,48.9,M,,*58
$GPGSA,A,3,10,12,13,15,17,19,20,24,25,32,33,,1.5,0.8,1.3*34
$GPGSV,3,1,11,10,24,283,00,12,64,222,00,13,13,145,00,15,40,169,00*78
$GPGLL,4730.2011,N,00223.2001,W,075002,A,A*57
$GPBOD,,T,,M,,*47
$GPVTG,275.8,T,278.7,M,0.0,N,0.0,K*4C
$GPRTE,1,1,c,*37
$GPRMC,075004,A,4730.2011,N,00223.2001,W,0.0,275.8,290518,2.9,W,A*1B
$GPGGA,075004,4730.2011,N,00223.2001,W,1,11,0.8,1.6,M,48.9,M,,*5E
$GPGSA,A,3,10,12,13,15,17,19,20,24,25,32,33,,1.5,0.8,1.3*34
$GPGSV,3,2,11,17,28,052,00,19,38,077,00,20,15,244,00,24,82,038,00*73
$GPGLL,4730.2011,N,00223.2001,W,075004,A,A*51
$GPBOD,,T,,M,,*47
$GPVTG,275.8,T,278.7,M,0.0,N,0.0,K*4C
$GPRTE,1,1,c,*37
$GPRMC,075006,A,4730.2011,N,00223.2001,W,0.0,275.8,290518,2.9,W,A*19
$GPGGA,075006,4730.2011,N,00223.2001,W,1,11,0.8,1.6,M,48.9,M,,*5C
$GPGSA,A,3,10,12,13,15,17,19,20,24,25,32,33,,1.5,0.8,1.3*34
$GPGSV,3,3,11,25,22,231,00,32,18,315,00,33,65,090,00*4B
$GPGLL,4730.2011,N,00223.2001,W,075006,A,A*53
$GPBOD,,T,,M,,*47
$GPVTG,275.8,T,278.7,M,0.0,N,0.0,K*4C
$GPRTE,1,1,c,*37
$GPRMC,075008,A,4730.2011,N,00223.2001,W,0.0,275.8,290518,2.9,W,A*17
$GPGGA,075008,4730.2011,N,00223.2001,W,1,11,0.8,1.6,M,48.9,M,,*52
$GPGSA,A,3,10,12,13,15,17,19,20,24,25,32,33,,1.5,0.8,1.3*34
$GPGSV,3,1,11,10,24,283,00,12,64,222,00,13,13,145,00,15,40,169,00*78
$GPGLL,4730.2011,N,00223.2001,W,075008,A,A*5D
$GPBOD,,T,,M,,*47
$GPVTG,275.8,T,278.7,M,0.0,N,0.0,K*4C
$GPRTE,1,1,c,*37
$GPRMC,075010,A,4730.2011,N,00223.2001,W,0.0,275.8,290518,2.9,W,A*1E
$GPGGA,075010,4730.2011,N,00223.2001,W,1,11,0.8,1.6,M,48.9,M,,*5B
$GPGSA,A,3,10,12,13,15,17,19,20,24,25,32,33,,1.5,0.8,1.3*34
$GPGSV,3,2,11,17,28,052,00,19,38,077,00,20,15,244,00,24,82,038,00*73
$GPGLL,4730.2011,N,00223.2001,W,075010,A,A*54
$GPBOD,,T,,M,,*47
$GPVTG,275.8,T,278.7,M,0.0,N,0.0,K*4C
$GPRTE,1,1,c,*37
$GPRMC,075012,A,4730.2011,N,00223.2001,W,0.0,275.8,290518,2.9,W,A*1C
$GPGGA,075012,4730.2011,N,00223.2001,W,1,11,0.8,1.6,M,48.9,M,,*59
$GPGSA,A,3,10,12,13,15,17,19,20,24,25,32,33,,1.5,0.8,1.3*34
$GPGSV,3,3,11,25,22,231,00,32,18,315,00,33,65,090,00*4B
$GPGLL,4730.2011,N,00223.2001,W,075012,A,A*56
$GPBOD,,T,,M,,*47
$GPVTG,275.8,T,278.7,M,0.0,N,0.0,K*4C
$GPRTE,1,1,c,*37
$GPRMC,075014,A,4730.2011,N,00223.2001,W,0.0,275.8,290518,2.9,W,A*1A
$GPGGA,075014,4730.2011,N,00223.2001,W,1,11,0.8,1.6,M,48.9,M,,*5F
$GPGSA,A,3,10,12,13,15,17,19,20,24,25,32,33,,1.5,0.8,1.3*34
$GPGSV,3,1,11,10,24,283,00,12,64,222,00,13,13,145,00,15,40,169,00*78
$GPGLL,4730.2011,N,00223.2001,W,075014,A,A*50
$GPBOD,,T,,M,,*47
$GPVTG,275.8,T,278.7,M,0.0,N,0.0,K*4C
$GPRTE,1,1,c,*37
$GPRMC,075016,A,4730.2011,N,00223.2001,W,0.0,275.8,290518,2.9,W,A*18
$GPGGA,075016,4730.2011,N,00223.2001,W,1,11,0.8,1.6,M,48.9,M,,*5D
$GPGSA,A,3,10,12,13,15,17,19,20,24,25,32,33,,1.5,0.8,1.3*34
$GPGSV,3,2,11,17,28,052,00,19,38,077,00,20,15,244,00,24,82,038,00*73
$GPGLL,4730.2011,N,00223.2001,W,075016,A,A*52
$GPBOD,,T,,M,,*47
$GPVTG,275.8,T,278.7,M,0.0,N,0.0,K*4C
$GPRTE,1,1,c,*37
$GPRMC,075018,A,4730.2011,N,00223.2001,W,0.0,275.8,290518,2.9,W,A*16
$GPGGA,075018,4730.2011,N,00223.2001,W,1,11,0.8,1.6,M,48.9,M,,*53
$GPGSA,A,3,10,12,13,15,17,19,20,24,25,32,33,,1.5,0.8,1.3*34
$GPGSV,3,3,11,25,22,231,00,32,18,315,00,33,65,090,00*4B
$GPGLL,4730.2011,N,00223.2001,W,075018,A,A*5C
$GPBOD,,T,,M,,*47
$GPVTG,275.8,T,278.7,M,0.0,N,0.0,K*4C
$GPRTE,1,1,c,*37
$GPRMC,075020,A,4730.2011,N,00223.2001,W,0.0,275.8,290518,2.9,W,A*1D
$GPGGA,075020,4730.2011,N,00223.2001,W,1,11,0.8,1.6,M,48.9,M,,*58
$GPGSA,A,3,10,12,13,15,17,19,20,24,25,32,33,,1.5,0.8,1.3*34
$GPGSV,3,1,11,10,24,283,00,12,64,222,00,13,13,145,00,15,40,169,00*78
$GPGLL,4730.2011,N,00223.2001,W,075020,A,A*57
$GPBOD,,T,,M,,*47
$GPVTG,275.8,T,278.7,M,0.0,N,0.0,K*4C
$GPRTE,1,1,c,*37
$GPRMC,075022,A,4730.2011,N,00223.2001,W,0.0,275.8,290518,2.9,W,A*1F
$GPGGA,075022,4730.2011,N,00223.2001,W,1,11,0.8,1.6,M,48.9,M,,*5A
$GPGSA,A,3,10,12,13,15,17,19,20,24,25,32,33,,1.5,0.8,1.3*34
$GPGSV,3,2,11,17,28,052,00,19,38,077,00,20,15,244,00,24,82,038,00*73
$GPGLL,4730.2011,N,00223.2001,W,075022,A,A*55
$GPBOD,,T,,M,,*47
$GPVTG,275.8,T,278.7,M,0.0,N,0.0,K*4C
$GPRTE,1,1,c,*37
$GPRMC,075024,A,4730.2011,N,00223.2001,W,0.0,275.8,290518,2.9,W,A*19
$GPGGA,075024,4730.2011,N,00223.2001,W,1,11,0.8,1.6,M,48.9,M,,*5C
$GPGSA,A,3,10,12,13,15,17,19,20,24,25,32,33,,1.5,0.8,1.3*34
$GPGSV,3,3,11,25,22,231,00,32,18,315,00,33,65,090,00*4B
$GPGLL,4730.2011,N,00223.2001,W,075024,A,A*53
$GPBOD,,T,,M,,*47
$GPVTG,275.8,T,278.7,M,0.0,N,0.0,K*4C
$GPRTE,1,1,c,*37
$GPRMC,075026,A,4730.2011,N,00223.2001,W,0.0,275.8,290518,2.9,W,A*1B
$GPGGA,075026,4730.2011,N,00223.2001,W,1,11,0.8,1.6,M,48.9,M,,*5E
$GPGSA,A,3,10,12,13,15,17,19,20,24,25,32,33,,1.5,0.8,1.3*34
$GPGSV,3,1,11,10,24,283,00,12,64,222,00,13,13,145,00,15,40,169,00*78
$GPGLL,4730.2011,N,00223.2001,W,075026,A,A*51
$GPBOD,,T,,M,,*47
$GPVTG,275.8,T,278.7,M,0.0,N,0.0,K*4C
$GPRTE,1,1,c,*37
$GPRMC,075028,A,4730.2011,N,00223.2001,W,0.0,275.8,290518,2.9,W,A*15
$GPGGA,075028,4730.2011,N,00223.2001,W,1,11,0.8,1.6,M,48.9,M,,*50
$GPGSA,A,3,10,12,13,15,17,19,20,24,25,32,33,,1.5,0.8,1.3*34
$GPGSV,3,2,11,17,28,052,00,19,38,077,00,20,15,244,00,24,82,038,00*73
$GPGLL,4730.2011,N,00223.2001,W,075028,A,A*5F
$GPBOD,,T,,M,,*47
$GPVTG,275.8,T,278.7,M,0.0,N,0.0,K*4C
$GPRTE,1,1,c,*37
$GPRMC,075030,A,4730.2011,N,00223.2001,W,0.0,275.8,290518,2.9,W,A*1C
$GPGGA,075030,4730.2011,N,00223.2001,W,1,11,0.8,1.6,M,48.9,M,,*59
$GPGSA,A,3,10,12,13,15,17,19,20,24,25,32,33,,1.5,0.8,1.3*34
$GPGSV,3,3,11,25,22,231,00,32,18,315,00,33,65,090,00*4B
$GPGLL,4730.2011,N,00223.2001,W,075030,A,A*56
$GPBOD,,T,,M,,*47
$GPVTG,275.8,T,278.7,M,0.0,N,0.0,K*4C
$GPRTE,1,1,c,*37
$GPRMC,075032,A,4730.2011,N,00223.2001,W,0.0,275.8,290518,2.9,W,A*1E
$GPGGA,075032,4730.2011,N,00223.2001,W,1,11,0.8,1.6,M,48.9,M,,*5B
$GPGSA,A,3,10,12,13,15,17,19,20,24,25,32,33,,1.5,0.8,1.3*34
$GPGSV,3,1,11,10,24,283,00,12,64,222,00,13,13,145,00,15,40,169,00*78
$GPGLL,4730.2011,N,00223.2001,W,075032,A,A*54
$GPBOD,,T,,M,,*47
$GPVTG,275.8,T,278.7,M,0.0,N,0.0,K*4C
$GPRTE,1,1,c,*37
$GPRMC,075034,A,4730.2011,N,00223.2001,W,0.0,275.8,290518,2.9,W,A*18
$GPGGA,075034,4730.2011,N,00223.2001,W,1,11,0.8,1.6,M,48.9,M,,*5D
$GPGSA,A,3,10,12,13,15,17,19,20,24,25,32,33,,1.5,0.8,1.3*34
$GPGSV,3,2,11,17,28,052,00,19,38,077,00,20,15,244,00,24,82,038,00*73
$GPGLL,4730.2011,N,00223.2001,W,075034,A,A*52
$GPBOD,,T,,M,,*47
$GPVTG,275.8,T,278.7,M,0.0,N,0.0,K*4C
$GPRTE,1,1,c,*37
$GPRMC,075036,A,4730.2011,N,00223.2001,W,0.0,275.8,290518,2.9,W,A*1A
$GPGGA,075036,4730.2011,N,00223.2001,W,1,11,0.8,1.6,M,48.9,M,,*5F
$GPGSA,A,3,10,12,13,15,17,19,20,24,25,32,33,,1.5,0.8,1.3*34
$GPGSV,3,3,11,25,22,231,00,32,18,315,00,33,65,090,00*4B
$GPGLL,4730.2011,N,00223.2001,W,075036,A,A*50
$GPBOD,,T,,M,,*47
$GPVTG,275.8,T,278.7,M,0.0,N,0.0,K*4C
$GPRTE,1,1,c,*37
$GPRMC,075038,A,4730.2011,N,00223.2001,W,0.0,275.8,290518,2.9,W,A*14
$GPGGA,075038,4730.2011,N,00223.2001,W,1,11,0.8,1.6,M,48.9,M,,*51
$GPGSA,A,3,10,12,13,15,17,19,20,24,25,32,33,,1.5,0.8,1.3*34
$GPGSV,3,1,11,10,24,283,00,12,65,222,00,13,13,145,00,15,40,169,00*79
$GPGLL,4730.2011,N,00223.2001,W,075038,A,A*5E
$GPBOD,,T,,M,,*47
$GPVTG,275.8,T,278.7,M,0.0,N,0.0,K*4C
$GPRTE,1,1,c,*37
$GPRMC,075040,A,4730.2011,N,00223.2001,W,0.0,275.8,290518,2.9,W,A*1B
$GPGGA,075040,4730.2011,N,00223.2001,W,1,11,0.8,1.6,M,48.9,M,,*5E
$GPGSA,A,3,10,12,13,15,17,19,20,24,25,32,33,,1.5,0.8,1.3*34
$GPGSV,3,2,11,17,28,052,00,19,38,077,00,20,15,244,00,24,82,038,00*73
$GPGLL,4730.2011,N,00223.2001,W,075040,A,A*51
$GPBOD,,T,,M,,*47
$GPVTG,275.8,T,278.7,M,0.0,N,0.0,K*4C
$GPRTE,1,1,c,*37
$GPRMC,075042,A,4730.2011,N,00223.2001,W,0.0,275.8,290518,2.9,W,A*19
$GPGGA,075042,4730.2011,N,00223.2001,W,1,11,0.8,1.6,M,48.9,M,,*5C
$GPGSA,A,3,10,12,13,15,17,19,20,24,25,32,33,,1.5,0.8,1.3*34
$GPGSV,3,3,11,25,22,231,00,32,18,315,00,33,65,090,00*4B
$GPGLL,4730.2011,N,00223.2001,W,075042,A,A*53
$GPBOD,,T,,M,,*47
$GPVTG,275.8,T,278.7,M,0.0,N,0.0,K*4C
$GPRTE,1,1,c,*37
$GPRMC,075044,A,4730.2011,N,00223.2001,W,0.0,275.8,290518,2.9,W,A*1F
$GPGGA,075044,4730.2011,N,00223.2001,W,1,11,0.8,1.6,M,48.9,M,,*5A
$GPGSA,A,3,10,12,13,15,17,19,20,24,25,32,33,,1.5,0.8,1.3*34
$GPGSV,3,1,11,10,24,283,00,12,65,222,00,13,12,145,00,15,39,169,00*76
$GPGLL,4730.2011,N,00223.2001,W,075044,A,A*55
$GPBOD,,T,,M,,*47
$GPVTG,275.8,T,278.7,M,0.0,N,0.0,K*4C
$GPRTE,1,1,c,*37
$GPRMC,075046,A,4730.2011,N,00223.2001,W,0.0,275.8,290518,2.9,W,A*1D
$GPGGA,075046,4730.2011,N,00223.2001,W,1,11,0.8,1.6,M,48.9,M,,*58
$GPGSA,A,3,10,12,13,15,17,19,20,24,25,32,33,,1.5,0.8,1.3*34
$GPGSV,3,2,11,17,28,052,00,19,38,077,00,20,15,244,00,24,82,038,00*73
$GPGLL,4730.2011,N,00223.2001,W,075046,A,A*57
$GPBOD,,T,,M,,*47
$GPVTG,275.8,T,278.7,M,0.0,N,0.0,K*4C
$GPRTE,1,1,c,*37
$GPRMC,075048,A,4730.2011,N,00223.2001,W,0.0,275.8,290518,2.9,W,A*13
$GPGGA,075048,4730.2011,N,00223.2001,W,1,11,0.8,1.6,M,48.9,M,,*56
$GPGSA,A,3,10,12,13,15,17,19,20,24,25,32,33,,1.5,0.8,1.3*34
$GPGSV,3,3,11,25,22,231,00,32,18,315,00,33,65,090,00*4B
$GPGLL,4730.2011,N,00223.2001,W,075048,A,A*59
$GPBOD,,T,,M,,*47
$GPVTG,275.8,T,278.7,M,0.0,N,0.0,K*4C
$GPRTE,1,1,c,*37
$GPRMC,075050,A,4730.2011,N,00223.2001,W,0.0,275.8,290518,2.9,W,A*1A
$GPGGA,075050,4730.2011,N,00223.2001,W,1,11,0.8,1.6,M,48.9,M,,*5F
$GPGSA,A,3,10,12,13,15,17,19,20,24,25,32,33,,1.5,0.8,1.3*34
$GPGSV,3,1,11,10,24,283,00,12,65,222,00,13,12,145,00,15,39,169,00*76
$GPGLL,4730.2011,N,00223.2001,W,075050,A,A*50
$GPBOD,,T,,M,,*47
$GPVTG,275.8,T,278.7,M,0.0,N,0.0,K*4C
$GPRTE,1,1,c,*37
$GPRMC,075052,A,4730.2011,N,00223.2001,W,0.0,275.8,290518,2.9,W,A*18
$GPGGA,075052,4730.2011,N,00223.2001,W,1,11,0.8,1.6,M,48.9,M,,*5D
$GPGSA,A,3,10,12,13,15,17,19,20,24,25,32,33,,1.5,0.8,1.3*34
$GPGSV,3,2,11,17,28,051,00,19,38,077,00,20,15,244,00,24,82,038,00*70
$GPGLL,4730.2011,N,00223.2001,W,075052,A,A*52
$GPBOD,,T,,M,,*47
$GPVTG,275.8,T,278.7,M,0.0,N,0.0,K*4C
$GPRTE,1,1,c,*37
$GPRMC,075054,A,4730.2011,N,00223.2001,W,0.0,275.8,290518,2.9,W,A*1E
$GPGGA,075054,4730.2011,N,00223.2001,W,1,11,0.8,1.6,M,48.9,M,,*5B
$GPGSA,A,3,10,12,13,15,17,19,20,24,25,32,33,,1.5,0.8,1.3*34
$GPGSV,3,3,11,25,22,231,00,32,18,315,00,33,65,090,00*4B
$GPGLL,4730.2011,N,00223.2001,W,075054,A,A*54
$GPBOD,,T,,M,,*47
$GPVTG,275.8,T,278.7,M,0.0,N,0.0,K*4C
$GPRTE,1,1,c,*37
$GPRMC,075056,A,4730.2011,N,00223.2001,W,0.0,275.8,290518,2.9,W,A*1C
$GPGGA,075056,4730.2011,N,00223.2001,W,1,11,0.8,1.6,M,48.9,M,,*59
$GPGSA,A,3,10,12,13,15,17,19,20,24,25,32,33,,1.5,0.8,1.3*34
$GPGSV,3,1,11,10,24,283,00,12,65,222,00,13,12,145,00,15,39,169,00*76
$GPGLL,4730.2011,N,00223.2001,W,075056,A,A*56
$GPBOD,,T,,M,,*47
$GPVTG,275.8,T,278.7,M,0.0,N,0.0,K*4C
$GPRTE,1,1,c,*37
$GPRMC,075058,A,4730.2011,N,00223.2001,W,0.0,275.8,290518,2.9,W,A*12
$GPGGA,075058,4730.2011,N,00223.2001,W,1,11,0.8,1.6,M,48.9,M,,*57
$GPGSA,A,3,10,12,13,15,17,19,20,24,25,32,33,,1.5,0.8,1.3*34
$GPGSV,3,2,11,17,28,051,00,19,38,077,00,20,15,244,00,24,82,038,00*70
$GPGLL,4730.2011,N,00223.2001,W,075058,A,A*58
$GPBOD,,T,,M,,*47
$GPVTG,275.8,T,278.7,M,0.0,N,0.0,K*4C
$GPRTE,1,1,c,*37
$GPRMC,075100,A,4730.2011,N,00223.2001,W,0.0,275.8,290518,2.9,W,A*1E
$GPGGA,075100,4730.2011,N,00223.2001,W,1,11,0.8,1.6,M,48.9,M,,*5B
$GPGSA,A,3,10,12,13,15,17,19,20,24,25,32,33,,1.5,0.8,1.3*34
$GPGSV,3,3,11,25,22,231,00,32,18,315,00,33,65,090,00*4B
$GPGLL,4730.2011,N,00223.2001,W,075100,A,A*54
$GPBOD,,T,,M,,*47
$GPVTG,275.8,T,278.7,M,0.0,N,0.0,K*4C
$GPRTE,1,1,c,*37
$GPRMC,075102,A,4730.2010,N,00223.2002,W,0.0,275.8,290518,2.9,W,A*1E
$GPGGA,075102,4730.2010,N,00223.2002,W,1,11,0.8,1.3,M,48.9,M,,*5E
$GPGSA,A,3,10,12,13,15,17,19,20,24,25,32,33,,1.5,0.8,1.3*34
$GPGSV,3,1,11,10,24,283,00,12,65,222,00,13,12,145,00,15,39,169,00*76
$GPGLL,4730.2010,N,00223.2002,W,075102,A,A*54
$GPBOD,,T,,M,,*47
$GPVTG,275.8,T,278.7,M,0.0,N,0.0,K*4C
$GPRTE,1,1,c,*37
$GPRMC,075104,A,4730.2010,N,00223.2002,W,0.0,275.8,290518,2.9,W,A*18
$GPGGA,075104,4730.2010,N,00223.2002,W,1,11,0.8,1.3,M,48.9,M,,*58
$GPGSA,A,3,10,12,13,15,17,19,20,24,25,32,33,,1.5,0.8,1.3*34
$GPGSV,3,2,11,17,28,051,00,19,38,077,00,20,15,244,00,24,82,042,00*7D
$GPGLL,4730.2010,N,00223.2002,W,075104,A,A*52
$GPBOD,,T,,M,,*47
$GPVTG,275.8,T,278.7,M,0.0,N,0.0,K*4C
$GPRTE,1,1,c,*37
$GPRMC,075106,A,4730.2010,N,00223.2002,W,0.0,275.8,290518,2.9,W,A*1A
$GPGGA,075106,4730.2010,N,00223.2002,W,1,11,0.8,1.3,M,48.9,M,,*5A
$GPGSA,A,3,10,12,13,15,17,19,20,24,25,32,33,,1.5,0.8,1.3*34
$GPGSV,3,3,11,25,22,232,00,32,18,315,00,33,65,090,00*48
$GPGLL,4730.2010,N,00223.2002,W,075106,A,A*50
$GPBOD,,T,,M,,*47
$GPVTG,275.8,T,278.7,M,0.0,N,0.0,K*4C
$GPRTE,1,1,c,*37
$GPRMC,075108,A,4730.2010,N,00223.2002,W,0.0,275.8,290518,2.9,W,A*14
$GPGGA,075108,4730.2010,N,00223.2002,W,1,11,0.8,1.3,M,48.9,M,,*54
$GPGSA,A,3,10,12,13,15,17,19,20,24,25,32,33,,1.5,0.8,1.3*34
$GPGSV,3,1,11,10,24,283,00,12,65,222,00,13,12,145,00,15,39,169,00*76
$GPGLL,4730.2010,N,00223.2002,W,075108,A,A*5E
$GPBOD,,T,,M,,*47
$GPVTG,275.8,T,278.7,M,0.0,N,0.0,K*4C
$GPRTE,1,1,c,*37
$GPRMC,075110,A,4730.2010,N,00223.2002,W,0.0,275.8,290518,2.9,W,A*1D
$GPGGA,075110,4730.2010,N,00223.2002,W,1,11,0.8,1.3,M,48.9,M,,*5D
$GPGSA,A,3,10,12,13,15,17,19,20,24,25,32,33,,1.5,0.8,1.3*34
$GPGSV,3,2,11,17,28,051,00,19,38,077,00,20,15,244,00,24,82,042,00*7D
$GPGLL,4730.2010,N,00223.2002,W,075110,A,A*57
$GPBOD,,T,,M,,*47
$GPVTG,275.8,T,278.7,M,0.0,N,0.0,K*4C
$GPRTE,1,1,c,*37
$GPRMC,075112,A,4730.2010,N,00223.2002,W,0.0,275.8,290518,2.9,W,A*1F
$GPGGA,075112,4730.2010,N,00223.2002,W,1,11,0.8,1.3,M,48.9,M,,*5F
$GPGSA,A,3,10,12,13,15,17,19,20,24,25,32,33,,1.5,0.8,1.3*34
$GPGSV,3,3,11,25,22,232,00,32,18,315,00,33,65,090,00*48
$GPGLL,4730.2010,N,00223.2002,W,075112,A,A*55
$GPBOD,,T,,M,,*47
$GPVTG,275.8,T,278.7,M,0.0,N,0.0,K*4C
$GPRTE,1,1,c,*37
$GPRMC,075114,A,4730.2010,N,00223.2002,W,0.0,275.8,290518,2.9,W,A*19
$GPGGA,075114,4730.2010,N,00223.2002,W,1,11,0.8,1.3,M,48.9,M,,*59
$GPGSA,A,3,10,12,13,15,17,19,20,24,25,32,33,,1.5,0.8,1.3*34
$GPGSV,3,1,11,10,24,283,00,12,65,222,00,13,12,145,00,15,39,169,00*76
$GPGLL,4730.2010,N,00223.2002,W,075114,A,A*53
$GPBOD,,T,,M,,*47
$GPVTG,275.8,T,278.7,M,0.0,N,0.0,K*4C
$GPRTE,1,1,c,*37
$GPRMC,075116,A,4730.2010,N,00223.2002,W,0.0,275.8,290518,2.9,W,A*1B
$GPGGA,075116,4730.2010,N,00223.2002,W,1,11,0.8,1.3,M,48.9,M,,*5B
$GPGSA,A,3,10,12,13,15,17,19,20,24,25,32,33,,1.5,0.8,1.3*34
$GPGSV,3,2,11,17,28,051,00,19,38,077,00,20,15,244,00,24,82,042,00*7D
$GPGLL,4730.2010,N,00223.2002,W,075116,A,A*51
$GPBOD,,T,,M,,*47
$GPVTG,275.8,T,278.7,M,0.0,N,0.0,K*4C
$GPRTE,1,1,c,*37
$GPRMC,075118,A,4730.2010,N,00223.2002,W,0.0,275.8,290518,2.9,W,A*15
$GPGGA,075118,4730.2010,N,00223.2002,W,1,11,0.8,1.3,M,48.9,M,,*55
$GPGSA,A,3,10,12,13,15,17,19,20,24,25,32,33,,1.5,0.8,1.3*34
$GPGSV,3,3,11,25,22,232,00,32,18,315,00,33,65,090,00*48
$GPGLL,4730.2010,N,00223.2002,W,075118,A,A*5F
$GPBOD,,T,,M,,*47
$GPVTG,275.8,T,278.7,M,0.0,N,0.0,K*4C
$GPRTE,1,1,c,*37
$GPRMC,075120,A,4730.2010,N,00223.2002,W,0.0,275.8,290518,2.9,W,A*1E
$GPGGA,075120,4730.2010,N,00223.2002,W,1,11,0.8,1.3,M,48.9,M,,*5E
$GPGSA,A,3,10,12,13,15,17,19,20,24,25,32,33,,1.5,0.8,1.3*34
$GPGSV,3,1,11,10,24,283,00,12,65,222,00,13,12,145,00,15,39,169,00*76
$GPGLL,4730.2010,N,00223.2002,W,075120,A,A*54
$GPBOD,,T,,M,,*47
$GPVTG,275.8,T,278.7,M,0.0,N,0.0,K*4C
$GPRTE,1,1,c,*37
$GPRMC,075122,A,4730.2010,N,00223.2002,W,0.0,275.8,290518,2.9,W,A*1C
$GPGGA,075122,4730.2010,N,00223.2002,W,1,11,0.8,1.3,M,48.9,M,,*5C
$GPGSA,A,3,10,12,13,15,17,19,20,24,25,32,33,,1.5,0.8,1.3*34
$GPGSV,3,2,11,17,28,051,00,19,38,077,00,20,15,244,00,24,82,042,00*7D
$GPGLL,4730.2010,N,00223.2002,W,075122,A,A*56
$GPBOD,,T,,M,,*47
$GPVTG,275.8,T,278.7,M,0.0,N,0.0,K*4C
$GPRTE,1,1,c,*37
$GPRMC,075124,A,4730.2010,N,00223.2002,W,0.0,275.8,290518,2.9,W,A*1A
$GPGGA,075124,4730.2010,N,00223.2002,W,1,11,0.8,1.3,M,48.9,M,,*5A
$GPGSA,A,3,10,12,13,15,17,19,20,24,25,32,33,,1.5,0.8,1.3*34
$GPGSV,3,3,11,25,22,232,00,32,18,315,00,33,65,090,00*48
$GPGLL,4730.2010,N,00223.2002,W,075124,A,A*50
$GPBOD,,T,,M,,*47
$GPVTG,275.8,T,278.7,M,0.0,N,0.0,K*4C
$GPRTE,1,1,c,*37
$GPRMC,075126,A,4730.2010,N,00223.2002,W,0.0,275.8,290518,2.9,W,A*18
$GPGGA,075126,4730.2010,N,00223.2002,W,1,11,0.8,1.3,M,48.9,M,,*58
$GPGSA,A,3,10,12,13,15,17,19,20,24,25,32,33,,1.5,0.8,1.3*34
$GPGSV,3,1,11,10,24,283,00,12,65,222,00,13,12,145,00,15,39,169,00*76
$GPGLL,4730.2010,N,00223.2002,W,075126,A,A*52
$GPBOD,,T,,M,,*47
$GPVTG,275.8,T,278.7,M,0.0,N,0.0,K*4C
$GPRTE,1,1,c,*37
$GPRMC,075128,A,4730.2010,N,00223.2002,W,0.0,275.8,290518,2.9,W,A*16
$GPGGA,075128,4730.2010,N,00223.2002,W,1,11,0.8,1.3,M,48.9,M,,*56
$GPGSA,A,3,10,12,13,15,17,19,20,24,25,32,33,,1.5,0.8,1.3*34
$GPGSV,3,2,11,17,28,051,00,19,38,077,00,20,15,244,00,24,82,042,00*7D
$GPGLL,4730.2010,N,00223.2002,W,075128,A,A*5C
$GPBOD,,T,,M,,*47
$GPVTG,275.8,T,278.7,M,0.0,N,0.0,K*4C
$GPRTE,1,1,c,*37
$GPRMC,075130,A,4730.2010,N,00223.2002,W,0.0,275.8,290518,2.9,W,A*1F
$GPGGA,075130,4730.2010,N,00223.2002,W,1,11,0.8,1.3,M,48.9,M,,*5F
$GPGSA,A,3,10,12,13,15,17,19,20,24,25,32,33,,1.5,0.8,1.3*34
$GPGSV,3,3,11,25,22,232,00,32,18,315,00,33,65,090,00*48
$GPGLL,4730.2010,N,00223.2002,W,075130,A,A*55
$GPBOD,,T,,M,,*47
$GPVTG,275.8,T,278.7,M,0.0,N,0.0,K*4C
$GPRTE,1,1,c,*37
$GPRMC,075132,A,4730.2010,N,00223.2002,W,0.0,275.8,290518,2.9,W,A*1D
$GPGGA,075132,4730.2010,N,00223.2002,W,1,11,0.8,1.3,M,48.9,M,,*5D
$GPGSA,A,3,10,12,13,15,17,19,20,24,25,32,33,,1.5,0.8,1.3*34
$GPGSV,3,1,11,10,24,283,00,12,65,222,00,13,12,145,00,15,39,169,00*76
$GPGLL,4730.2010,N,00223.2002,W,075132,A,A*57
$GPBOD,,T,,M,,*47
$GPVTG,275.8,T,278.7,M,0.0,N,0.0,K*4C
$GPRTE,1,1,c,*37
$GPRMC,075134,A,4730.2010,N,00223.2002,W,0.0,275.8,290518,2.9,W,A*1B
$GPGGA,075134,4730.2010,N,00223.2002,W,1,11,0.8,1.3,M,48.9,M,,*5B
$GPGSA,A,3,10,12,13,15,17,19,20,24,25,32,33,,1.5,0.8,1.3*34
$GPGSV,3,2,11,17,28,051,00,19,38,077,00,20,15,244,00,24,82,042,00*7D
$GPGLL,4730.2010,N,00223.2002,W,075134,A,A*51
$GPBOD,,T,,M,,*47
$GPVTG,275.8,T,278.7,M,0.0,N,0.0,K*4C
$GPRTE,1,1,c,*37
$GPRMC,075136,A,4730.2010,N,00223.2002,W,0.0,275.8,290518,2.9,W,A*19
$GPGGA,075136,4730.2010,N,00223.2002,W,1,11,0.8,1.3,M,48.9,M,,*59
$GPGSA,A,3,10,12,13,15,17,19,20,24,25,32,33,,1.5,0.8,1.3*34
$GPGSV,3,3,11,25,22,232,00,32,18,315,00,33,65,090,00*48
$GPGLL,4730.2010,N,00223.2002,W,075136,A,A*53
$GPBOD,,T,,M,,*47
$GPVTG,275.8,T,278.7,M,0.0,N,0.0,K*4C
$GPRTE,1,1,c,*37
$GPRMC,075138,A,4730.2010,N,00223.2002,W,0.0,275.8,290518,2.9,W,A*17
$GPGGA,075138,4730.2010,N,00223.2002,W,1,11,0.8,1.3,M,48.9,M,,*57
$GPGSA,A,3,10,12,13,15,17,19,20,24,25,32,33,,1.5,0.8,1.3*34
$GPGSV,3,1,11,10,24,282,00,12,65,222,00,13,12,145,00,15,39,169,00*77
$GPGLL,4730.2010,N,00223.2002,W,075138,A,A*5D
$GPBOD,,T,,M,,*47
$GPVTG,275.8,T,278.7,M,0.0,N,0.0,K*4C
$GPRTE,1,1,c,*37
$GPRMC,075140,A,4730.2010,N,00223.2002,W,0.0,275.8,290518,2.9,W,A*18
$GPGGA,075140,4730.2010,N,00223.2002,W,1,11,0.8,1.3,M,48.9,M,,*58
$GPGSA,A,3,10,12,13,15,17,19,20,24,25,32,33,,1.5,0.8,1.3*34
$GPGSV,3,2,11,17,28,051,00,19,38,077,00,20,15,244,00,24,82,042,00*7D
$GPGLL,4730.2010,N,00223.2002,W,075140,A,A*52
$GPBOD,,T,,M,,*47
$GPVTG,275.8,T,278.7,M,0.0,N,0.0,K*4C
$GPRTE,1,1,c,*37
$GPRMC,075142,A,4730.2009,N,00223.2003,W,0.0,275.8,290518,2.9,W,A*13
$GPGGA,075142,4730.2009,N,00223.2003,W,1,11,0.8,1.3,M,48.9,M,,*53
$GPGSA,A,3,10,12,13,15,17,19,20,24,25,32,33,,1.5,0.8,1.3*34
$GPGSV,3,3,11,25,22,232,00,32,18,315,00,33,65,090,00*48
$GPGLL,4730.2009,N,00223.2003,W,075142,A,A*59
$GPBOD,,T,,M,,*47
$GPVTG,275.8,T,278.7,M,0.0,N,0.0,K*4C
$GPRTE,1,1,c,*37
$GPRMC,075144,A,4730.2009,N,00223.2003,W,0.0,275.8,290518,2.9,W,A*15
$GPGGA,075144,4730.2009,N,00223.2003,W,1,11,0.8,1.3,M,48.9,M,,*55
$GPGSA,A,3,10,12,13,15,17,19,20,24,25,32,33,,1.5,0.8,1.3*34
$GPGSV,3,1,11,10,24,282,00,12,65,222,00,13,12,145,00,15,39,169,00*77
$GPGLL,4730.2009,N,00223.2003,W,075144,A,A*5F
$GPBOD,,T,,M,,*47
$GPVTG,275.8,T,278.7,M,0.0,N,0.0,K*4C
$GPRTE,1,1,c,*37
$GPRMC,075146,A,4730.2009,N,00223.2003,W,0.0,275.8,290518,2.9,W,A*17
$GPGGA,075146,4730.2009,N,00223.2003,W,1,11,0.8,1.3,M,48.9,M,,*57
$GPGSA,A,3,10,12,13,15,17,19,20,24,25,32,33,,1.5,0.8,1.3*34
$GPGSV,3,2,11,17,28,051,00,19,38,077,00,20,15,244,00,24,82,042,00*7D
$GPGLL,4730.2009,N,00223.2003,W,075146,A,A*5D
$GPBOD,,T,,M,,*47
$GPVTG,275.8,T,278.7,M,0.0,N,0.0,K*4C
$GPRTE,1,1,c,*37
$GPRMC,075148,A,4730.2009,N,00223.2003,W,0.0,275.8,290518,2.9,W,A*19
$GPGGA,075148,4730.2009,N,00223.2003,W,1,11,0.8,1.3,M,48.9,M,,*59
$GPGSA,A,3,10,12,13,15,17,19,20,24,25,32,33,,1.5,0.8,1.3*34
$GPGSV,3,3,11,25,22,232,00,32,18,315,00,33,65,090,00*48
$GPGLL,4730.2009,N,00223.2003,W,075148,A,A*53
$GPBOD,,T,,M,,*47
$GPVTG,275.8,T,278.7,M,0.0,N,0.0,K*4C
$GPRTE,1,1,c,*37
$GPRMC,075150,A,4730.2009,N,00223.2003,W,0.0,275.8,290518,2.9,W,A*10
$GPGGA,075150,4730.2009,N,00223.2003,W,1,11,0.8,1.3,M,48.9,M,,*50
$GPGSA,A,3,10,12,13,15,17,19,20,24,25,32,33,,1.5,0.8,1.3*34
$GPGSV,3,1,11,10,24,282,00,12,65,222,00,13,12,145,00,15,39,169,00*77
$GPGLL,4730.2009,N,00223.2003,W,075150,A,A*5A
$GPBOD,,T,,M,,*47
$GPVTG,275.8,T,278.7,M,0.0,N,0.0,K*4C
$GPRTE,1,1,c,*37
$GPRMC,075152,A,4730.2009,N,00223.2003,W,0.0,275.8,290518,2.9,W,A*12
$GPGGA,075152,4730.2009,N,00223.2003,W,1,11,0.8,1.3,M,48.9,M,,*52
$GPGSA,A,3,10,12,13,15,17,19,20,24,25,32,33,,1.5,0.8,1.3*34
$GPGSV,3,2,11,17,28,051,00,19,38,077,00,20,15,244,00,24,82,042,00*7D
$GPGLL,4730.2009,N,00223.2003,W,075152,A,A*58
$GPBOD,,T,,M,,*47
$GPVTG,275.8,T,278.7,M,0.0,N,0.0,K*4C
$GPRTE,1,1,c,*37
$GPRMC,075154,A,4730.2009,N,00223.2003,W,0.0,275.8,290518,2.9,W,A*14
$GPGGA,075154,4730.2009,N,00223.2003,W,1,11,0.8,1.3,M,48.9,M,,*54
$GPGSA,A,3,10,12,13,15,17,19,20,24,25,32,33,,1.5,0.8,1.3*34
$GPGSV,3,3,11,25,22,232,00,32,18,315,00,33,65,090,00*48
$GPGLL,4730.2009,N,00223.2003,W,075154,A,A*5E
$GPBOD,,T,,M,,*47
$GPVTG,275.8,T,278.7,M,0.0,N,0.0,K*4C
$GPRTE,1,1,c,*37
$GPRMC,075156,A,4730.2009,N,00223.2003,W,0.0,275.8,290518,2.9,W,A*16
$GPGGA,075156,4730.2009,N,00223.2003,W,1,11,0.8,1.3,M,48.9,M,,*56
$GPGSA,A,3,10,12,13,15,17,19,20,24,25,32,33,,1.5,0.8,1.3*34
$GPGSV,3,1,11,10,24,282,00,12,65,222,00,13,12,145,00,15,39,169,00*77
$GPGLL,4730.2009,N,00223.2003,W,075156,A,A*5C
$GPBOD,,T,,M,,*47
$GPVTG,275.8,T,278.7,M,0.0,N,0.0,K*4C
$GPRTE,1,1,c,*37
$GPRMC,075158,A,4730.2009,N,00223.2003,W,0.0,275.8,290518,2.9,W,A*18
$GPGGA,075158,4730.2009,N,00223.2003,W,1,11,0.8,1.3,M,48.9,M,,*58
$GPGSA,A,3,10,12,13,15,17,19,20,24,25,32,33,,1.5,0.8,1.3*34
$GPGSV,3,2,11,17,28,051,00,19,38,076,00,20,14,244,00,24,82,042,00*7D
$GPGLL,4730.2009,N,00223.2003,W,075158,A,A*52
$GPBOD,,T,,M,,*47
$GPVTG,275.8,T,278.7,M,0.0,N,0.0,K*4C
$GPRTE,1,1,c,*37
$GPRMC,075200,A,4730.2009,N,00223.2003,W,0.0,275.8,290518,2.9,W,A*16
$GPGGA,075200,4730.2009,N,00223.2003,W,1,11,0.8,1.3,M,48.9,M,,*56
$GPGSA,A,3,10,12,13,15,17,19,20,24,25,32,33,,1.5,0.8,1.3*34
$GPGSV,3,3,11,25,22,232,00,32,18,315,00,33,65,090,00*48
$GPGLL,4730.2009,N,00223.2003,W,075200,A,A*5C
$GPBOD,,T,,M,,*47
$GPVTG,275.8,T,278.7,M,0.0,N,0.0,K*4C
$GPRTE,1,1,c,*37
$GPRMC,075202,A,4730.2009,N,00223.2003,W,0.0,275.8,290518,2.9,W,A*14
$GPGGA,075202,4730.2009,N,00223.2003,W,1,11,0.8,1.3,M,48.9,M,,*54
$GPGSA,A,3,10,12,13,15,17,19,20,24,25,32,33,,1.5,0.8,1.3*34
$GPGSV,3,1,11,10,24,282,00,12,65,222,00,13,12,145,00,15,39,169,00*77
$GPGLL,4730.2009,N,00223.2003,W,075202,A,A*5E
$GPBOD,,T,,M,,*47
$GPVTG,275.8,T,278.7,M,0.0,N,0.0,K*4C
$GPRTE,1,1,c,*37
$GPRMC,075204,A,4730.2009,N,00223.2003,W,0.0,275.8,290518,2.9,W,A*12
$GPGGA,075204,4730.2009,N,00223.2003,W,1,11,0.8,1.3,M,48.9,M,,*52
$GPGSA,A,3,10,12,13,15,17,19,20,24,25,32,33,,1.5,0.8,1.3*34
$GPGSV,3,2,11,17,28,051,00,19,38,076,00,20,14,244,00,24,82,042,00*7D
$GPGLL,4730.2009,N,00223.2003,W,075204,A,A*58
$GPBOD,,T,,M,,*47
$GPVTG,275.8,T,278.7,M,0.0,N,0.0,K*4C
$GPRTE,1,1,c,*37
$GPRMC,075206,A,4730.2009,N,00223.2003,W,0.0,275.8,290518,2.9,W,A*10
$GPGGA,075206,4730.2009,N,00223.2003,W,1,11,0.8,1.3,M,48.9,M,,*50
$GPGSA,A,3,10,12,13,15,17,19,20,24,25,32,33,,1.5,0.8,1.3*34
$GPGSV,3,3,11,25,22,232,00,32,18,315,00,33,65,090,00*48
$GPGLL,4730.2009,N,00223.2003,W,075206,A,A*5A
$GPBOD,,T,,M,,*47
$GPVTG,275.8,T,278.7,M,0.0,N,0.0,K*4C
$GPRTE,1,1,c,*37
$GPRMC,075208,A,4730.2009,N,00223.2003,W,0.0,275.8,290518,2.9,W,A*1E
$GPGGA,075208,4730.2009,N,00223.2003,W,1,11,0.8,1.3,M,48.9,M,,*5E
$GPGSA,A,3,10,12,13,15,17,19,20,24,25,32,33,,1.5,0.8,1.3*34
$GPGSV,3,1,11,10,24,282,00,12,65,222,00,13,12,145,00,15,39,169,00*77
$GPGLL,4730.2009,N,00223.2003,W,075208,A,A*54
$GPBOD,,T,,M,,*47
$GPVTG,275.8,T,278.7,M,0.0,N,0.0,K*4C
$GPRTE,1,1,c,*37
$GPRMC,075210,A,4730.2009,N,00223.2003,W,0.0,275.8,290518,2.9,W,A*17
$GPGGA,075210,4730.2009,N,00223.2003,W,1,11,0.8,1.3,M,48.9,M,,*57
$GPGSA,A,3,10,12,13,15,17,19,20,24,25,32,33,,1.5,0.8,1.3*34
$GPGSV,3,2,11,17,28,051,00,19,38,076,00,20,14,244,00,24,81,045,00*79
$GPGLL,4730.2009,N,00223.2003,W,075210,A,A*5D
$GPBOD,,T,,M,,*47
$GPVTG,275.8,T,278.7,M,0.0,N,0.0,K*4C
$GPRTE,1,1,c,*37
$GPRMC,075212,A,4730.2009,N,00223.2003,W,0.0,275.8,290518,2.9,W,A*15
$GPGGA,075212,4730.2009,N,00223.2003,W,1,11,0.8,1.3,M,48.9,M,,*55
$GPGSA,A,3,10,12,13,15,17,19,20,24,25,32,33,,1.5,0.8,1.3*34
$GPGSV,3,3,11,25,22,232,00,32,18,315,00,33,65,090,00*48
$GPGLL,4730.2009,N,00223.2003,W,075212,A,A*5F
$GPBOD,,T,,M,,*47
$GPVTG,275.8,T,278.7,M,0.0,N,0.0,K*4C
$GPRTE,1,1,c,*37
$GPRMC,075214,A,4730.2009,N,00223.2003,W,0.0,275.8,290518,2.9,W,A*13
$GPGGA,075214,4730.2009,N,00223.2003,W,1,11,0.8,1.3,M,48.9,M,,*53
$GPGSA,A,3,10,12,13,15,17,19,20,24,25,32,33,,1.5,0.8,1.3*34
$GPGSV,3,1,11,10,24,282,00,12,65,222,00,13,12,145,00,15,39,169,00*77
$GPGLL,4730.2009,N,00223.2003,W,075214,A,A*59
$GPBOD,,T,,M,,*47
$GPVTG,275.8,T,278.7,M,0.0,N,0.0,K*4C
$GPRTE,1,1,c,*37
$GPRMC,075216,A,4730.2009,N,00223.2003,W,0.0,275.8,290518,2.9,W,A*11
$GPGGA,075216,4730.2009,N,00223.2003,W,1,11,0.8,1.3,M,48.9,M,,*51
$GPGSA,A,3,10,12,13,15,17,19,20,24,25,32,33,,1.5,0.8,1.3*34
$GPGSV,3,2,11,17,28,051,00,19,38,076,00,20,14,244,00,24,81,045,00*79
$GPGLL,4730.2009,N,00223.2003,W,075216,A,A*5B
$GPBOD,,T,,M,,*47
$GPVTG,275.8,T,278.7,M,0.0,N,0.0,K*4C
$GPRTE,1,1,c,*37
$GPRMC,075218,A,4730.2009,N,00223.2003,W,0.0,275.8,290518,2.9,W,A*1F
$GPGGA,075218,4730.2009,N,00223.2003,W,1,11,0.8,1.3,M,48.9,M,,*5F
$GPGSA,A,3,10,12,13,15,17,19,20,24,25,32,33,,1.5,0.8,1.3*34
$GPGSV,3,3,11,25,22,232,00,32,18,315,00,33,65,090,00*48
$GPGLL,4730.2009,N,00223.2003,W,075218,A,A*55
$GPBOD,,T,,M,,*47
$GPVTG,275.8,T,278.7,M,0.0,N,0.0,K*4C
$GPRTE,1,1,c,*37
$GPRMC,075220,A,4730.2009,N,00223.2003,W,0.0,275.8,290518,2.9,W,A*14
$GPGGA,075220,4730.2009,N,00223.2003,W,1,11,0.8,1.3,M,48.9,M,,*54
$GPGSA,A,3,10,12,13,15,17,19,20,24,25,32,33,,1.5,0.8,1.3*34
$GPGSV,3,1,11,10,24,282,00,12,65,222,00,13,12,145,00,15,39,169,00*77
$GPGLL,4730.2009,N,00223.2003,W,075220,A,A*5E
$GPBOD,,T,,M,,*47
$GPVTG,275.8,T,278.7,M,0.0,N,0.0,K*4C
$GPRTE,1,1,c,*37
$GPRMC,075222,A,4730.2009,N,00223.2001,W,0.0,275.8,290518,2.9,W,A*14
$GPGGA,075222,4730.2009,N,00223.2001,W,1,11,0.8,1.3,M,48.9,M,,*54
$GPGSA,A,3,10,12,13,15,17,19,20,24,25,32,33,,1.5,0.8,1.3*34
$GPGSV,3,2,11,17,28,051,00,19,38,076,00,20,14,244,00,24,81,045,00*79
$GPGLL,4730.2009,N,00223.2001,W,075222,A,A*5E
$GPBOD,,T,,M,,*47
$GPVTG,275.8,T,278.7,M,0.0,N,0.0,K*4C
$GPRTE,1,1,c,*37
$GPRMC,075224,A,4730.2009,N,00223.2001,W,0.0,275.8,290518,2.9,W,A*12
$GPGGA,075224,4730.2009,N,00223.2001,W,1,11,0.8,1.3,M,48.9,M,,*52
$GPGSA,A,3,10,12,13,15,17,19,20,24,25,32,33,,1.5,0.8,1.3*34
$GPGSV,3,3,11,25,22,232,00,32,19,315,00,33,65,090,00*49
$GPGLL,4730.2009,N,00223.2001,W,075224,A,A*58
$GPBOD,,T,,M,,*47
$GPVTG,275.8,T,278.7,M,0.0,N,0.0,K*4C
$GPRTE,1,1,c,*37
$GPRMC,075226,A,4730.2009,N,00223.2001,W,0.0,275.8,290518,2.9,W,A*10
$GPGGA,075226,4730.2009,N,00223.2001,W,1,11,0.8,1.3,M,48.9,M,,*50
$GPGSA,A,3,10,12,13,15,17,19,20,24,25,32,33,,1.5,0.8,1.3*34
$GPGSV,3,1,11,10,24,282,00,12,65,222,00,13,12,145,00,15,39,169,00*77
$GPGLL,4730.2009,N,00223.2001,W,075226,A,A*5A
$GPBOD,,T,,M,,*47
$GPVTG,275.8,T,278.7,M,0.0,N,0.0,K*4C
$GPRTE,1,1,c,*37
$GPRMC,075228,A,4730.2009,N,00223.2001,W,0.0,275.8,290518,2.9,W,A*1E
$GPGGA,075228,4730.2009,N,00223.2001,W,1,11,0.8,1.3,M,48.9,M,,*5E
$GPGSA,A,3,10,12,13,15,17,19,20,24,25,32,33,,1.5,0.8,1.3*34
$GPGSV,3,2,11,17,28,051,00,19,38,076,00,20,14,244,00,24,81,045,00*79
$GPGLL,4730.2009,N,00223.2001,W,075228,A,A*54
$GPBOD,,T,,M,,*47
$GPVTG,275.8,T,278.7,M,0.0,N,0.0,K*4C
$GPRTE,1,1,c,*37
$GPRMC,075230,A,4730.2009,N,00223.2001,W,0.0,275.8,290518,2.9,W,A*17
$GPGGA,075230,4730.2009,N,00223.2001,W,1,11,0.8,1.3,M,48.9,M,,*57
$GPGSA,A,3,10,12,13,15,17,19,20,24,25,32,33,,1.5,0.8,1.3*34
$GPGSV,3,3,11,25,22,232,00,32,19,315,00,33,65,090,00*49
$GPGLL,4730.2009,N,00223.2001,W,075230,A,A*5D
$GPBOD,,T,,M,,*47
$GPVTG,275.8,T,278.7,M,0.0,N,0.0,K*4C
$GPRTE,1,1,c,*37
$GPRMC,075232,A,4730.2009,N,00223.2001,W,0.0,275.8,290518,2.9,W,A*15
$GPGGA,075232,4730.2009,N,00223.2001,W,1,11,1.0,1.3,M,48.9,M,,*5C
$GPGSA,A,3,10,12,13,15,17,19,20,24,25,32,33,,1.9,1.0,1.6*34
$GPGSV,3,1,11,10,24,282,00,12,65,222,00,13,12,145,00,15,39,169,00*77
$GPGLL,4730.2009,N,00223.2001,W,075232,A,A*5F
$GPBOD,,T,,M,,*47
$GPVTG,275.8,T,278.7,M,0.0,N,0.0,K*4C
$GPRTE,1,1,c,*37
$GPRMC,075234,A,4730.2009,N,00223.2001,W,0.0,275.8,290518,2.9,W,A*13
$GPGGA,075234,4730.2009,N,00223.2001,W,1,11,1.0,1.3,M,48.9,M,,*5A
$GPGSA,A,3,10,12,13,15,17,19,20,24,25,32,33,,1.9,1.0,1.6*34
$GPGSV,3,2,11,17,28,051,00,19,38,076,00,20,14,244,00,24,81,045,00*79
$GPGLL,4730.2009,N,00223.2001,W,075234,A,A*59
$GPBOD,,T,,M,,*47
$GPVTG,275.8,T,278.7,M,0.0,N,0.0,K*4C
$GPRTE,1,1,c,*37
$GPRMC,075236,A,4730.2009,N,00223.2001,W,0.0,275.8,290518,2.9,W,A*11
$GPGGA,075236,4730.2009,N,00223.2001,W,1,11,0.8,1.3,M,48.9,M,,*51
$GPGSA,A,3,10,12,13,15,17,19,20,24,25,32,33,,1.5,0.8,1.3*34
$GPGSV,3,3,11,25,22,232,00,32,19,315,00,33,65,090,00*49
$GPGLL,4730.2009,N,00223.2001,W,075236,A,A*5B
$GPBOD,,T,,M,,*47
$GPVTG,275.8,T,278.7,M,0.0,N,0.0,K*4C
$GPRTE,1,1,c,*37
$GPRMC,075238,A,4730.2009,N,00223.2001,W,0.0,275.8,290518,2.9,W,A*1F
$GPGGA,075238,4730.2009,N,00223.2001,W,1,11,0.8,1.3,M,48.9,M,,*5F
$GPGSA,A,3,10,12,13,15,17,19,20,24,25,32,33,,1.5,0.8,1.3*34
$GPGSV,3,1,11,10,24,282,00,12,65,222,00,13,12,145,00,15,39,169,00*77
$GPGLL,4730.2009,N,00223.2001,W,075238,A,A*55
$GPBOD,,T,,M,,*47
$GPVTG,275.8,T,278.7,M,0.0,N,0.0,K*4C
$GPRTE,1,1,c,*37
$GPRMC,075240,A,4730.2009,N,00223.2001,W,0.0,275.8,290518,2.9,W,A*10
$GPGGA,075240,4730.2009,N,00223.2001,W,1,11,0.8,1.3,M,48.9,M,,*50
$GPGSA,A,3,10,12,13,15,17,19,20,24,25,32,33,,1.5,0.8,1.3*34
$GPGSV,3,2,11,17,28,051,00,19,38,076,00,20,14,244,00,24,81,045,00*79
$GPGLL,4730.2009,N,00223.2001,W,075240,A,A*5A
$GPBOD,,T,,M,,*47
$GPVTG,275.8,T,278.7,M,0.0,N,0.0,K*4C
$GPRTE,1,1,c,*37
$GPRMC,075242,A,4730.2009,N,00223.2001,W,0.0,275.8,290518,2.9,W,A*12
$GPGGA,075242,4730.2009,N,00223.2001,W,1,11,1.0,1.3,M,48.9,M,,*5B
$GPGSA,A,3,10,12,13,15,17,19,20,24,25,32,33,,1.9,1.0,1.6*34
$GPGSV,3,3,11,25,22,232,00,32,19,315,00,33,65,090,00*49
$GPGLL,4730.2009,N,00223.2001,W,075242,A,A*58
$GPBOD,,T,,M,,*47
$GPVTG,275.8,T,278.7,M,0.0,N,0.0,K*4C
$GPRTE,1,1,c,*37
$GPRMC,075244,A,4730.2009,N,00223.2001,W,0.0,275.8,290518,2.9,W,A*14
$GPGGA,075244,4730.2009,N,00223.2001,W,1,11,1.0,1.3,M,48.9,M,,*5D
$GPGSA,A,3,10,12,13,15,17,19,20,24,25,32,33,,1.9,1.0,1.6*34
$GPGSV,3,1,11,10,24,282,00,12,65,222,00,13,12,145,00,15,39,169,00*77
$GPGLL,4730.2009,N,00223.2001,W,075244,A,A*5E
$GPBOD,,T,,M,,*47
$GPVTG,275.8,T,278.7,M,0.0,N,0.0,K*4C
$GPRTE,1,1,c,*37
$GPRMC,075246,A,4730.2009,N,00223.2001,W,0.0,275.8,290518,2.9,W,A*16
$GPGGA,075246,4730.2009,N,00223.2001,W,1,11,1.0,1.3,M,48.9,M,,*5F
$GPGSA,A,3,10,12,13,15,17,19,20,24,25,32,33,,1.9,1.0,1.6*34
$GPGSV,3,2,11,17,28,051,00,19,38,076,00,20,14,244,00,24,81,045,00*79
$GPGLL,4730.2009,N,00223.2001,W,075246,A,A*5C
$GPBOD,,T,,M,,*47
$GPVTG,275.8,T,278.7,M,0.0,N,0.0,K*4C
$GPRTE,1,1,c,*37
$GPRMC,075248,A,4730.2009,N,00223.2001,W,0.0,275.8,290518,2.9,W,A*18
$GPGGA,075248,4730.2009,N,00223.2001,W,1,11,1.0,1.3,M,48.9,M,,*51
$GPGSA,A,3,10,12,13,15,17,19,20,24,25,32,33,,1.9,1.0,1.6*34
$GPGSV,3,3,11,25,22,232,00,32,19,315,00,33,65,090,00*49
$GPGLL,4730.2009,N,00223.2001,W,075248,A,A*52
$GPBOD,,T,,M,,*47
$GPVTG,275.8,T,278.7,M,0.0,N,0.0,K*4C
$GPRTE,1,1,c,*37
$GPRMC,075250,A,4730.2009,N,00223.2001,W,0.0,275.8,290518,2.9,W,A*11
$GPGGA,075250,4730.2009,N,00223.2001,W,1,11,1.0,1.3,M,48.9,M,,*58
$GPGSA,A,3,10,12,13,15,17,19,20,24,25,32,33,,1.9,1.0,1.6*34
$GPGSV,3,1,11,10,24,282,00,12,66,223,00,13,12,145,00,15,39,169,00*75
$GPGLL,4730.2009,N,00223.2001,W,075250,A,A*5B
$GPBOD,,T,,M,,*47
$GPVTG,275.8,T,278.7,M,0.0,N,0.0,K*4C
$GPRTE,1,1,c,*37
$GPRMC,075252,A,4730.2009,N,00223.2001,W,0.0,275.8,290518,2.9,W,A*13
$GPGGA,075252,4730.2009,N,00223.2001,W,1,11,1.0,1.3,M,48.9,M,,*5A
$GPGSA,A,3,10,12,13,15,17,19,20,24,25,32,33,,1.9,1.0,1.6*34
$GPGSV,3,2,11,17,28,051,00,19,38,076,00,20,14,244,00,24,81,045,00*79
$GPGLL,4730.2009,N,00223.2001,W,075252,A,A*59
$GPBOD,,T,,M,,*47
$GPVTG,275.8,T,278.7,M,0.0,N,0.0,K*4C
$GPRTE,1,1,c,*37
$GPRMC,075254,A,4730.2009,N,00223.2001,W,0.0,275.8,290518,2.9,W,A*15
$GPGGA,075254,4730.2009,N,00223.2001,W,1,11,1.0,1.3,M,48.9,M,,*5C
$GPGSA,A,3,10,12,13,15,17,19,20,24,25,32,33,,1.9,1.0,1.6*34
$GPGSV,3,3,11,25,22,232,00,32,19,315,00,33,65,090,00*49
$GPGLL,4730.2009,N,00223.2001,W,075254,A,A*5F
$GPBOD,,T,,M,,*47
$GPVTG,275.8,T,278.7,M,0.0,N,0.0,K*4C
$GPRTE,1,1,c,*37
$GPRMC,075256,A,4730.2009,N,00223.2001,W,0.0,275.8,290518,2.9,W,A*17
$GPGGA,075256,4730.2009,N,00223.2001,W,1,11,1.0,1.3,M,48.9,M,,*5E
$GPGSA,A,3,10,12,13,15,17,19,20,24,25,32,33,,1.9,1.0,1.6*34
$GPGSV,3,1,11,10,24,282,00,12,66,223,00,13,12,145,00,15,38,169,00*74
$GPGLL,4730.2009,N,00223.2001,W,075256,A,A*5D
$GPBOD,,T,,M,,*47
$GPVTG,275.8,T,278.7,M,0.0,N,0.0,K*4C
$GPRTE,1,1,c,*37
$GPRMC,075258,A,4730.2009,N,00223.2001,W,0.0,275.8,290518,2.9,W,A*19
$GPGGA,075258,4730.2009,N,00223.2001,W,1,11,1.0,1.3,M,48.9,M,,*50
$GPGSA,A,3,10,12,13,15,17,19,20,24,25,32,33,,1.9,1.0,1.6*34
$GPGSV,3,2,11,17,28,050,00,19,38,076,00,20,14,244,00,24,81,045,00*78
$GPGLL,4730.2009,N,00223.2001,W,075258,A,A*53
$GPBOD,,T,,M,,*47
$GPVTG,275.8,T,278.7,M,0.0,N,0.0,K*4C
$GPRTE,1,1,c,*37
$GPRMC,075300,A,4730.2009,N,00223.2001,W,0.0,275.8,290518,2.9,W,A*15
$GPGGA,075300,4730.2009,N,00223.2001,W,1,11,1.0,1.3,M,48.9,M,,*5C
$GPGSA,A,3,10,12,13,15,17,19,20,24,25,32,33,,1.9,1.0,1.6*34
$GPGSV,3,3,11,25,22,232,00,32,19,315,00,33,65,090,00*49
$GPGLL,4730.2009,N,00223.2001,W,075300,A,A*5F
$GPBOD,,T,,M,,*47
$GPVTG,275.8,T,278.7,M,0.0,N,0.0,K*4C
$GPRTE,1,1,c,*37
$GPRMC,075302,A,4730.2009,N,00223.2001,W,0.0,275.8,290518,2.9,W,A*17
$GPGGA,075302,4730.2009,N,00223.2001,W,1,11,1.0,1.3,M,48.9,M,,*5E
$GPGSA,A,3,10,12,13,15,17,19,20,24,25,32,33,,1.9,1.0,1.6*34
$GPGSV,3,1,11,10,24,282,00,12,66,223,00,13,12,145,00,15,38,169,00*74
$GPGLL,4730.2009,N,00223.2001,W,075302,A,A*5D
$GPBOD,,T,,M,,*47
$GPVTG,275.8,T,278.7,M,0.0,N,0.0,K*4C
$GPRTE,1,1,c,*37
$GPRMC,075304,A,4730.2009,N,00223.2001,W,0.0,275.8,290518,2.9,W,A*11
$GPGGA,075304,4730.2009,N,00223.2001,W,1,11,1.0,1.3,M,48.9,M,,*58
$GPGSA,A,3,10,12,13,15,17,19,20,24,25,32,33,,1.9,1.0,1.6*34
$GPGSV,3,2,11,17,28,050,00,19,38,075,00,20,14,243,00,24,81,045,00*7C
$GPGLL,4730.2009,N,00223.2001,W,075304,A,A*5B
$GPBOD,,T,,M,,*47
$GPVTG,275.8,T,278.7,M,0.0,N,0.0,K*4C
$GPRTE,1,1,c,*37
$GPRMC,075306,A,4730.2009,N,00223.2001,W,0.0,275.8,290518,2.9,W,A*13
$GPGGA,075306,4730.2009,N,00223.2001,W,1,11,1.0,1.3,M,48.9,M,,*5A
$GPGSA,A,3,10,12,13,15,17,19,20,24,25,32,33,,1.9,1.0,1.6*34
$GPGSV,3,3,11,25,22,232,00,32,19,315,00,33,65,090,00*49
$GPGLL,4730.2009,N,00223.2001,W,075306,A,A*59
$GPBOD,,T,,M,,*47
$GPVTG,275.8,T,278.7,M,0.0,N,0.0,K*4C
$GPRTE,1,1,c,*37
$GPRMC,075308,A,4730.2009,N,00223.2001,W,0.0,275.8,290518,2.9,W,A*1D
$GPGGA,075308,4730.2009,N,00223.2001,W,1,11,1.0,1.3,M,48.9,M,,*54
$GPGSA,A,3,10,12,13,15,17,19,20,24,25,32,33,,1.9,1.0,1.6*34
$GPGSV,3,1,11,10,24,282,00,12,66,223,00,13,12,145,00,15,38,169,00*74
$GPGLL,4730.2009,N,00223.2001,W,075308,A,A*57
$GPBOD,,T,,M,,*47
$GPVTG,275.8,T,278.7,M,0.0,N,0.0,K*4C
$GPRTE,1,1,c,*37
$GPRMC,075310,A,4730.2009,N,00223.2001,W,0.0,275.8,290518,2.9,W,A*14
$GPGGA,075310,4730.2009,N,00223.2001,W,1,11,1.0,1.3,M,48.9,M,,*5D
$GPGSA,A,3,10,12,13,15,17,19,20,24,25,32,33,,1.9,1.0,1.6*34
$GPGSV,3,2,11,17,28,050,00,19,38,075,00,20,14,243,00,24,81,048,00*71
$GPGLL,4730.2009,N,00223.2001,W,075310,A,A*5E
$GPBOD,,T,,M,,*47
$GPVTG,275.8,T,278.7,M,0.0,N,0.0,K*4C
$GPRTE,1,1,c,*37
$GPRMC,075312,A,4730.2009,N,00223.2001,W,0.0,275.8,290518,2.9,W,A*16
$GPGGA,075312,4730.2009,N,00223.2001,W,1,11,1.0,1.3,M,48.9,M,,*5F
$GPGSA,A,3,10,12,13,15,17,19,20,24,25,32,33,,1.9,1.0,1.6*34
$GPGSV,3,3,11,25,23,232,00,32,19,315,00,33,65,090,00*48
$GPGLL,4730.2009,N,00223.2001,W,075312,A,A*5C
$GPBOD,,T,,M,,*47
$GPVTG,275.8,T,278.7,M,0.0,N,0.0,K*4C
$GPRTE,1,1,c,*37
$GPRMC,075314,A,4730.2009,N,00223.2001,W,0.0,275.8,290518,2.9,W,A*10
$GPGGA,075314,4730.2009,N,00223.2001,W,1,11,1.0,1.3,M,48.9,M,,*59
$GPGSA,A,3,10,12,13,15,17,19,20,24,25,32,33,,1.9,1.0,1.6*34
$GPGSV,3,1,11,10,24,282,00,12,66,223,00,13,12,145,00,15,38,169,00*74
$GPGLL,4730.2009,N,00223.2001,W,075314,A,A*5A
$GPBOD,,T,,M,,*47
$GPVTG,275.8,T,278.7,M,0.0,N,0.0,K*4C
$GPRTE,1,1,c,*37
$GPRMC,075316,A,4730.2009,N,00223.2001,W,0.0,275.8,290518,2.9,W,A*12
$GPGGA,075316,4730.2009,N,00223.2001,W,1,11,1.0,1.3,M,48.9,M,,*5B
$GPGSA,A,3,10,12,13,15,17,19,20,24,25,32,33,,1.9,1.0,1.6*34
$GPGSV,3,2,11,17,28,050,00,19,38,075,00,20,14,243,00,24,81,048,00*71
$GPGLL,4730.2009,N,00223.2001,W,075316,A,A*58
$GPBOD,,T,,M,,*47
$GPVTG,275.8,T,278.7,M,0.0,N,0.0,K*4C
$GPRTE,1,1,c,*37
$GPRMC,075318,A,4730.2009,N,00223.2001,W,0.0,275.8,290518,2.9,W,A*1C
$GPGGA,075318,4730.2009,N,00223.2001,W,1,11,1.0,1.3,M,48.9,M,,*55
$GPGSA,A,3,10,12,13,15,17,19,20,24,25,32,33,,1.9,1.0,1.6*34
$GPGSV,3,3,11,25,23,232,00,32,19,315,00,33,65,090,00*48
$GPGLL,4730.2009,N,00223.2001,W,075318,A,A*56
$GPBOD,,T,,M,,*47
$GPVTG,275.8,T,278.7,M,0.0,N,0.0,K*4C
$GPRTE,1,1,c,*37
$GPRMC,075320,A,4730.2009,N,00223.2001,W,0.0,275.8,290518,2.9,W,A*17
$GPGGA,075320,4730.2009,N,00223.2001,W,1,11,1.0,1.3,M,48.9,M,,*5E
$GPGSA,A,3,10,12,13,15,17,19,20,24,25,32,33,,1.9,1.0,1.6*34
$GPGSV,3,1,11,10,24,282,00,12,66,223,00,13,12,145,00,15,38,169,00*74
$GPGLL,4730.2009,N,00223.2001,W,075320,A,A*5D
$GPBOD,,T,,M,,*47
$GPVTG,275.8,T,278.7,M,0.0,N,0.0,K*4C
$GPRTE,1,1,c,*37
$GPRMC,075322,A,4730.2009,N,00223.2001,W,0.0,275.8,290518,2.9,W,A*15
$GPGGA,075322,4730.2009,N,00223.2001,W,1,11,1.0,1.3,M,48.9,M,,*5C
$GPGSA,A,3,10,12,13,15,17,19,20,24,25,32,33,,1.9,1.0,1.6*34
$GPGSV,3,2,11,17,28,050,00,19,38,075,00,20,14,243,00,24,81,048,00*71
$GPGLL,4730.2009,N,00223.2001,W,075322,A,A*5F
$GPBOD,,T,,M,,*47
$GPVTG,275.8,T,278.7,M,0.0,N,0.0,K*4C
$GPRTE,1,1,c,*37
$GPRMC,075324,A,4730.2009,N,00223.2001,W,0.0,275.8,290518,2.9,W,A*13
$GPGGA,075324,4730.2009,N,00223.2001,W,1,11,1.0,1.3,M,48.9,M,,*5A
$GPGSA,A,3,10,12,13,15,17,19,20,24,25,32,33,,1.9,1.0,1.6*34
$GPGSV,3,3,11,25,23,232,00,32,19,315,00,33,65,090,00*48
$GPGLL,4730.2009,N,00223.2001,W,075324,A,A*59
$GPBOD,,T,,M,,*47
$GPVTG,275.8,T,278.7,M,0.0,N,0.0,K*4C
$GPRTE,1,1,c,*37
$GPRMC,075326,A,4730.2009,N,00223.2001,W,0.0,275.8,290518,2.9,W,A*11
$GPGGA,075326,4730.2009,N,00223.2001,W,1,11,1.0,1.3,M,48.9,M,,*58
$GPGSA,A,3,10,12,13,15,17,19,20,24,25,32,33,,1.9,1.0,1.6*34
$GPGSV,3,1,11,10,24,282,00,12,66,223,00,13,12,145,00,15,38,169,00*74
$GPGLL,4730.2009,N,00223.2001,W,075326,A,A*5B
$GPBOD,,T,,M,,*47
$GPVTG,275.8,T,278.7,M,0.0,N,0.0,K*4C
$GPRTE,1,1,c,*37
$GPRMC,075328,A,4730.2009,N,00223.2001,W,0.0,275.8,290518,2.9,W,A*1F
$GPGGA,075328,4730.2009,N,00223.2001,W,1,11,1.0,1.3,M,48.9,M,,*56
$GPGSA,A,3,10,12,13,15,17,19,20,24,25,32,33,,1.9,1.0,1.6*34
$GPGSV,3,2,11,17,28,050,00,19,38,075,00,20,14,243,00,24,81,048,00*71
$GPGLL,4730.2009,N,00223.2001,W,075328,A,A*55
$GPBOD,,T,,M,,*47
$GPVTG,275.8,T,278.7,M,0.0,N,0.0,K*4C
$GPRTE,1,1,c,*37
$GPRMC,075330,A,4730.2009,N,00223.2001,W,0.0,275.8,290518,2.9,W,A*16
$GPGGA,075330,4730.2009,N,00223.2001,W,1,11,1.0,1.3,M,48.9,M,,*5F
$GPGSA,A,3,10,12,13,15,17,19,20,24,25,32,33,,1.9,1.0,1.6*34
$GPGSV,3,3,11,25,23,232,00,32,19,315,00,33,65,090,00*48
$GPGLL,4730.2009,N,00223.2001,W,075330,A,A*5C
$GPBOD,,T,,M,,*47
$GPVTG,275.8,T,278.7,M,0.0,N,0.0,K*4C
$GPRTE,1,1,c,*37
$GPRMC,075332,A,4730.2009,N,00223.2001,W,0.0,275.8,290518,2.9,W,A*14
$GPGGA,075332,4730.2009,N,00223.2001,W,1,11,1.0,1.3,M,48.9,M,,*5D
$GPGSA,A,3,10,12,13,15,17,19,20,24,25,32,33,,1.9,1.0,1.6*34
$GPGSV,3,1,11,10,24,282,00,12,66,223,00,13,12,145,00,15,38,169,00*74
$GPGLL,4730.2009,N,00223.2001,W,075332,A,A*5E
$GPBOD,,T,,M,,*47
$GPVTG,275.8,T,278.7,M,0.0,N,0.0,K*4C
$GPRTE,1,1,c,*37
$GPRMC,075334,A,4730.2009,N,00223.2001,W,0.0,275.8,290518,2.9,W,A*12
$GPGGA,075334,4730.2009,N,00223.2001,W,1,11,1.0,1.3,M,48.9,M,,*5B
$GPGSA,A,3,10,12,13,15,17,19,20,24,25,32,33,,1.9,1.0,1.6*34
$GPGSV,3,2,11,17,28,050,00,19,38,075,00,20,14,243,00,24,81,048,00*71
$GPGLL,4730.2009,N,00223.2001,W,075334,A,A*58
$GPBOD,,T,,M,,*47
$GPVTG,275.8,T,278.7,M,0.0,N,0.0,K*4C
$GPRTE,1,1,c,*37
$GPRMC,075336,A,4730.2009,N,00223.2001,W,0.0,275.8,290518,2.9,W,A*10
$GPGGA,075336,4730.2009,N,00223.2001,W,1,11,1.0,1.3,M,48.9,M,,*59
$GPGSA,A,3,10,12,13,15,17,19,20,24,25,32,33,,1.9,1.0,1.6*34
$GPGSV,3,3,11,25,23,232,00,32,19,315,00,33,65,090,00*48
$GPGLL,4730.2009,N,00223.2001,W,075336,A,A*5A
$GPBOD,,T,,M,,*47
$GPVTG,275.8,T,278.7,M,0.0,N,0.0,K*4C
$GPRTE,1,1,c,*37
$GPRMC,075338,A,4730.2009,N,00223.2001,W,0.0,275.8,290518,2.9,W,A*1E
$GPGGA,075338,4730.2009,N,00223.2001,W,1,11,1.0,1.3,M,48.9,M,,*57
$GPGSA,A,3,10,12,13,15,17,19,20,24,25,32,33,,1.9,1.0,1.6*34
$GPGSV,3,1,11,10,24,282,00,12,66,223,00,13,12,145,00,15,38,169,00*74
$GPGLL,4730.2009,N,00223.2001,W,075338,A,A*54
$GPBOD,,T,,M,,*47
$GPVTG,275.8,T,278.7,M,0.0,N,0.0,K*4C
$GPRTE,1,1,c,*37
$GPRMC,075340,A,4730.2009,N,00223.2001,W,0.0,275.8,290518,2.9,W,A*11
$GPGGA,075340,4730.2009,N,00223.2001,W,1,11,1.0,1.3,M,48.9,M,,*58
$GPGSA,A,3,10,12,13,15,17,19,20,24,25,32,33,,1.9,1.0,1.6*34
$GPGSV,3,2,11,17,28,050,00,19,38,075,00,20,14,243,00,24,81,048,00*71
$GPGLL,4730.2009,N,00223.2001,W,075340,A,A*5B
$GPBOD,,T,,M,,*47
$GPVTG,275.8,T,278.7,M,0.0,N,0.0,K*4C
$GPRTE,1,1,c,*37
$GPRMC,075342,A,4730.2010,N,00223.2002,W,0.0,275.8,290518,2.9,W,A*18
$GPGGA,075342,4730.2010,N,00223.2002,W,1,11,1.0,1.0,M,48.9,M,,*52
$GPGSA,A,3,10,12,13,15,17,19,20,24,25,32,33,,1.9,1.0,1.6*34
$GPGSV,3,3,11,25,23,232,00,32,19,315,00,33,65,090,00*48
$GPGLL,4730.2010,N,00223.2002,W,075342,A,A*52
$GPBOD,,T,,M,,*47
$GPVTG,275.8,T,278.7,M,0.0,N,0.0,K*4C
$GPRTE,1,1,c,*37
$GPRMC,075344,A,4730.2010,N,00223.2002,W,0.0,275.8,290518,2.9,W,A*1E
$GPGGA,075344,4730.2010,N,00223.2002,W,1,11,1.0,1.0,M,48.9,M,,*54
$GPGSA,A,3,10,12,13,15,17,19,20,24,25,32,33,,1.9,1.0,1.6*34
$GPGSV,3,1,11,10,24,282,00,12,66,223,00,13,12,145,00,15,38,169,00*74
$GPGLL,4730.2010,N,00223.2002,W,075344,A,A*54
$GPBOD,,T,,M,,*47
$GPVTG,275.8,T,278.7,M,0.0,N,0.0,K*4C
$GPRTE,1,1,c,*37
$GPRMC,075346,A,4730.2010,N,00223.2002,W,0.0,275.8,290518,2.9,W,A*1C
$GPGGA,075346,4730.2010,N,00223.2002,W,1,11,1.0,1.0,M,48.9,M,,*56
$GPGSA,A,3,10,12,13,15,17,19,20,24,25,32,33,,1.9,1.0,1.6*34
$GPGSV,3,2,11,17,28,050,00,19,38,075,00,20,14,243,00,24,81,048,00*71
$GPGLL,4730.2010,N,00223.2002,W,075346,A,A*56
$GPBOD,,T,,M,,*47
$GPVTG,275.8,T,278.7,M,0.0,N,0.0,K*4C
$GPRTE,1,1,c,*37
$GPRMC,075348,A,4730.2010,N,00223.2002,W,0.0,275.8,290518,2.9,W,A*12
$GPGGA,075348,4730.2010,N,00223.2002,W,1,11,1.0,1.0,M,48.9,M,,*58
$GPGSA,A,3,10,12,13,15,17,19,20,24,25,32,33,,1.9,1.0,1.6*34
$GPGSV,3,3,11,25,23,232,00,32,19,315,00,33,65,090,00*48
$GPGLL,4730.2010,N,00223.2002,W,075348,A,A*58
$GPBOD,,T,,M,,*47
$GPVTG,275.8,T,278.7,M,0.0,N,0.0,K*4C
$GPRTE,1,1,c,*37
$GPRMC,075350,A,4730.2010,N,00223.2002,W,0.0,275.8,290518,2.9,W,A*1B
$GPGGA,075350,4730.2010,N,00223.2002,W,1,11,1.0,1.0,M,48.9,M,,*51
$GPGSA,A,3,10,12,13,15,17,19,20,24,25,32,33,,1.9,1.0,1.6*34
$GPGSV,3,1,11,10,23,281,00,12,67,223,00,13,12,145,00,15,38,169,00*71
$GPGLL,4730.2010,N,00223.2002,W,075350,A,A*51
$GPBOD,,T,,M,,*47
$GPVTG,275.8,T,278.7,M,0.0,N,0.0,K*4C
$GPRTE,1,1,c,*37
$GPRMC,075352,A,4730.2010,N,00223.2002,W,0.0,275.8,290518,2.9,W,A*19
$GPGGA,075352,4730.2010,N,00223.2002,W,1,11,1.0,1.0,M,48.9,M,,*53
$GPGSA,A,3,10,12,13,15,17,19,20,24,25,32,33,,1.9,1.0,1.6*34
$GPGSV,3,2,11,17,28,050,00,19,38,075,00,20,14,243,00,24,81,048,00*71
$GPGLL,4730.2010,N,00223.2002,W,075352,A,A*53
$GPBOD,,T,,M,,*47
$GPVTG,275.8,T,278.7,M,0.0,N,0.0,K*4C
$GPRTE,1,1,c,*37
$GPRMC,075354,A,4730.2010,N,00223.2002,W,0.0,275.8,290518,2.9,W,A*1F
$GPGGA,075354,4730.2010,N,00223.2002,W,1,11,1.0,1.0,M,48.9,M,,*55
$GPGSA,A,3,10,12,13,15,17,19,20,24,25,32,33,,1.9,1.0,1.6*34
$GPGSV,3,3,11,25,23,232,00,32,19,315,00,33,65,090,00*48
$GPGLL,4730.2010,N,00223.2002,W,075354,A,A*55
$GPBOD,,T,,M,,*47
$GPVTG,275.8,T,278.7,M,0.0,N,0.0,K*4C
$GPRTE,1,1,c,*37
$GPRMC,075356,A,4730.2010,N,00223.2002,W,0.0,275.8,290518,2.9,W,A*1D
$GPGGA,075356,4730.2010,N,00223.2002,W,1,11,1.0,1.0,M,48.9,M,,*57
$GPGSA,A,3,10,12,13,15,17,19,20,24,25,32,33,,1.9,1.0,1.6*34
$GPGSV,3,1,11,10,23,281,00,12,67,223,00,13,12,145,00,15,38,169,00*71
$GPGLL,4730.2010,N,00223.2002,W,075356,A,A*57
$GPBOD,,T,,M,,*47
$GPVTG,275.8,T,278.7,M,0.0,N,0.0,K*4C
$GPRTE,1,1,c,*37
$GPRMC,075358,A,4730.2010,N,00223.2002,W,0.0,275.8,290518,2.9,W,A*13
$GPGGA,075358,4730.2010,N,00223.2002,W,1,11,1.0,1.0,M,48.9,M,,*59
$GPGSA,A,3,10,12,13,15,17,19,20,24,25,32,33,,1.9,1.0,1.6*34
$GPGSV,3,2,11,17,28,050,00,19,38,075,00,20,14,243,00,24,81,048,00*71
$GPGLL,4730.2010,N,00223.2002,W,075358,A,A*59
$GPBOD,,T,,M,,*47
$GPVTG,275.8,T,278.7,M,0.0,N,0.0,K*4C
$GPRTE,1,1,c,*37
$GPRMC,075400,A,4730.2010,N,00223.2002,W,0.0,275.8,290518,2.9,W,A*19
$GPGGA,075400,4730.2010,N,00223.2002,W,1,11,1.0,1.0,M,48.9,M,,*53
$GPGSA,A,3,10,12,13,15,17,19,20,24,25,32,33,,1.9,1.0,1.6*34
$GPGSV,3,3,11,25,23,232,00,32,19,315,00,33,65,090,00*48
$GPGLL,4730.2010,N,00223.2002,W,075400,A,A*53
$GPBOD,,T,,M,,*47
$GPVTG,275.8,T,278.7,M,0.0,N,0.0,K*4C
$GPRTE,1,1,c,*37
$GPRMC,075402,A,4730.2010,N,00223.2002,W,0.0,275.8,290518,2.9,W,A*1B
$GPGGA,075402,4730.2010,N,00223.2002,W,1,11,1.0,1.0,M,48.9,M,,*51
$GPGSA,A,3,10,12,13,15,17,19,20,24,25,32,33,,1.9,1.0,1.6*34
$GPGSV,3,1,11,10,23,281,00,12,67,223,00,13,12,145,00,15,38,169,00*71
$GPGLL,4730.2010,N,00223.2002,W,075402,A,A*51
$GPBOD,,T,,M,,*47
$GPVTG,275.8,T,278.7,M,0.0,N,0.0,K*4C
$GPRTE,1,1,c,*37
$GPRMC,075404,A,4730.2010,N,00223.2002,W,0.0,275.8,290518,2.9,W,A*1D
$GPGGA,075404,4730.2010,N,00223.2002,W,1,11,1.0,1.0,M,48.9,M,,*57
$GPGSA,A,3,10,12,13,15,17,19,20,24,25,32,33,,1.9,1.0,1.6*34
$GPGSV,3,2,11,17,28,050,00,19,38,075,00,20,14,243,00,24,81,048,00*71
$GPGLL,4730.2010,N,00223.2002,W,075404,A,A*57
$GPBOD,,T,,M,,*47
$GPVTG,275.8,T,278.7,M,0.0,N,0.0,K*4C
$GPRTE,1,1,c,*37
$GPRMC,075406,A,4730.2010,N,00223.2002,W,0.0,275.8,290518,2.9,W,A*1F
$GPGGA,075406,4730.2010,N,00223.2002,W,1,11,0.8,1.0,M,48.9,M,,*5C
$GPGSA,A,3,10,12,13,15,17,19,20,24,25,32,33,,1.5,0.8,1.3*34
$GPGSV,3,3,11,25,23,232,00,32,19,315,00,33,65,090,00*48
$GPGLL,4730.2010,N,00223.2002,W,075406,A,A*55
$GPBOD,,T,,M,,*47
$GPVTG,275.8,T,278.7,M,0.0,N,0.0,K*4C
$GPRTE,1,1,c,*37
$GPRMC,075408,A,4730.2010,N,00223.2002,W,0.0,275.8,290518,2.9,W,A*11
$GPGGA,075408,4730.2010,N,00223.2002,W,1,11,0.8,1.0,M,48.9,M,,*52
$GPGSA,A,3,10,12,13,15,17,19,20,24,25,32,35,,1.5,0.8,1.3*32
$GPGSV,3,1,11,10,23,281,00,12,67,223,00,13,11,145,00,15,38,169,00*72
$GPGLL,4730.2010,N,00223.2002,W,075408,A,A*5B
$GPBOD,,T,,M,,*47
$GPVTG,275.8,T,278.7,M,0.0,N,0.0,K*4C
$GPRTE,1,1,c,*37
$GPRMC,075410,A,4730.2010,N,00223.2002,W,0.0,275.8,290518,2.9,W,A*18
$GPGGA,075410,4730.2010,N,00223.2002,W,1,11,0.8,1.0,M,48.9,M,,*5B
$GPGSA,A,3,10,12,13,15,17,19,20,24,25,32,35,,1.5,0.8,1.3*32
$GPGSV,3,2,11,17,28,050,00,19,38,075,00,20,14,243,00,24,81,048,00*71
$GPGLL,4730.2010,N,00223.2002,W,075410,A,A*52
$GPBOD,,T,,M,,*47
$GPVTG,275.8,T,278.7,M,0.0,N,0.0,K*4C
$GPRTE,1,1,c,*37
$GPRMC,075412,A,4730.2010,N,00223.2002,W,0.0,275.8,290518,2.9,W,A*1A
$GPGGA,075412,4730.2010,N,00223.2002,W,1,11,0.8,1.0,M,48.9,M,,*59
$GPGSA,A,3,10,12,13,15,17,19,20,24,25,32,35,,1.5,0.8,1.3*32
$GPGSV,3,3,11,25,23,232,00,32,19,315,00,35,65,090,00*4E
$GPGLL,4730.2010,N,00223.2002,W,075412,A,A*50
$GPBOD,,T,,M,,*47
$GPVTG,275.8,T,278.7,M,0.0,N,0.0,K*4C
$GPRTE,1,1,c,*37
$GPRMC,075414,A,4730.2010,N,00223.2002,W,0.0,275.8,290518,2.9,W,A*1C
$GPGGA,075414,4730.2010,N,00223.2002,W,1,11,0.8,1.0,M,48.9,M,,*5F
$GPGSA,A,3,10,12,13,15,17,19,20,24,25,32,35,,1.5,0.8,1.3*32
$GPGSV,3,1,11,10,23,281,00,12,67,223,00,13,11,145,00,15,38,169,00*72
$GPGLL,4730.2010,N,00223.2002,W,075414,A,A*56
$GPBOD,,T,,M,,*47
$GPVTG,275.8,T,278.7,M,0.0,N,0.0,K*4C
$GPRTE,1,1,c,*37
$GPRMC,075416,A,4730.2010,N,00223.2002,W,0.0,275.8,290518,2.9,W,A*1E
$GPGGA,075416,4730.2010,N,00223.2002,W,1,11,0.8,1.0,M,48.9,M,,*5D
$GPGSA,A,3,10,12,13,15,17,19,20,24,25,32,35,,1.5,0.8,1.3*32
$GPGSV,3,2,11,17,28,050,00,19,38,075,00,20,14,243,00,24,81,051,00*79
$GPGLL,4730.2010,N,00223.2002,W,075416,A,A*54
$GPBOD,,T,,M,,*47
$GPVTG,275.8,T,278.7,M,0.0,N,0.0,K*4C
$GPRTE,1,1,c,*37
$GPRMC,075418,A,4730.2010,N,00223.2002,W,0.0,275.8,290518,2.9,W,A*10
$GPGGA,075418,4730.2010,N,00223.2002,W,1,11,1.0,1.0,M,48.9,M,,*5A
$GPGSA,A,3,10,12,13,15,17,19,20,24,25,32,35,,1.9,1.0,1.6*32
$GPGSV,3,3,11,25,23,232,00,32,19,315,00,35,65,090,00*4E
$GPGLL,4730.2010,N,00223.2002,W,075418,A,A*5A
$GPBOD,,T,,M,,*47
$GPVTG,275.8,T,278.7,M,0.0,N,0.0,K*4C
$GPRTE,1,1,c,*37
$GPRMC,075420,A,4730.2010,N,00223.2002,W,0.0,275.8,290518,2.9,W,A*1B
$GPGGA,075420,4730.2010,N,00223.2002,W,1,11,1.0,1.0,M,48.9,M,,*51
$GPGSA,A,3,10,12,13,15,17,19,20,24,25,32,35,,1.9,1.0,1.6*32
$GPGSV,3,1,11,10,23,281,00,12,67,223,00,13,11,145,00,15,38,169,00*72
$GPGLL,4730.2010,N,00223.2002,W,075420,A,A*51
$GPBOD,,T,,M,,*47
$GPVTG,275.8,T,278.7,M,0.0,N,0.0,K*4C
$GPRTE,1,1,c,*37
$GPRMC,075422,A,4730.2009,N,00223.2002,W,0.0,275.8,290518,2.9,W,A*11
$GPGGA,075422,4730.2009,N,00223.2002,W,1,11,1.0,1.0,M,48.9,M,,*5B
$GPGSA,A,3,10,12,13,15,17,19,20,24,25,32,35,,1.9,1.0,1.6*32
$GPGSV,3,2,11,17,28,050,00,19,38,075,00,20,14,243,00,24,81,051,00*79
$GPGLL,4730.2009,N,00223.2002,W,075422,A,A*5B
$GPBOD,,T,,M,,*47
$GPVTG,275.8,T,278.7,M,0.0,N,0.0,K*4C
$GPRTE,1,1,c,*37
$GPRMC,075424,A,4730.2009,N,00223.2002,W,0.0,275.8,290518,2.9,W,A*17
$GPGGA,075424,4730.2009,N,00223.2002,W,1,11,1.0,1.0,M,48.9,M,,*5D
$GPGSA,A,3,10,12,13,15,17,19,20,24,25,32,35,,1.9,1.0,1.6*32
$GPGSV,3,3,11,25,23,232,00,32,19,315,00,35,65,090,00*4E
$GPGLL,4730.2009,N,00223.2002,W,075424,A,A*5D
$GPBOD,,T,,M,,*47
$GPVTG,275.8,T,278.7,M,0.0,N,0.0,K*4C
$GPRTE,1,1,c,*37
$GPRMC,075426,A,4730.2009,N,00223.2002,W,0.0,275.8,290518,2.9,W,A*15
$GPGGA,075426,4730.2009,N,00223.2002,W,1,11,1.0,1.0,M,48.9,M,,*5F
$GPGSA,A,3,10,12,13,15,17,19,20,24,25,32,35,,1.9,1.0,1.6*32
$GPGSV,3,1,11,10,23,281,00,12,67,223,00,13,11,145,00,15,38,169,00*72
$GPGLL,4730.2009,N,00223.2002,W,075426,A,A*5F
$GPBOD,,T,,M,,*47
$GPVTG,275.8,T,278.7,M,0.0,N,0.0,K*4C
$GPRTE,1,1,c,*37
$GPRMC,075428,A,4730.2009,N,00223.2002,W,0.0,275.8,290518,2.9,W,A*1B
