$GPGGA,064440,4738.6300,N,00326.7397,W,1,10,1.0,2.7,M,49.6,M,,*5C
$GPGSA,A,3,10,12,13,15,17,19,20,24,28,33,,,2.1,1.0,1.8*3D
$GPGSV,3,1,10,10,24,309,00,12,37,208,00,13,36,133,00,15,67,172,00*7D
$GPGLL,4738.6300,N,00326.7397,W,064440,A,A*57
$GPBOD,,T,,M,,*47
$GPVTG,216.9,T,220.2,M,0.0,N,0.0,K*40
$GPRTE,1,1,c,*37
$GPRMC,064442,A,4738.6300,N,00326.7397,W,0.0,216.9,070618,3.3,W,A*1F
$GPGGA,064442,4738.6300,N,00326.7397,W,1,10,1.0,2.7,M,49.6,M,,*5E
$GPGSA,A,3,10,12,13,15,17,19,20,24,28,33,,,2.1,1.0,1.8*3D
$GPGSV,3,2,10,17,30,079,00,19,27,107,00,20,30,268,00,24,68,292,00*75
$GPGLL,4738.6300,N,00326.7397,W,064442,A,A*55
$GPBOD,,T,,M,,*47
$GPVTG,216.9,T,220.2,M,0.0,N,0.0,K*40
$GPRTE,1,1,c,*37
$GPRMC,064444,A,4738.6300,N,00326.7397,W,0.0,216.9,070618,3.3,W,A*19
$GPGGA,064444,4738.6300,N,00326.7397,W,1,10,1.0,2.7,M,49.6,M,,*58
$GPGSA,A,3,10,12,13,15,17,19,20,24,28,33,,,2.1,1.0,1.8*3D
$GPGSV,3,3,10,28,12,043,00,33,34,195,00*7C
$GPGLL,4738.6300,N,00326.7397,W,064444,A,A*53
$GPBOD,,T,,M,,*47
$GPVTG,216.9,T,220.2,M,0.0,N,0.0,K*40
$GPRTE,1,1,c,*37
$GPRMC,064446,A,4738.6300,N,00326.7397,W,0.0,216.9,070618,3.3,W,A*1B
$GPGGA,064446,4738.6300,N,00326.7397,W,1,10,1.0,2.7,M,49.6,M,,*5A
$GPGSA,A,3,10,12,13,15,17,19,20,24,28,33,,,2.1,1.0,1.8*3D
$GPGSV,3,1,10,10,24,309,00,12,37,208,00,13,36,133,00,15,67,172,00*7D
$GPGLL,4738.6300,N,00326.7397,W,064446,A,A*51
$GPBOD,,T,,M,,*47
$GPVTG,216.9,T,220.2,M,0.0,N,0.0,K*40
$GPRTE,1,1,c,*37
$GPRMC,064448,A,4738.6300,N,00326.7397,W,0.0,216.9,070618,3.3,W,A*15
$GPGGA,064448,4738.6300,N,00326.7397,W,1,10,1.0,2.7,M,49.6,M,,*54
$GPGSA,A,3,10,12,13,15,17,19,20,24,28,33,,,2.1,1.0,1.8*3D
$GPGSV,3,2,10,17,30,079,00,19,27,107,00,20,30,267,00,24,68,292,00*7A
$GPGLL,4738.6300,N,00326.7397,W,064448,A,A*5F
$GPBOD,,T,,M,,*47
$GPVTG,216.9,T,220.2,M,0.0,N,0.0,K*40
$GPRTE,1,1,c,*37
$GPRMC,064450,A,4738.6300,N,00326.7397,W,0.0,216.9,070618,3.3,W,A*1C
$GPGGA,064450,4738.6300,N,00326.7397,W,1,10,1.0,2.7,M,49.6,M,,*5D
$GPGSA,A,3,10,12,13,15,17,19,20,24,28,33,,,2.1,1.0,1.8*3D
$GPGSV,3,3,10,28,12,043,00,33,34,195,00*7C
$GPGLL,4738.6300,N,00326.7397,W,064450,A,A*56
$GPBOD,,T,,M,,*47
$GPVTG,216.9,T,220.2,M,0.0,N,0.0,K*40
$GPRTE,1,1,c,*37
$GPRMC,064452,A,4738.6300,N,00326.7397,W,0.0,216.9,070618,3.3,W,A*1E
$GPGGA,064452,4738.6300,N,00326.7397,W,1,10,1.0,2.7,M,49.6,M,,*5F
$GPGSA,A,3,10,12,13,15,17,19,20,24,28,33,,,2.1,1.0,1.8*3D
$GPGSV,3,1,10,10,24,309,00,12,37,208,00,13,36,133,00,15,67,172,00*7D
$GPGLL,4738.6300,N,00326.7397,W,064452,A,A*54
$GPBOD,,T,,M,,*47
$GPVTG,216.9,T,220.2,M,0.0,N,0.0,K*40
$GPRTE,1,1,c,*37
$GPRMC,064454,A,4738.6300,N,00326.7397,W,0.0,216.9,070618,3.3,W,A*18
$GPGGA,064454,4738.6300,N,00326.7397,W,1,10,1.0,2.7,M,49.6,M,,*59
$GPGSA,A,3,10,12,13,15,17,19,20,24,28,33,,,2.1,1.0,1.8*3D
$GPGSV,3,2,10,17,30,079,00,19,27,107,00,20,30,267,00,24,68,292,00*7A
$GPGLL,4738.6300,N,00326.7397,W,064454,A,A*52
$GPBOD,,T,,M,,*47
$GPVTG,216.9,T,220.2,M,0.0,N,0.0,K*40
$GPRTE,1,1,c,*37
$GPRMC,064456,A,4738.6300,N,00326.7397,W,0.0,216.9,070618,3.3,W,A*1A
$GPGGA,064456,4738.6300,N,00326.7397,W,1,10,1.0,2.7,M,49.6,M,,*5B
$GPGSA,A,3,10,12,13,15,17,19,20,24,28,33,,,2.1,1.0,1.8*3D
$GPGSV,3,3,10,28,12,043,00,33,34,195,00*7C
$GPGLL,4738.6300,N,00326.7397,W,064456,A,A*50
$GPBOD,,T,,M,,*47
$GPVTG,216.9,T,220.2,M,0.0,N,0.0,K*40
$GPRTE,1,1,c,*37
$GPRMC,064458,A,4738.6300,N,00326.7397,W,0.0,216.9,070618,3.3,W,A*14
$GPGGA,064458,4738.6300,N,00326.7397,W,1,10,1.0,2.7,M,49.6,M,,*55
$GPGSA,A,3,10,12,13,15,17,19,20,24,28,33,,,2.1,1.0,1.8*3D
$GPGSV,3,1,10,10,24,309,00,12,37,208,00,13,36,133,00,15,67,172,00*7D
$GPGLL,4738.6300,N,00326.7397,W,064458,A,A*5E
$GPBOD,,T,,M,,*47
$GPVTG,216.9,T,220.2,M,0.0,N,0.0,K*40
$GPRTE,1,1,c,*37
$GPRMC,064500,A,4738.6300,N,00326.7397,W,0.0,216.9,070618,3.3,W,A*18
$GPGGA,064500,4738.6300,N,00326.7397,W,1,10,1.0,2.7,M,49.6,M,,*59
$GPGSA,A,3,10,12,13,15,17,19,20,24,28,33,,,2.1,1.0,1.8*3D
$GPGSV,3,2,10,17,30,079,00,19,27,107,00,20,30,267,00,24,68,292,00*7A
$GPGLL,4738.6300,N,00326.7397,W,064500,A,A*52
$GPBOD,,T,,M,,*47
$GPVTG,216.9,T,220.2,M,0.0,N,0.0,K*40
$GPRTE,1,1,c,*37
$GPRMC,064502,A,4738.6300,N,00326.7397,W,0.0,216.9,070618,3.3,W,A*1A
$GPGGA,064502,4738.6300,N,00326.7397,W,1,10,1.0,2.7,M,49.6,M,,*5B
$GPGSA,A,3,10,12,13,15,17,19,20,24,28,33,,,2.1,1.0,1.8*3D
$GPGSV,3,3,10,28,12,043,00,33,34,195,00*7C
$GPGLL,4738.6300,N,00326.7397,W,064502,A,A*50
$GPBOD,,T,,M,,*47
$GPVTG,216.9,T,220.2,M,0.0,N,0.0,K*40
$GPRTE,1,1,c,*37
$GPRMC,064504,A,4738.6300,N,00326.7397,W,0.0,216.9,070618,3.3,W,A*1C
$GPGGA,064504,4738.6300,N,00326.7397,W,1,10,1.0,2.7,M,49.6,M,,*5D
$GPGSA,A,3,10,12,13,15,17,19,20,24,28,33,,,2.1,1.0,1.8*3D
$GPGSV,3,1,10,10,24,309,00,12,37,208,00,13,36,133,00,15,67,172,00*7D
$GPGLL,4738.6300,N,00326.7397,W,064504,A,A*56
$GPBOD,,T,,M,,*47
$GPVTG,216.9,T,220.2,M,0.0,N,0.0,K*40
$GPRTE,1,1,c,*37
$GPRMC,064506,A,4738.6300,N,00326.7397,W,0.0,216.9,070618,3.3,W,A*1E
$GPGGA,064506,4738.6300,N,00326.7397,W,1,10,1.0,2.7,M,49.6,M,,*5F
$GPGSA,A,3,10,12,13,15,17,19,20,24,28,33,,,2.1,1.0,1.8*3D
$GPGSV,3,2,10,17,30,079,00,19,27,107,00,20,30,267,00,24,68,292,00*7A
$GPGLL,4738.6300,N,00326.7397,W,064506,A,A*54
$GPBOD,,T,,M,,*47
$GPVTG,216.9,T,220.2,M,0.0,N,0.0,K*40
$GPRTE,1,1,c,*37
$GPRMC,064508,A,4738.6300,N,00326.7397,W,0.0,216.9,070618,3.3,W,A*10
$GPGGA,064508,4738.6300,N,00326.7397,W,1,10,1.0,2.7,M,49.6,M,,*51
$GPGSA,A,3,10,12,13,15,17,19,20,24,28,33,,,2.1,1.0,1.8*3D
$GPGSV,3,3,10,28,12,043,00,33,34,195,00*7C
$GPGLL,4738.6300,N,00326.7397,W,064508,A,A*5A
$GPBOD,,T,,M,,*47
$GPVTG,216.9,T,220.2,M,0.0,N,0.0,K*40
$GPRTE,1,1,c,*37
$GPRMC,064510,A,4738.6300,N,00326.7397,W,0.0,216.9,070618,3.3,W,A*19
$GPGGA,064510,4738.6300,N,00326.7397,W,1,10,1.0,2.7,M,49.6,M,,*58
$GPGSA,A,3,10,12,13,15,17,19,20,24,28,33,,,2.1,1.0,1.8*3D
$GPGSV,3,1,10,10,24,309,00,12,37,208,00,13,36,133,00,15,67,172,00*7D
$GPGLL,4738.6300,N,00326.7397,W,064510,A,A*53
$GPBOD,,T,,M,,*47
$GPVTG,216.9,T,220.2,M,0.0,N,0.0,K*40
$GPRTE,1,1,c,*37
$GPRMC,064512,A,4738.6301,N,00326.7397,W,0.0,216.9,070618,3.3,W,A*1A
$GPGGA,064512,4738.6301,N,00326.7397,W,1,10,1.0,2.6,M,49.6,M,,*5A
$GPGSA,A,3,10,12,13,15,17,19,20,24,28,33,,,2.1,1.0,1.8*3D
$GPGSV,3,2,10,17,30,079,00,19,27,107,00,20,30,267,00,24,68,292,00*7A
$GPGLL,4738.6301,N,00326.7397,W,064512,A,A*50
$GPBOD,,T,,M,,*47
$GPVTG,216.9,T,220.2,M,0.0,N,0.0,K*40
$GPRTE,1,1,c,*37
$GPRMC,064514,A,4738.6301,N,00326.7397,W,0.0,216.9,070618,3.3,W,A*1C
$GPGGA,064514,4738.6301,N,00326.7397,W,1,10,1.0,2.6,M,49.6,M,,*5C
$GPGSA,A,3,10,12,13,15,17,19,20,24,28,33,,,2.1,1.0,1.8*3D
$GPGSV,3,3,10,28,12,043,00,33,34,195,00*7C
$GPGLL,4738.6301,N,00326.7397,W,064514,A,A*56
$GPBOD,,T,,M,,*47
$GPVTG,216.9,T,220.2,M,0.0,N,0.0,K*40
$GPRTE,1,1,c,*37
$GPRMC,064516,A,4738.6301,N,00326.7397,W,0.0,216.9,070618,3.3,W,A*1E
$GPGGA,064516,4738.6301,N,00326.7397,W,1,10,1.0,2.6,M,49.6,M,,*5E
$GPGSA,A,3,10,12,13,15,17,19,20,24,28,33,,,2.1,1.0,1.8*3D
$GPGSV,3,1,10,10,24,309,00,12,37,208,00,13,36,133,00,15,67,172,00*7D
$GPGLL,4738.6301,N,00326.7397,W,064516,A,A*54
$GPBOD,,T,,M,,*47
$GPVTG,216.9,T,220.2,M,0.0,N,0.0,K*40
$GPRTE,1,1,c,*37
$GPRMC,064518,A,4738.6301,N,00326.7397,W,0.0,216.9,070618,3.3,W,A*10
$GPGGA,064518,4738.6301,N,00326.7397,W,1,10,1.0,2.6,M,49.6,M,,*50
$GPGSA,A,3,10,12,13,15,17,19,20,24,28,33,,,2.1,1.0,1.8*3D
$GPGSV,3,2,10,17,30,079,00,19,27,107,00,20,30,267,00,24,68,292,00*7A
$GPGLL,4738.6301,N,00326.7397,W,064518,A,A*5A
$GPBOD,,T,,M,,*47
$GPVTG,216.9,T,220.2,M,0.0,N,0.0,K*40
$GPRTE,1,1,c,*37
$GPRMC,064520,A,4738.6301,N,00326.7397,W,0.0,216.9,070618,3.3,W,A*1B
$GPGGA,064520,4738.6301,N,00326.7397,W,1,10,1.0,2.6,M,49.6,M,,*5B
$GPGSA,A,3,10,12,13,15,17,19,20,24,28,33,,,2.1,1.0,1.8*3D
$GPGSV,3,3,10,28,12,043,00,33,34,195,00*7C
$GPGLL,4738.6301,N,00326.7397,W,064520,A,A*51
$GPBOD,,T,,M,,*47
$GPVTG,216.9,T,220.2,M,0.0,N,0.0,K*40
$GPRTE,1,1,c,*37
$GPRMC,064522,A,4738.6301,N,00326.7397,W,0.0,216.9,070618,3.3,W,A*19
$GPGGA,064522,4738.6301,N,00326.7397,W,1,10,1.0,2.6,M,49.6,M,,*59
$GPGSA,A,3,10,12,13,15,17,19,20,24,28,33,,,2.1,1.0,1.8*3D
$GPGSV,3,1,10,10,24,309,00,12,37,208,00,13,36,133,00,15,67,172,00*7D
$GPGLL,4738.6301,N,00326.7397,W,064522,A,A*53
$GPBOD,,T,,M,,*47
$GPVTG,216.9,T,220.2,M,0.0,N,0.0,K*40
$GPRTE,1,1,c,*37
$GPRMC,064524,A,4738.6301,N,00326.7397,W,0.0,216.9,070618,3.3,W,A*1F
$GPGGA,064524,4738.6301,N,00326.7397,W,1,10,1.0,2.6,M,49.6,M,,*5F
$GPGSA,A,3,10,12,13,15,17,19,20,24,28,33,,,2.1,1.0,1.8*3D
$GPGSV,3,2,10,17,30,079,00,19,27,107,00,20,30,267,00,24,68,292,00*7A
$GPGLL,4738.6301,N,00326.7397,W,064524,A,A*55
$GPBOD,,T,,M,,*47
$GPVTG,216.9,T,220.2,M,0.0,N,0.0,K*40
$GPRTE,1,1,c,*37
$GPRMC,064526,A,4738.6301,N,00326.7397,W,0.0,216.9,070618,3.3,W,A*1D
$GPGGA,064526,4738.6301,N,00326.7397,W,1,10,1.0,2.6,M,49.6,M,,*5D
$GPGSA,A,3,10,12,13,15,17,19,20,24,28,33,,,2.1,1.0,1.8*3D
$GPGSV,3,3,10,28,12,043,00,33,34,195,00*7C
$GPGLL,4738.6301,N,00326.7397,W,064526,A,A*57
$GPBOD,,T,,M,,*47
$GPVTG,216.9,T,220.2,M,0.0,N,0.0,K*40
$GPRTE,1,1,c,*37
$GPRMC,064528,A,4738.6301,N,00326.7397,W,0.0,216.9,070618,3.3,W,A*13
$GPGGA,064528,4738.6301,N,00326.7397,W,1,10,1.0,2.6,M,49.6,M,,*53
$GPGSA,A,3,10,12,13,15,17,19,20,24,28,33,,,2.1,1.0,1.8*3D
$GPGSV,3,1,10,10,24,309,00,12,37,208,00,13,36,133,00,15,67,172,00*7D
$GPGLL,4738.6301,N,00326.7397,W,064528,A,A*59
$GPBOD,,T,,M,,*47
$GPVTG,216.9,T,220.2,M,0.0,N,0.0,K*40
$GPRTE,1,1,c,*37
$GPRMC,064530,A,4738.6301,N,00326.7397,W,0.0,216.9,070618,3.3,W,A*1A
$GPGGA,064530,4738.6301,N,00326.7397,W,1,10,1.0,2.6,M,49.6,M,,*5A
$GPGSA,A,3,10,12,13,15,17,19,20,24,28,33,,,2.1,1.0,1.8*3D
$GPGSV,3,2,10,17,30,079,00,19,27,107,00,20,30,267,00,24,68,292,00*7A
$GPGLL,4738.6301,N,00326.7397,W,064530,A,A*50
$GPBOD,,T,,M,,*47
$GPVTG,216.9,T,220.2,M,0.0,N,0.0,K*40
$GPRTE,1,1,c,*37
$GPRMC,064532,A,4738.6301,N,00326.7397,W,0.0,216.9,070618,3.3,W,A*18
$GPGGA,064532,4738.6301,N,00326.7397,W,1,10,1.0,2.6,M,49.6,M,,*58
$GPGSA,A,3,10,12,13,15,17,19,20,24,28,33,,,2.1,1.0,1.8*3D
$GPGSV,3,3,10,28,12,043,00,33,34,195,00*7C
$GPGLL,4738.6301,N,00326.7397,W,064532,A,A*52
$GPBOD,,T,,M,,*47
$GPVTG,216.9,T,220.2,M,0.0,N,0.0,K*40
$GPRTE,1,1,c,*37
$GPRMC,064534,A,4738.6301,N,00326.7397,W,0.0,216.9,070618,3.3,W,A*1E
$GPGGA,064534,4738.6301,N,00326.7397,W,1,10,1.0,2.6,M,49.6,M,,*5E
$GPGSA,A,3,10,12,13,15,17,19,20,24,28,33,,,2.1,1.0,1.8*3D
$GPGSV,3,1,10,10,24,308,00,12,37,208,00,13,36,133,00,15,67,172,00*7C
$GPGLL,4738.6301,N,00326.7397,W,064534,A,A*54
$GPBOD,,T,,M,,*47
$GPVTG,216.9,T,220.2,M,0.0,N,0.0,K*40
$GPRTE,1,1,c,*37
$GPRMC,064536,A,4738.6301,N,00326.7397,W,0.0,216.9,070618,3.3,W,A*1C
$GPGGA,064536,4738.6301,N,00326.7397,W,1,10,1.0,2.6,M,49.6,M,,*5C
$GPGSA,A,3,10,12,13,15,17,19,20,24,28,33,,,2.1,1.0,1.8*3D
$GPGSV,3,2,10,17,30,079,00,19,27,107,00,20,30,267,00,24,68,292,00*7A
$GPGLL,4738.6301,N,00326.7397,W,064536,A,A*56
$GPBOD,,T,,M,,*47
$GPVTG,216.9,T,220.2,M,0.0,N,0.0,K*40
$GPRTE,1,1,c,*37
$GPRMC,064538,A,4738.6301,N,00326.7397,W,0.0,216.9,070618,3.3,W,A*12
$GPGGA,064538,4738.6301,N,00326.7397,W,1,10,1.0,2.6,M,49.6,M,,*52
$GPGSA,A,3,10,12,13,15,17,19,20,24,28,33,,,2.1,1.0,1.8*3D
$GPGSV,3,3,10,28,12,043,00,33,34,195,00*7C
$GPGLL,4738.6301,N,00326.7397,W,064538,A,A*58
$GPBOD,,T,,M,,*47
$GPVTG,216.9,T,220.2,M,0.0,N,0.0,K*40
$GPRTE,1,1,c,*37
$GPRMC,064540,A,4738.6301,N,00326.7397,W,0.0,216.9,070618,3.3,W,A*1D
$GPGGA,064540,4738.6301,N,00326.7397,W,1,10,1.0,2.6,M,49.6,M,,*5D
$GPGSA,A,3,10,12,13,15,17,19,20,24,28,33,,,2.1,1.0,1.8*3D
$GPGSV,3,1,10,10,24,308,00,12,37,208,00,13,36,133,00,15,67,172,00*7C
$GPGLL,4738.6301,N,00326.7397,W,064540,A,A*57
$GPBOD,,T,,M,,*47
$GPVTG,216.9,T,220.2,M,0.0,N,0.0,K*40
$GPRTE,1,1,c,*37
$GPRMC,064542,A,4738.6301,N,00326.7397,W,0.0,216.9,070618,3.3,W,A*1F
$GPGGA,064542,4738.6301,N,00326.7397,W,1,10,1.0,2.6,M,49.6,M,,*5F
$GPGSA,A,3,10,12,13,15,17,19,20,24,28,33,,,2.1,1.0,1.8*3D
$GPGSV,3,2,10,17,30,079,00,19,27,107,00,20,30,267,00,24,68,292,00*7A
$GPGLL,4738.6301,N,00326.7397,W,064542,A,A*55
$GPBOD,,T,,M,,*47
$GPVTG,216.9,T,220.2,M,0.0,N,0.0,K*40
$GPRTE,1,1,c,*37
$GPRMC,064544,A,4738.6301,N,00326.7397,W,0.0,216.9,070618,3.3,W,A*19
$GPGGA,064544,4738.6301,N,00326.7397,W,1,10,1.0,2.6,M,49.6,M,,*59
$GPGSA,A,3,10,12,13,15,17,19,20,24,28,33,,,2.1,1.0,1.8*3D
$GPGSV,3,3,10,28,12,043,00,33,34,195,00*7C
$GPGLL,4738.6301,N,00326.7397,W,064544,A,A*53
$GPBOD,,T,,M,,*47
$GPVTG,216.9,T,220.2,M,0.0,N,0.0,K*40
$GPRTE,1,1,c,*37
$GPRMC,064546,A,4738.6301,N,00326.7397,W,0.0,216.9,070618,3.3,W,A*1B
$GPGGA,064546,4738.6301,N,00326.7397,W,1,10,1.0,2.6,M,49.6,M,,*5B
$GPGSA,A,3,10,12,13,15,17,19,20,24,28,33,,,2.1,1.0,1.8*3D
$GPGSV,3,1,10,10,24,308,00,12,37,208,00,13,36,133,00,15,66,172,00*7D
$GPGLL,4738.6301,N,00326.7397,W,064546,A,A*51
$GPBOD,,T,,M,,*47
$GPVTG,216.9,T,220.2,M,0.0,N,0.0,K*40
$GPRTE,1,1,c,*37
$GPRMC,064548,A,4738.6301,N,00326.7397,W,0.0,216.9,070618,3.3,W,A*15
$GPGGA,064548,4738.6301,N,00326.7397,W,1,10,1.0,2.6,M,49.6,M,,*55
$GPGSA,A,3,10,12,13,15,17,19,20,24,28,33,,,2.1,1.0,1.8*3D
$GPGSV,3,2,10,17,30,078,00,19,27,107,00,20,30,267,00,24,68,292,00*7B
$GPGLL,4738.6301,N,00326.7397,W,064548,A,A*5F
$GPBOD,,T,,M,,*47
$GPVTG,216.9,T,220.2,M,0.0,N,0.0,K*40
$GPRTE,1,1,c,*37
$GPRMC,064550,A,4738.6301,N,00326.7397,W,0.0,216.9,070618,3.3,W,A*1C
$GPGGA,064550,4738.6301,N,00326.7397,W,1,10,1.0,2.6,M,49.6,M,,*5C
$GPGSA,A,3,10,12,13,15,17,19,20,24,28,33,,,2.1,1.0,1.8*3D
$GPGSV,3,3,10,28,12,043,00,33,34,195,00*7C
$GPGLL,4738.6301,N,00326.7397,W,064550,A,A*56
$GPBOD,,T,,M,,*47
$GPVTG,216.9,T,220.2,M,0.0,N,0.0,K*40
$GPRTE,1,1,c,*37
$GPRMC,064552,A,4738.6301,N,00326.7396,W,0.0,216.9,070618,3.3,W,A*1F
$GPGGA,064552,4738.6301,N,00326.7396,W,1,10,1.0,2.4,M,49.6,M,,*5D
$GPGSA,A,3,10,12,13,15,17,19,20,24,28,33,,,2.1,1.0,1.8*3D
$GPGSV,3,1,10,10,24,308,00,12,37,208,00,13,36,133,00,15,66,172,00*7D
$GPGLL,4738.6301,N,00326.7396,W,064552,A,A*55
$GPBOD,,T,,M,,*47
$GPVTG,216.9,T,220.2,M,0.0,N,0.0,K*40
$GPRTE,1,1,c,*37
$GPRMC,064554,A,4738.6301,N,00326.7396,W,0.0,216.9,070618,3.3,W,A*19
$GPGGA,064554,4738.6301,N,00326.7396,W,1,10,1.0,2.4,M,49.6,M,,*5B
$GPGSA,A,3,10,12,13,15,17,19,20,24,28,33,,,2.1,1.0,1.8*3D
$GPGSV,3,2,10,17,30,078,00,19,27,106,00,20,30,267,00,24,68,292,00*7A
$GPGLL,4738.6301,N,00326.7396,W,064554,A,A*53
$GPBOD,,T,,M,,*47
$GPVTG,216.9,T,220.2,M,0.0,N,0.0,K*40
$GPRTE,1,1,c,*37
$GPRMC,064556,A,4738.6301,N,00326.7396,W,0.0,216.9,070618,3.3,W,A*1B
$GPGGA,064556,4738.6301,N,00326.7396,W,1,10,1.0,2.4,M,49.6,M,,*59
$GPGSA,A,3,10,12,13,15,17,19,20,24,28,33,,,2.1,1.0,1.8*3D
$GPGSV,3,3,10,28,12,043,00,33,34,195,00*7C
$GPGLL,4738.6301,N,00326.7396,W,064556,A,A*51
$GPBOD,,T,,M,,*47
$GPVTG,216.9,T,220.2,M,0.0,N,0.0,K*40
$GPRTE,1,1,c,*37
$GPRMC,064558,A,4738.6301,N,00326.7396,W,0.0,216.9,070618,3.3,W,A*15
$GPGGA,064558,4738.6301,N,00326.7396,W,1,10,1.0,2.4,M,49.6,M,,*57
$GPGSA,A,3,10,12,13,15,17,19,20,24,28,33,,,2.1,1.0,1.8*3D
$GPGSV,3,1,10,10,24,308,00,12,37,208,00,13,36,133,00,15,66,172,00*7D
$GPGLL,4738.6301,N,00326.7396,W,064558,A,A*5F
$GPBOD,,T,,M,,*47
$GPVTG,216.9,T,220.2,M,0.0,N,0.0,K*40
$GPRTE,1,1,c,*37
$GPRMC,064600,A,4738.6301,N,00326.7396,W,0.0,216.9,070618,3.3,W,A*1B
$GPGGA,064600,4738.6301,N,00326.7396,W,1,10,1.0,2.4,M,49.6,M,,*59
$GPGSA,A,3,10,12,13,15,17,19,20,24,28,33,,,2.1,1.0,1.8*3D
$GPGSV,3,2,10,17,30,078,00,19,27,106,00,20,30,267,00,24,68,293,00*7B
$GPGLL,4738.6301,N,00326.7396,W,064600,A,A*51
$GPBOD,,T,,M,,*47
$GPVTG,216.9,T,220.2,M,0.0,N,0.0,K*40
$GPRTE,1,1,c,*37
$GPRMC,064602,A,4738.6301,N,00326.7396,W,0.0,216.9,070618,3.3,W,A*19
$GPGGA,064602,4738.6301,N,00326.7396,W,1,10,1.0,2.4,M,49.6,M,,*5B
$GPGSA,A,3,10,12,13,15,17,19,20,24,28,33,,,2.1,1.0,1.8*3D
$GPGSV,3,3,10,28,12,043,00,33,34,195,00*7C
$GPGLL,4738.6301,N,00326.7396,W,064602,A,A*53
$GPBOD,,T,,M,,*47
$GPVTG,216.9,T,220.2,M,0.0,N,0.0,K*40
$GPRTE,1,1,c,*37
$GPRMC,064604,A,4738.6301,N,00326.7396,W,0.0,216.9,070618,3.3,W,A*1F
$GPGGA,064604,4738.6301,N,00326.7396,W,1,10,1.0,2.4,M,49.6,M,,*5D
$GPGSA,A,3,10,12,13,15,17,19,20,24,28,33,,,2.1,1.0,1.8*3D
$GPGSV,3,1,10,10,24,308,00,12,37,208,00,13,36,133,00,15,66,172,00*7D
$GPGLL,4738.6301,N,00326.7396,W,064604,A,A*55
$GPBOD,,T,,M,,*47
$GPVTG,216.9,T,220.2,M,0.0,N,0.0,K*40
$GPRTE,1,1,c,*37
$GPRMC,064606,A,4738.6301,N,00326.7396,W,0.0,216.9,070618,3.3,W,A*1D
$GPGGA,064606,4738.6301,N,00326.7396,W,1,10,1.0,2.4,M,49.6,M,,*5F
$GPGSA,A,3,10,12,13,15,17,19,20,24,28,33,,,2.1,1.0,1.8*3D
$GPGSV,3,2,10,17,30,078,00,19,27,106,00,20,30,267,00,24,68,293,00*7B
$GPGLL,4738.6301,N,00326.7396,W,064606,A,A*57
$GPBOD,,T,,M,,*47
$GPVTG,216.9,T,220.2,M,0.0,N,0.0,K*40
$GPRTE,1,1,c,*37
$GPRMC,064608,A,4738.6301,N,00326.7396,W,0.0,216.9,070618,3.3,W,A*13
$GPGGA,064608,4738.6301,N,00326.7396,W,1,10,1.0,2.4,M,49.6,M,,*51
$GPGSA,A,3,10,12,13,15,17,19,20,24,28,33,,,2.1,1.0,1.8*3D
$GPGSV,3,3,10,28,11,043,00,33,34,195,00*7F
$GPGLL,4738.6301,N,00326.7396,W,064608,A,A*59
$GPBOD,,T,,M,,*47
$GPVTG,216.9,T,220.2,M,0.0,N,0.0,K*40
$GPRTE,1,1,c,*37
$GPRMC,064610,A,4738.6301,N,00326.7396,W,0.0,216.9,070618,3.3,W,A*1A
$GPGGA,064610,4738.6301,N,00326.7396,W,1,10,1.0,2.4,M,49.6,M,,*58
$GPGSA,A,3,10,12,13,15,17,19,20,24,28,33,,,2.1,1.0,1.8*3D
$GPGSV,3,1,10,10,24,308,00,12,37,208,00,13,36,133,00,15,66,172,00*7D
$GPGLL,4738.6301,N,00326.7396,W,064610,A,A*50
$GPBOD,,T,,M,,*47
$GPVTG,216.9,T,220.2,M,0.0,N,0.0,K*40
$GPRTE,1,1,c,*37
$GPRMC,064612,A,4738.6301,N,00326.7396,W,0.0,216.9,070618,3.3,W,A*18
$GPGGA,064612,4738.6301,N,00326.7396,W,1,10,1.0,2.4,M,49.6,M,,*5A
$GPGSA,A,3,10,12,13,15,17,19,20,24,28,33,,,2.1,1.0,1.8*3D
$GPGSV,3,2,10,17,30,078,00,19,27,106,00,20,30,267,00,24,68,293,00*7B
$GPGLL,4738.6301,N,00326.7396,W,064612,A,A*52
$GPBOD,,T,,M,,*47
$GPVTG,216.9,T,220.2,M,0.0,N,0.0,K*40
$GPRTE,1,1,c,*37
$GPRMC,064614,A,4738.6301,N,00326.7396,W,0.0,216.9,070618,3.3,W,A*1E
$GPGGA,064614,4738.6301,N,00326.7396,W,1,10,1.0,2.4,M,49.6,M,,*5C
$GPGSA,A,3,10,12,13,15,17,19,20,24,28,33,,,2.1,1.0,1.8*3D
$GPGSV,3,3,10,28,11,043,00,33,34,195,00*7F
$GPGLL,4738.6301,N,00326.7396,W,064614,A,A*54
$GPBOD,,T,,M,,*47
$GPVTG,216.9,T,220.2,M,0.0,N,0.0,K*40
$GPRTE,1,1,c,*37
$GPRMC,064616,A,4738.6301,N,00326.7396,W,0.0,216.9,070618,3.3,W,A*1C
$GPGGA,064616,4738.6301,N,00326.7396,W,1,10,1.0,2.4,M,49.6,M,,*5E
$GPGSA,A,3,10,12,13,15,17,19,20,24,28,33,,,2.1,1.0,1.8*3D
$GPGSV,3,1,10,10,24,308,00,12,37,208,00,13,36,133,00,15,66,172,00*7D
$GPGLL,4738.6301,N,00326.7396,W,064616,A,A*56
$GPBOD,,T,,M,,*47
$GPVTG,216.9,T,220.2,M,0.0,N,0.0,K*40
$GPRTE,1,1,c,*37
$GPRMC,064618,A,4738.6301,N,00326.7396,W,0.0,216.9,070618,3.3,W,A*12
$GPGGA,064618,4738.6301,N,00326.7396,W,1,10,1.0,2.4,M,49.6,M,,*50
$GPGSA,A,3,10,12,13,15,17,19,20,24,28,33,,,2.1,1.0,1.8*3D
$GPGSV,3,2,10,17,30,078,00,19,27,106,00,20,30,267,00,24,68,293,00*7B
$GPGLL,4738.6301,N,00326.7396,W,064618,A,A*58
$GPBOD,,T,,M,,*47
$GPVTG,216.9,T,220.2,M,0.0,N,0.0,K*40
$GPRTE,1,1,c,*37
$GPRMC,064620,A,4738.6301,N,00326.7396,W,0.0,216.9,070618,3.3,W,A*19
$GPGGA,064620,4738.6301,N,00326.7396,W,1,10,1.0,2.4,M,49.6,M,,*5B
$GPGSA,A,3,10,12,13,15,17,19,20,24,28,33,,,2.1,1.0,1.8*3D
$GPGSV,3,3,10,28,11,043,00,33,34,195,00*7F
$GPGLL,4738.6301,N,00326.7396,W,064620,A,A*53
$GPBOD,,T,,M,,*47
$GPVTG,216.9,T,220.2,M,0.0,N,0.0,K*40
$GPRTE,1,1,c,*37
$GPRMC,064622,A,4738.6301,N,00326.7396,W,0.0,216.9,070618,3.3,W,A*1B
$GPGGA,064622,4738.6301,N,00326.7396,W,1,10,1.0,2.4,M,49.6,M,,*59
$GPGSA,A,3,10,12,13,15,17,19,20,24,28,33,,,2.1,1.0,1.8*3D
$GPGSV,3,1,10,10,24,308,00,12,37,208,00,13,36,133,00,15,66,172,00*7D
$GPGLL,4738.6301,N,00326.7396,W,064622,A,A*51
$GPBOD,,T,,M,,*47
$GPVTG,216.9,T,220.2,M,0.0,N,0.0,K*40
$GPRTE,1,1,c,*37
$GPRMC,064624,A,4738.6301,N,00326.7396,W,0.0,216.9,070618,3.3,W,A*1D
$GPGGA,064624,4738.6301,N,00326.7396,W,1,10,1.1,2.4,M,49.6,M,,*5E
$GPGSA,A,3,10,12,13,15,17,19,20,24,28,33,,,2.2,1.1,1.9*3E
$GPGSV,3,2,10,17,30,078,00,19,27,107,00,20,30,267,00,24,68,293,00*7A
$GPGLL,4738.6301,N,00326.7396,W,064624,A,A*57
$GPBOD,,T,,M,,*47
$GPVTG,216.9,T,220.2,M,0.0,N,0.0,K*40
$GPRTE,1,1,c,*37
$GPRMC,064626,A,4738.6301,N,00326.7396,W,0.0,216.9,070618,3.3,W,A*1F
$GPGGA,064626,4738.6301,N,00326.7396,W,1,10,1.0,2.4,M,49.6,M,,*5D
$GPGSA,A,3,10,12,13,15,17,19,20,24,28,33,,,2.1,1.0,1.8*3D
$GPGSV,3,3,10,28,11,043,00,33,34,195,00*7F
$GPGLL,4738.6301,N,00326.7396,W,064626,A,A*55
$GPBOD,,T,,M,,*47
$GPVTG,216.9,T,220.2,M,0.0,N,0.0,K*40
$GPRTE,1,1,c,*37
$GPRMC,064628,A,4738.6301,N,00326.7396,W,0.0,216.9,070618,3.3,W,A*11
$GPGGA,064628,4738.6301,N,00326.7396,W,1,10,1.0,2.4,M,49.6,M,,*53
$GPGSA,A,3,10,12,13,15,17,19,20,24,28,33,,,2.1,1.0,1.8*3D
$GPGSV,3,1,10,10,24,308,00,12,37,208,00,13,36,133,00,15,66,172,00*7D
$GPGLL,4738.6301,N,00326.7396,W,064628,A,A*5B
$GPBOD,,T,,M,,*47
$GPVTG,216.9,T,220.2,M,0.0,N,0.0,K*40
$GPRTE,1,1,c,*37
$GPRMC,064630,A,4738.6301,N,00326.7396,W,0.0,216.9,070618,3.3,W,A*18
$GPGGA,064630,4738.6301,N,00326.7396,W,1,10,1.0,2.4,M,49.6,M,,*5A
$GPGSA,A,3,10,12,13,15,17,19,20,24,28,33,,,2.1,1.0,1.8*3D
$GPGSV,3,2,10,17,30,078,00,19,27,106,00,20,30,267,00,24,68,293,00*7B
$GPGLL,4738.6301,N,00326.7396,W,064630,A,A*52
$GPBOD,,T,,M,,*47
$GPVTG,216.9,T,220.2,M,0.0,N,0.0,K*40
$GPRTE,1,1,c,*37
$GPRMC,064632,A,4738.6301,N,00326.7396,W,0.0,216.9,070618,3.3,W,A*1A
$GPGGA,064632,4738.6301,N,00326.7396,W,1,10,1.0,2.2,M,49.6,M,,*5E
$GPGSA,A,3,10,12,13,15,17,19,20,24,28,33,,,2.1,1.0,1.8*3D
$GPGSV,3,3,10,28,11,043,00,33,34,195,00*7F
$GPGLL,4738.6301,N,00326.7396,W,064632,A,A*50
$GPBOD,,T,,M,,*47
$GPVTG,216.9,T,220.2,M,0.0,N,0.0,K*40
$GPRTE,1,1,c,*37
$GPRMC,064634,A,4738.6301,N,00326.7396,W,0.0,216.9,070618,3.3,W,A*1C
$GPGGA,064634,4738.6301,N,00326.7396,W,1,10,1.0,2.2,M,49.6,M,,*58
$GPGSA,A,3,10,12,13,15,17,19,20,24,28,33,,,2.1,1.0,1.8*3D
$GPGSV,3,1,10,10,24,308,00,12,37,208,00,13,36,133,00,15,66,172,00*7D
$GPGLL,4738.6301,N,00326.7396,W,064634,A,A*56
$GPBOD,,T,,M,,*47
$GPVTG,216.9,T,220.2,M,0.0,N,0.0,K*40
$GPRTE,1,1,c,*37
$GPRMC,064636,A,4738.6301,N,00326.7396,W,0.0,216.9,070618,3.3,W,A*1E
$GPGGA,064636,4738.6301,N,00326.7396,W,1,10,1.0,2.2,M,49.6,M,,*5A
$GPGSA,A,3,10,12,13,15,17,19,20,24,28,33,,,2.1,1.0,1.8*3D
$GPGSV,3,2,10,17,30,078,00,19,27,106,00,20,30,267,00,24,68,293,00*7B
$GPGLL,4738.6301,N,00326.7396,W,064636,A,A*54
$GPBOD,,T,,M,,*47
$GPVTG,216.9,T,220.2,M,0.0,N,0.0,K*40
$GPRTE,1,1,c,*37
$GPRMC,064638,A,4738.6301,N,00326.7396,W,0.0,216.9,070618,3.3,W,A*10
$GPGGA,064638,4738.6301,N,00326.7396,W,1,10,1.0,2.2,M,49.6,M,,*54
$GPGSA,A,3,10,12,13,15,17,19,20,24,28,33,,,2.1,1.0,1.8*3D
$GPGSV,3,3,10,28,11,043,00,33,34,195,00*7F
$GPGLL,4738.6301,N,00326.7396,W,064638,A,A*5A
$GPBOD,,T,,M,,*47
$GPVTG,216.9,T,220.2,M,0.0,N,0.0,K*40
$GPRTE,1,1,c,*37
$GPRMC,064640,A,4738.6301,N,00326.7396,W,0.0,216.9,070618,3.3,W,A*1F
$GPGGA,064640,4738.6301,N,00326.7396,W,1,10,1.0,2.2,M,49.6,M,,*5B
$GPGSA,A,3,10,12,13,15,17,19,20,24,28,33,,,2.1,1.0,1.8*3D
$GPGSV,3,1,10,10,24,308,00,12,38,208,00,13,36,133,00,15,66,172,00*72
$GPGLL,4738.6301,N,00326.7396,W,064640,A,A*55
$GPBOD,,T,,M,,*47
$GPVTG,216.9,T,220.2,M,0.0,N,0.0,K*40
$GPRTE,1,1,c,*37
$GPRMC,064642,A,4738.6301,N,00326.7396,W,0.0,216.9,070618,3.3,W,A*1D
$GPGGA,064642,4738.6301,N,00326.7396,W,1,10,1.0,2.2,M,49.6,M,,*59
$GPGSA,A,3,10,12,13,15,17,19,20,24,28,33,,,2.1,1.0,1.8*3D
$GPGSV,3,2,10,17,30,078,00,19,27,106,00,20,30,267,00,24,68,293,00*7B
$GPGLL,4738.6301,N,00326.7396,W,064642,A,A*57
$GPBOD,,T,,M,,*47
$GPVTG,216.9,T,220.2,M,0.0,N,0.0,K*40
$GPRTE,1,1,c,*37
$GPRMC,064644,A,4738.6301,N,00326.7396,W,0.0,216.9,070618,3.3,W,A*1B
$GPGGA,064644,4738.6301,N,00326.7396,W,1,10,1.0,2.2,M,49.6,M,,*5F
$GPGSA,A,3,10,12,13,15,17,19,20,24,28,33,,,2.1,1.0,1.8*3D
$GPGSV,3,3,10,28,11,043,00,33,34,195,00*7F
$GPGLL,4738.6301,N,00326.7396,W,064644,A,A*51
$GPBOD,,T,,M,,*47
$GPVTG,216.9,T,220.2,M,0.0,N,0.0,K*40
$GPRTE,1,1,c,*37
$GPRMC,064646,A,4738.6301,N,00326.7396,W,0.0,216.9,070618,3.3,W,A*19
$GPGGA,064646,4738.6301,N,00326.7396,W,1,10,1.0,2.2,M,49.6,M,,*5D
$GPGSA,A,3,10,12,13,15,17,19,20,24,28,33,,,2.1,1.0,1.8*3D
$GPGSV,3,1,10,10,24,308,00,12,38,208,00,13,35,133,00,15,66,172,00*71
$GPGLL,4738.6301,N,00326.7396,W,064646,A,A*53
$GPBOD,,T,,M,,*47
$GPVTG,216.9,T,220.2,M,0.0,N,0.0,K*40
$GPRTE,1,1,c,*37
$GPRMC,064648,A,4738.6301,N,00326.7396,W,0.0,216.9,070618,3.3,W,A*17
$GPGGA,064648,4738.6301,N,00326.7396,W,1,10,1.0,2.2,M,49.6,M,,*53
$GPGSA,A,3,10,12,13,15,17,19,20,24,28,33,,,2.1,1.0,1.8*3D
$GPGSV,3,2,10,17,30,078,00,19,27,106,00,20,30,267,00,24,68,293,00*7B
$GPGLL,4738.6301,N,00326.7396,W,064648,A,A*5D
$GPBOD,,T,,M,,*47
$GPVTG,216.9,T,220.2,M,0.0,N,0.0,K*40
$GPRTE,1,1,c,*37
$GPRMC,064650,A,4738.6301,N,00326.7396,W,0.0,216.9,070618,3.3,W,A*1E
$GPGGA,064650,4738.6301,N,00326.7396,W,1,10,1.0,2.2,M,49.6,M,,*5A
$GPGSA,A,3,10,12,13,15,17,19,20,24,28,33,,,2.1,1.0,1.8*3D
$GPGSV,3,3,10,28,11,043,00,33,34,195,00*7F
$GPGLL,4738.6301,N,00326.7396,W,064650,A,A*54
$GPBOD,,T,,M,,*47
$GPVTG,216.9,T,220.2,M,0.0,N,0.0,K*40
$GPRTE,1,1,c,*37
$GPRMC,064652,A,4738.6301,N,00326.7396,W,0.0,216.9,070618,3.3,W,A*1C
$GPGGA,064652,4738.6301,N,00326.7396,W,1,10,1.0,2.2,M,49.6,M,,*58
$GPGSA,A,3,10,12,13,15,17,19,20,24,28,33,,,2.1,1.0,1.8*3D
$GPGSV,3,1,10,10,24,308,00,12,38,208,00,13,35,133,00,15,66,172,00*71
$GPGLL,4738.6301,N,00326.7396,W,064652,A,A*56
$GPBOD,,T,,M,,*47
$GPVTG,216.9,T,220.2,M,0.0,N,0.0,K*40
$GPRTE,1,1,c,*37
$GPRMC,064654,A,4738.6301,N,00326.7396,W,0.0,216.9,070618,3.3,W,A*1A
$GPGGA,064654,4738.6301,N,00326.7396,W,1,10,1.0,2.2,M,49.6,M,,*5E
$GPGSA,A,3,10,12,13,15,17,19,20,24,28,37,,,2.1,1.0,1.8*39
$GPGSV,3,2,10,17,30,078,00,19,27,106,00,20,30,267,00,24,68,293,00*7B
$GPGLL,4738.6301,N,00326.7396,W,064654,A,A*50
$GPBOD,,T,,M,,*47
$GPVTG,216.9,T,220.2,M,0.0,N,0.0,K*40
$GPRTE,1,1,c,*37
$GPRMC,064656,A,4738.6301,N,00326.7396,W,0.0,216.9,070618,3.3,W,A*18
$GPGGA,064656,4738.6301,N,00326.7396,W,1,10,1.0,2.2,M,49.6,M,,*5C
$GPGSA,A,3,10,12,13,15,17,19,20,24,28,37,,,2.1,1.0,1.8*39
$GPGSV,3,3,10,28,11,043,00,37,34,195,00*7B
$GPGLL,4738.6301,N,00326.7396,W,064656,A,A*52
$GPBOD,,T,,M,,*47
$GPVTG,216.9,T,220.2,M,0.0,N,0.0,K*40
$GPRTE,1,1,c,*37
$GPRMC,064658,A,4738.6301,N,00326.7396,W,0.0,216.9,070618,3.3,W,A*16
$GPGGA,064658,4738.6301,N,00326.7396,W,1,10,1.0,2.2,M,49.6,M,,*52
$GPGSA,A,3,10,12,13,15,17,19,20,24,28,37,,,2.1,1.0,1.8*39
$GPGSV,3,1,10,10,24,308,00,12,38,208,00,13,35,133,00,15,66,172,00*71
$GPGLL,4738.6301,N,00326.7396,W,064658,A,A*5C
$GPBOD,,T,,M,,*47
$GPVTG,216.9,T,220.2,M,0.0,N,0.0,K*40
$GPRTE,1,1,c,*37
$GPRMC,064700,A,4738.6301,N,00326.7396,W,0.0,216.9,070618,3.3,W,A*1A
$GPGGA,064700,4738.6301,N,00326.7396,W,1,10,1.0,2.2,M,49.6,M,,*5E
$GPGSA,A,3,10,12,13,15,17,19,20,24,28,37,,,2.1,1.0,1.8*39
$GPGSV,3,2,10,17,30,078,00,19,27,106,00,20,30,266,00,24,68,293,00*7A
$GPGLL,4738.6301,N,00326.7396,W,064700,A,A*50
$GPBOD,,T,,M,,*47
$GPVTG,216.9,T,220.2,M,0.0,N,0.0,K*40
$GPRTE,1,1,c,*37
$GPRMC,064702,A,4738.6301,N,00326.7396,W,0.0,216.9,070618,3.3,W,A*18
$GPGGA,064702,4738.6301,N,00326.7396,W,1,10,1.0,2.2,M,49.6,M,,*5C
$GPGSA,A,3,10,12,13,15,17,19,20,24,28,37,,,2.1,1.0,1.8*39
$GPGSV,3,3,10,28,11,043,00,37,34,195,00*7B
$GPGLL,4738.6301,N,00326.7396,W,064702,A,A*52
$GPBOD,,T,,M,,*47
$GPVTG,216.9,T,220.2,M,0.0,N,0.0,K*40
$GPRTE,1,1,c,*37
$GPRMC,064704,A,4738.6301,N,00326.7396,W,0.0,216.9,070618,3.3,W,A*1E
$GPGGA,064704,4738.6301,N,00326.7396,W,1,10,1.0,2.2,M,49.6,M,,*5A
$GPGSA,A,3,10,12,13,15,17,19,20,24,28,37,,,2.1,1.0,1.8*39
$GPGSV,3,1,10,10,24,308,00,12,38,208,00,13,35,133,00,15,66,172,00*71
$GPGLL,4738.6301,N,00326.7396,W,064704,A,A*54
$GPBOD,,T,,M,,*47
$GPVTG,216.9,T,220.2,M,0.0,N,0.0,K*40
$GPRTE,1,1,c,*37
$GPRMC,064706,A,4738.6301,N,00326.7396,W,0.0,216.9,070618,3.3,W,A*1C
$GPGGA,064706,4738.6301,N,00326.7396,W,1,10,1.0,2.2,M,49.6,M,,*58
$GPGSA,A,3,10,12,13,15,17,19,20,24,28,37,,,2.1,1.0,1.8*39
$GPGSV,3,2,10,17,30,078,00,19,27,106,00,20,30,266,00,24,69,294,00*7C
$GPGLL,4738.6301,N,00326.7396,W,064706,A,A*56
$GPBOD,,T,,M,,*47
$GPVTG,216.9,T,220.2,M,0.0,N,0.0,K*40
$GPRTE,1,1,c,*37
$GPRMC,064708,A,4738.6301,N,00326.7396,W,0.0,216.9,070618,3.3,W,A*12
$GPGGA,064708,4738.6301,N,00326.7396,W,1,10,1.0,2.2,M,49.6,M,,*56
$GPGSA,A,3,10,12,13,15,17,19,20,24,28,37,,,2.1,1.0,1.8*39
$GPGSV,3,3,10,28,11,043,00,37,34,195,00*7B
$GPGLL,4738.6301,N,00326.7396,W,064708,A,A*58
$GPBOD,,T,,M,,*47
$GPVTG,216.9,T,220.2,M,0.0,N,0.0,K*40
$GPRTE,1,1,c,*37
$GPRMC,064710,A,4738.6301,N,00326.7396,W,0.0,216.9,070618,3.3,W,A*1B
$GPGGA,064710,4738.6301,N,00326.7396,W,1,10,1.0,2.2,M,49.6,M,,*5F
$GPGSA,A,3,10,12,13,15,17,19,20,24,28,37,,,2.1,1.0,1.8*39
$GPGSV,3,1,10,10,24,308,00,12,38,208,00,13,35,133,00,15,66,172,00*71
$GPGLL,4738.6301,N,00326.7396,W,064710,A,A*51
$GPBOD,,T,,M,,*47
$GPVTG,216.9,T,220.2,M,0.0,N,0.0,K*40
$GPRTE,1,1,c,*37
$GPRMC,064712,A,4738.6301,N,00326.7396,W,0.0,216.9,070618,3.3,W,A*19
$GPGGA,064712,4738.6301,N,00326.7396,W,1,10,1.0,2.2,M,49.6,M,,*5D
$GPGSA,A,3,10,12,13,15,17,19,20,24,28,37,,,2.1,1.0,1.8*39
$GPGSV,3,2,10,17,30,078,00,19,27,106,00,20,30,266,00,24,69,294,00*7C
$GPGLL,4738.6301,N,00326.7396,W,064712,A,A*53
$GPBOD,,T,,M,,*47
$GPVTG,216.9,T,220.2,M,0.0,N,0.0,K*40
$GPRTE,1,1,c,*37
$GPRMC,064714,A,4738.6301,N,00326.7396,W,0.0,216.9,070618,3.3,W,A*1F
$GPGGA,064714,4738.6301,N,00326.7396,W,1,10,1.0,2.2,M,49.6,M,,*5B
$GPGSA,A,3,10,12,13,15,17,19,20,24,28,37,,,2.1,1.0,1.8*39
$GPGSV,3,3,10,28,11,043,00,37,34,195,00*7B
$GPGLL,4738.6301,N,00326.7396,W,064714,A,A*55
$GPBOD,,T,,M,,*47
$GPVTG,216.9,T,220.2,M,0.0,N,0.0,K*40
$GPRTE,1,1,c,*37
$GPRMC,064716,A,4738.6301,N,00326.7396,W,0.0,216.9,070618,3.3,W,A*1D
$GPGGA,064716,4738.6301,N,00326.7396,W,1,10,1.0,2.2,M,49.6,M,,*59
$GPGSA,A,3,10,12,13,15,17,19,20,24,28,37,,,2.1,1.0,1.8*39
$GPGSV,3,1,10,10,24,308,00,12,38,208,00,13,35,133,00,15,66,172,00*71
$GPGLL,4738.6301,N,00326.7396,W,064716,A,A*57
$GPBOD,,T,,M,,*47
$GPVTG,216.9,T,220.2,M,0.0,N,0.0,K*40
$GPRTE,1,1,c,*37
$GPRMC,064718,A,4738.6301,N,00326.7396,W,0.0,216.9,070618,3.3,W,A*13
$GPGGA,064718,4738.6301,N,00326.7396,W,1,10,1.0,2.2,M,49.6,M,,*57
$GPGSA,A,3,10,12,13,15,17,19,20,24,28,37,,,2.1,1.0,1.8*39
$GPGSV,3,2,10,17,30,078,00,19,27,106,00,20,30,266,00,24,69,294,00*7C
$GPGLL,4738.6301,N,00326.7396,W,064718,A,A*59
$GPBOD,,T,,M,,*47
$GPVTG,216.9,T,220.2,M,0.0,N,0.0,K*40
$GPRTE,1,1,c,*37
$GPRMC,064720,A,4738.6301,N,00326.7396,W,0.0,216.9,070618,3.3,W,A*18
$GPGGA,064720,4738.6301,N,00326.7396,W,1,10,1.0,2.2,M,49.6,M,,*5C
$GPGSA,A,3,10,12,13,15,17,19,20,24,28,37,,,2.1,1.0,1.8*39
$GPGSV,3,3,10,28,11,043,00,37,34,195,00*7B
$GPGLL,4738.6301,N,00326.7396,W,064720,A,A*52
$GPBOD,,T,,M,,*47
$GPVTG,216.9,T,220.2,M,0.0,N,0.0,K*40
$GPRTE,1,1,c,*37
$GPRMC,064722,A,4738.6301,N,00326.7396,W,0.0,216.9,070618,3.3,W,A*1A
$GPGGA,064722,4738.6301,N,00326.7396,W,1,10,1.0,2.2,M,49.6,M,,*5E
$GPGSA,A,3,10,12,13,15,17,19,20,24,28,37,,,2.1,1.0,1.8*39
$GPGSV,3,1,10,10,24,308,00,12,38,208,00,13,35,133,00,15,66,172,00*71
$GPGLL,4738.6301,N,00326.7396,W,064722,A,A*50
$GPBOD,,T,,M,,*47
$GPVTG,216.9,T,220.2,M,0.0,N,0.0,K*40
$GPRTE,1,1,c,*37
$GPRMC,064724,A,4738.6301,N,00326.7396,W,0.0,216.9,070618,3.3,W,A*1C
$GPGGA,064724,4738.6301,N,00326.7396,W,1,10,1.0,2.2,M,49.6,M,,*58
$GPGSA,A,3,10,12,13,15,17,19,20,24,28,37,,,2.1,1.0,1.8*39
$GPGSV,3,2,10,17,30,078,00,19,27,106,00,20,30,266,00,24,69,294,00*7C
$GPGLL,4738.6301,N,00326.7396,W,064724,A,A*56
$GPBOD,,T,,M,,*47
$GPVTG,216.9,T,220.2,M,0.0,N,0.0,K*40
$GPRTE,1,1,c,*37
$GPRMC,064726,A,4738.6301,N,00326.7396,W,0.0,216.9,070618,3.3,W,A*1E
$GPGGA,064726,4738.6301,N,00326.7396,W,1,10,1.0,2.2,M,49.6,M,,*5A
$GPGSA,A,3,10,12,13,15,17,19,20,24,28,37,,,2.1,1.0,1.8*39
$GPGSV,3,3,10,28,11,043,00,37,34,195,00*7B
$GPGLL,4738.6301,N,00326.7396,W,064726,A,A*54
$GPBOD,,T,,M,,*47
$GPVTG,216.9,T,220.2,M,0.0,N,0.0,K*40
$GPRTE,1,1,c,*37
$GPRMC,064728,A,4738.6301,N,00326.7396,W,0.0,216.9,070618,3.3,W,A*10
$GPGGA,064728,4738.6301,N,00326.7396,W,1,10,1.0,2.2,M,49.6,M,,*54
$GPGSA,A,3,10,12,13,15,17,19,20,24,28,37,,,2.1,1.0,1.8*39
$GPGSV,3,1,10,10,24,308,00,12,38,208,00,13,35,133,00,15,66,172,00*71
$GPGLL,4738.6301,N,00326.7396,W,064728,A,A*5A
$GPBOD,,T,,M,,*47
$GPVTG,216.9,T,220.2,M,0.0,N,0.0,K*40
$GPRTE,1,1,c,*37
$GPRMC,064730,A,4738.6301,N,00326.7396,W,0.0,216.9,070618,3.3,W,A*19
$GPGGA,064730,4738.6301,N,00326.7396,W,1,10,1.0,2.2,M,49.6,M,,*5D
$GPGSA,A,3,10,12,13,15,17,19,20,24,28,37,,,2.1,1.0,1.8*39
$GPGSV,3,2,10,17,30,078,00,19,27,106,00,20,30,266,00,24,69,294,00*7C
$GPGLL,4738.6301,N,00326.7396,W,064730,A,A*53
$GPBOD,,T,,M,,*47
$GPVTG,216.9,T,220.2,M,0.0,N,0.0,K*40
$GPRTE,1,1,c,*37
$GPRMC,064732,A,4738.6301,N,00326.7396,W,0.0,216.9,070618,3.3,W,A*1B
$GPGGA,064732,4738.6301,N,00326.7396,W,1,10,1.0,2.2,M,49.6,M,,*5F
$GPGSA,A,3,10,12,13,15,17,19,20,24,28,37,,,2.1,1.0,1.8*39
$GPGSV,3,3,10,28,11,043,00,37,34,195,00*7B
$GPGLL,4738.6301,N,00326.7396,W,064732,A,A*51
$GPBOD,,T,,M,,*47
$GPVTG,216.9,T,220.2,M,0.0,N,0.0,K*40
$GPRTE,1,1,c,*37
$GPRMC,064734,A,4738.6301,N,00326.7396,W,0.0,216.9,070618,3.3,W,A*1D
$GPGGA,064734,4738.6301,N,00326.7396,W,1,10,1.0,2.2,M,49.6,M,,*59
$GPGSA,A,3,10,12,13,15,17,19,20,24,28,37,,,2.1,1.0,1.8*39
$GPGSV,3,1,10,10,24,308,00,12,38,208,00,13,35,133,00,15,66,172,00*71
$GPGLL,4738.6301,N,00326.7396,W,064734,A,A*57
$GPBOD,,T,,M,,*47
$GPVTG,216.9,T,220.2,M,0.0,N,0.0,K*40
$GPRTE,1,1,c,*37
$GPRMC,064736,A,4738.6301,N,00326.7396,W,0.0,216.9,070618,3.3,W,A*1F
$GPGGA,064736,4738.6301,N,00326.7396,W,1,10,1.0,2.2,M,49.6,M,,*5B
$GPGSA,A,3,10,12,13,15,17,19,20,24,28,37,,,2.1,1.0,1.8*39
$GPGSV,3,2,10,17,30,078,00,19,27,106,00,20,30,266,00,24,69,294,00*7C
$GPGLL,4738.6301,N,00326.7396,W,064736,A,A*55
$GPBOD,,T,,M,,*47
$GPVTG,216.9,T,220.2,M,0.0,N,0.0,K*40
$GPRTE,1,1,c,*37
$GPRMC,064738,A,4738.6301,N,00326.7396,W,0.0,216.9,070618,3.3,W,A*11
$GPGGA,064738,4738.6301,N,00326.7396,W,1,10,1.0,2.2,M,49.6,M,,*55
$GPGSA,A,3,10,12,13,15,17,19,20,24,28,37,,,2.1,1.0,1.8*39
$GPGSV,3,3,10,28,11,043,00,37,34,195,00*7B
$GPGLL,4738.6301,N,00326.7396,W,064738,A,A*5B
$GPBOD,,T,,M,,*47
$GPVTG,216.9,T,220.2,M,0.0,N,0.0,K*40
$GPRTE,1,1,c,*37
$GPRMC,064740,A,4738.6301,N,00326.7396,W,0.0,216.9,070618,3.3,W,A*1E
$GPGGA,064740,4738.6301,N,00326.7396,W,1,10,1.0,2.2,M,49.6,M,,*5A
$GPGSA,A,3,10,12,13,15,17,19,20,24,28,37,,,2.1,1.0,1.8*39
$GPGSV,3,1,10,10,24,308,00,12,38,208,00,13,35,133,00,15,66,172,00*71
$GPGLL,4738.6301,N,00326.7396,W,064740,A,A*54
$GPBOD,,T,,M,,*47
$GPVTG,216.9,T,220.2,M,0.0,N,0.0,K*40
$GPRTE,1,1,c,*37
$GPRMC,064742,A,4738.6301,N,00326.7396,W,0.0,216.9,070618,3.3,W,A*1C
$GPGGA,064742,4738.6301,N,00326.7396,W,1,10,1.0,2.2,M,49.6,M,,*58
$GPGSA,A,3,10,12,13,15,17,19,20,24,28,37,,,2.1,1.0,1.8*39
$GPGSV,3,2,10,17,30,078,00,19,27,106,00,20,30,266,00,24,69,294,00*7C
$GPGLL,4738.6301,N,00326.7396,W,064742,A,A*56
$GPBOD,,T,,M,,*47
$GPVTG,216.9,T,220.2,M,0.0,N,0.0,K*40
$GPRTE,1,1,c,*37
$GPRMC,064744,A,4738.6301,N,00326.7396,W,0.0,216.9,070618,3.3,W,A*1A
$GPGGA,064744,4738.6301,N,00326.7396,W,1,10,1.0,2.2,M,49.6,M,,*5E
$GPGSA,A,3,10,12,13,15,17,19,20,24,28,37,,,2.1,1.0,1.8*39
$GPGSV,3,3,10,28,11,043,00,37,34,195,00*7B
$GPGLL,4738.6301,N,00326.7396,W,064744,A,A*50
$GPBOD,,T,,M,,*47
$GPVTG,216.9,T,220.2,M,0.0,N,0.0,K*40
$GPRTE,1,1,c,*37
$GPRMC,064746,A,4738.6301,N,00326.7396,W,0.0,216.9,070618,3.3,W,A*18
$GPGGA,064746,4738.6301,N,00326.7396,W,1,10,1.0,2.2,M,49.6,M,,*5C
$GPGSA,A,3,10,12,13,15,17,19,20,24,28,37,,,2.1,1.0,1.8*39
$GPGSV,3,1,10,10,24,308,00,12,38,208,00,13,35,134,00,15,66,172,00*76
$GPGLL,4738.6301,N,00326.7396,W,064746,A,A*52
$GPBOD,,T,,M,,*47
$GPVTG,216.9,T,220.2,M,0.0,N,0.0,K*40
$GPRTE,1,1,c,*37
$GPRMC,064748,A,4738.6301,N,00326.7396,W,0.0,216.9,070618,3.3,W,A*16
$GPGGA,064748,4738.6301,N,00326.7396,W,1,10,1.1,2.2,M,49.6,M,,*53
$GPGSA,A,3,10,12,13,15,17,19,20,24,28,37,,,2.3,1.1,2.0*31
$GPGSV,3,2,10,17,30,078,00,19,27,106,00,20,30,266,00,24,69,294,00*7C
$GPGLL,4738.6301,N,00326.7396,W,064748,A,A*5C
$GPBOD,,T,,M,,*47
$GPVTG,216.9,T,220.2,M,0.0,N,0.0,K*40
$GPRTE,1,1,c,*37
$GPRMC,064750,A,4738.6301,N,00326.7396,W,0.0,216.9,070618,3.3,W,A*1F
$GPGGA,064750,4738.6301,N,00326.7396,W,1,10,1.1,2.2,M,49.6,M,,*5A
$GPGSA,A,3,10,12,13,15,17,19,20,24,28,37,,,2.3,1.1,2.0*31
$GPGSV,3,3,10,28,11,043,00,37,34,195,00*7B
$GPGLL,4738.6301,N,00326.7396,W,064750,A,A*55
$GPBOD,,T,,M,,*47
$GPVTG,216.9,T,220.2,M,0.0,N,0.0,K*40
$GPRTE,1,1,c,*37
$GPRMC,064752,A,4738.6300,N,00326.7396,W,0.0,216.9,070618,3.3,W,A*1C
$GPGGA,064752,4738.6300,N,00326.7396,W,1,10,1.0,2.1,M,49.6,M,,*5B
$GPGSA,A,3,10,12,13,15,17,19,20,24,28,37,,,2.1,1.0,1.8*39
$GPGSV,3,1,10,10,24,308,00,12,38,208,00,13,35,134,00,15,65,171,00*76
$GPGLL,4738.6300,N,00326.7396,W,064752,A,A*56
$GPBOD,,T,,M,,*47
$GPVTG,216.9,T,220.2,M,0.0,N,0.0,K*40
$GPRTE,1,1,c,*37
$GPRMC,064754,A,4738.6300,N,00326.7396,W,0.0,216.9,070618,3.3,W,A*1A
$GPGGA,064754,4738.6300,N,00326.7396,W,1,10,1.0,2.1,M,49.6,M,,*5D
$GPGSA,A,3,10,12,13,15,17,19,20,24,28,37,,,2.1,1.0,1.8*39
$GPGSV,3,2,10,17,30,077,00,19,27,106,00,20,30,266,00,24,69,294,00*73
$GPGLL,4738.6300,N,00326.7396,W,064754,A,A*50
$GPBOD,,T,,M,,*47
$GPVTG,216.9,T,220.2,M,0.0,N,0.0,K*40
$GPRTE,1,1,c,*37
$GPRMC,064756,A,4738.6300,N,00326.7396,W,0.0,216.9,070618,3.3,W,A*18
$GPGGA,064756,4738.6300,N,00326.7396,W,1,10,1.0,2.1,M,49.6,M,,*5F
$GPGSA,A,3,10,12,13,15,17,19,20,24,28,37,,,2.1,1.0,1.8*39
$GPGSV,3,3,10,28,11,043,00,37,34,195,00*7B
$GPGLL,4738.6300,N,00326.7396,W,064756,A,A*52
$GPBOD,,T,,M,,*47
$GPVTG,216.9,T,220.2,M,0.0,N,0.0,K*40
$GPRTE,1,1,c,*37
$GPRMC,064758,A,4738.6300,N,00326.7396,W,0.0,216.9,070618,3.3,W,A*16
$GPGGA,064758,4738.6300,N,00326.7396,W,1,10,1.0,2.1,M,49.6,M,,*51
$GPGSA,A,3,10,12,13,15,17,19,20,24,28,37,,,2.1,1.0,1.8*39
$GPGSV,3,1,10,10,24,308,00,12,38,208,00,13,35,134,00,15,65,171,00*76
$GPGLL,4738.6300,N,00326.7396,W,064758,A,A*5C
$GPBOD,,T,,M,,*47
$GPVTG,216.9,T,220.2,M,0.0,N,0.0,K*40
$GPRTE,1,1,c,*37
$GPRMC,064800,A,4738.6300,N,00326.7396,W,0.0,216.9,070618,3.3,W,A*14
$GPGGA,064800,4738.6300,N,00326.7396,W,1,10,1.0,2.1,M,49.6,M,,*53
$GPGSA,A,3,10,12,13,15,17,19,20,24,28,37,,,2.1,1.0,1.8*39
$GPGSV,3,2,10,17,30,077,00,19,28,105,00,20,30,266,00,24,69,294,00*7F
$GPGLL,4738.6300,N,00326.7396,W,064800,A,A*5E
$GPBOD,,T,,M,,*47
$GPVTG,216.9,T,220.2,M,0.0,N,0.0,K*40
$GPRTE,1,1,c,*37
$GPRMC,064802,A,4738.6300,N,00326.7396,W,0.0,216.9,070618,3.3,W,A*16
$GPGGA,064802,4738.6300,N,00326.7396,W,1,10,1.0,2.1,M,49.6,M,,*51
$GPGSA,A,3,10,12,13,15,17,19,20,24,28,37,,,2.1,1.0,1.8*39
$GPGSV,3,3,10,28,11,043,00,37,34,195,00*7B
$GPGLL,4738.6300,N,00326.7396,W,064802,A,A*5C
$GPBOD,,T,,M,,*47
$GPVTG,216.9,T,220.2,M,0.0,N,0.0,K*40
$GPRTE,1,1,c,*37
$GPRMC,064804,A,4738.6300,N,00326.7396,W,0.0,216.9,070618,3.3,W,A*10
$GPGGA,064804,4738.6300,N,00326.7396,W,1,10,1.0,2.1,M,49.6,M,,*57
$GPGSA,A,3,10,12,13,15,17,19,20,24,28,37,,,2.1,1.0,1.8*39
$GPGSV,3,1,10,10,24,308,00,12,38,208,00,13,35,134,00,15,65,171,00*76
$GPGLL,4738.6300,N,00326.7396,W,064804,A,A*5A
$GPBOD,,T,,M,,*47
$GPVTG,216.9,T,220.2,M,0.0,N,0.0,K*40
$GPRTE,1,1,c,*37
$GPRMC,064806,A,4738.6300,N,00326.7396,W,0.0,216.9,070618,3.3,W,A*12
$GPGGA,064806,4738.6300,N,00326.7396,W,1,10,1.0,2.1,M,49.6,M,,*55
$GPGSA,A,3,10,12,13,15,17,19,20,24,28,37,,,2.1,1.0,1.8*39
$GPGSV,3,2,10,17,30,077,00,19,28,105,00,20,30,266,00,24,69,294,00*7F
$GPGLL,4738.6300,N,00326.7396,W,064806,A,A*58
$GPBOD,,T,,M,,*47
$GPVTG,216.9,T,220.2,M,0.0,N,0.0,K*40
$GPRTE,1,1,c,*37
$GPRMC,064808,A,4738.6300,N,00326.7396,W,0.0,216.9,070618,3.3,W,A*1C
$GPGGA,064808,4738.6300,N,00326.7396,W,1,10,1.0,2.1,M,49.6,M,,*5B
$GPGSA,A,3,10,12,13,15,17,19,20,24,28,37,,,2.1,1.0,1.8*39
$GPGSV,3,3,10,28,11,043,00,37,34,195,00*7B
$GPGLL,4738.6300,N,00326.7396,W,064808,A,A*56
$GPBOD,,T,,M,,*47
$GPVTG,216.9,T,220.2,M,0.0,N,0.0,K*40
$GPRTE,1,1,c,*37
$GPRMC,064810,A,4738.6300,N,00326.7396,W,0.0,216.9,070618,3.3,W,A*15
$GPGGA,064810,4738.6300,N,00326.7396,W,1,10,1.0,2.1,M,49.6,M,,*52
$GPGSA,A,3,10,12,13,15,17,19,20,24,28,37,,,2.1,1.0,1.8*39
$GPGSV,3,1,10,10,24,308,00,12,38,208,00,13,35,134,00,15,65,171,00*76
$GPGLL,4738.6300,N,00326.7396,W,064810,A,A*5F
$GPBOD,,T,,M,,*47
$GPVTG,216.9,T,220.2,M,0.0,N,0.0,K*40
$GPRTE,1,1,c,*37
$GPRMC,064812,A,4738.6300,N,00326.7396,W,0.0,216.9,070618,3.3,W,A*17
$GPGGA,064812,4738.6300,N,00326.7396,W,1,10,1.0,2.1,M,49.6,M,,*50
$GPGSA,A,3,10,12,13,15,17,19,20,24,28,37,,,2.1,1.0,1.8*39
$GPGSV,3,2,10,17,30,077,00,19,28,105,00,20,30,266,00,24,69,295,00*7E
$GPGLL,4738.6300,N,00326.7396,W,064812,A,A*5D
$GPBOD,,T,,M,,*47
$GPVTG,216.9,T,220.2,M,0.0,N,0.0,K*40
$GPRTE,1,1,c,*37
$GPRMC,064814,A,4738.6300,N,00326.7396,W,0.0,216.9,070618,3.3,W,A*11
$GPGGA,064814,4738.6300,N,00326.7396,W,1,10,1.0,2.1,M,49.6,M,,*56
$GPGSA,A,3,10,12,13,15,17,19,20,24,28,37,,,2.1,1.0,1.8*39
$GPGSV,3,3,10,28,11,043,00,37,34,195,00*7B
$GPGLL,4738.6300,N,00326.7396,W,064814,A,A*5B
$GPBOD,,T,,M,,*47
$GPVTG,216.9,T,220.2,M,0.0,N,0.0,K*40
$GPRTE,1,1,c,*37
$GPRMC,064816,A,4738.6300,N,00326.7396,W,0.0,216.9,070618,3.3,W,A*13
$GPGGA,064816,4738.6300,N,00326.7396,W,1,10,1.0,2.1,M,49.6,M,,*54
$GPGSA,A,3,10,12,13,15,17,19,20,24,28,37,,,2.1,1.0,1.8*39
$GPGSV,3,1,10,10,24,308,00,12,38,208,00,13,35,134,00,15,65,171,00*76
$GPGLL,4738.6300,N,00326.7396,W,064816,A,A*59
$GPBOD,,T,,M,,*47
$GPVTG,216.9,T,220.2,M,0.0,N,0.0,K*40
$GPRTE,1,1,c,*37
$GPRMC,064818,A,4738.6300,N,00326.7396,W,0.0,216.9,070618,3.3,W,A*1D
$GPGGA,064818,4738.6300,N,00326.7396,W,1,10,1.0,2.1,M,49.6,M,,*5A
$GPGSA,A,3,10,12,13,15,17,19,20,24,28,37,,,2.1,1.0,1.8*39
$GPGSV,3,2,10,17,30,077,00,19,28,105,00,20,30,266,00,24,69,295,00*7E
$GPGLL,4738.6300,N,00326.7396,W,064818,A,A*57
$GPBOD,,T,,M,,*47
$GPVTG,216.9,T,220.2,M,0.0,N,0.0,K*40
$GPRTE,1,1,c,*37
$GPRMC,064820,A,4738.6300,N,00326.7396,W,0.0,216.9,070618,3.3,W,A*16
$GPGGA,064820,4738.6300,N,00326.7396,W,1,10,1.0,2.1,M,49.6,M,,*51
$GPGSA,A,3,10,12,13,15,17,19,20,24,28,37,,,2.1,1.0,1.8*39
$GPGSV,3,3,10,28,10,043,00,37,34,195,00*7A
$GPGLL,4738.6300,N,00326.7396,W,064820,A,A*5C
$GPBOD,,T,,M,,*47
$GPVTG,216.9,T,220.2,M,0.0,N,0.0,K*40
$GPRTE,1,1,c,*37
$GPRMC,064822,A,4738.6300,N,00326.7396,W,0.0,216.9,070618,3.3,W,A*14
$GPGGA,064822,4738.6300,N,00326.7396,W,1,10,1.0,2.1,M,49.6,M,,*53
$GPGSA,A,3,10,12,13,15,17,19,20,24,28,37,,,2.1,1.0,1.8*39
$GPGSV,3,1,10,10,24,308,00,12,38,208,00,13,35,134,00,15,65,171,00*76
$GPGLL,4738.6300,N,00326.7396,W,064822,A,A*5E
$GPBOD,,T,,M,,*47
$GPVTG,216.9,T,220.2,M,0.0,N,0.0,K*40
$GPRTE,1,1,c,*37
$GPRMC,064824,A,4738.6300,N,00326.7396,W,0.0,216.9,070618,3.3,W,A*12
$GPGGA,064824,4738.6300,N,00326.7396,W,1,10,1.0,2.1,M,49.6,M,,*55
$GPGSA,A,3,10,12,13,15,17,19,20,24,28,37,,,2.1,1.0,1.8*39
$GPGSV,3,2,10,17,30,077,00,19,28,105,00,20,30,266,00,24,69,295,00*7E
$GPGLL,4738.6300,N,00326.7396,W,064824,A,A*58
$GPBOD,,T,,M,,*47
$GPVTG,216.9,T,220.2,M,0.0,N,0.0,K*40
$GPRTE,1,1,c,*37
$GPRMC,064826,A,4738.6300,N,00326.7396,W,0.0,216.9,070618,3.3,W,A*10
$GPGGA,064826,4738.6300,N,00326.7396,W,1,10,1.0,2.1,M,49.6,M,,*57
$GPGSA,A,3,10,12,13,15,17,19,20,24,28,37,,,2.1,1.0,1.8*39
$GPGSV,3,3,10,28,10,043,00,37,34,195,00*7A
$GPGLL,4738.6300,N,00326.7396,W,064826,A,A*5A
$GPBOD,,T,,M,,*47
$GPVTG,216.9,T,220.2,M,0.0,N,0.0,K*40
$GPRTE,1,1,c,*37
$GPRMC,064828,A,4738.6300,N,00326.7396,W,0.0,216.9,070618,3.3,W,A*1E
$GPGGA,064828,4738.6300,N,00326.7396,W,1,10,1.0,2.1,M,49.6,M,,*59
$GPGSA,A,3,10,12,13,15,17,19,20,24,28,37,,,2.1,1.0,1.8*39
$GPGSV,3,1,10,10,24,308,00,12,38,208,00,13,35,134,00,15,65,171,00*76
$GPGLL,4738.6300,N,00326.7396,W,064828,A,A*54
$GPBOD,,T,,M,,*47
$GPVTG,216.9,T,220.2,M,0.0,N,0.0,K*40
$GPRTE,1,1,c,*37
$GPRMC,064830,A,4738.6300,N,00326.7396,W,0.0,216.9,070618,3.3,W,A*17
$GPGGA,064830,4738.6300,N,00326.7396,W,1,10,1.0,2.1,M,49.6,M,,*50
$GPGSA,A,3,10,12,13,15,17,19,20,24,28,37,,,2.1,1.0,1.8*39
$GPGSV,3,2,10,17,30,077,00,19,28,105,00,20,30,266,00,24,69,295,00*7E
$GPGLL,4738.6300,N,00326.7396,W,064830,A,A*5D
$GPBOD,,T,,M,,*47
$GPVTG,216.9,T,220.2,M,0.0,N,0.0,K*40
$GPRTE,1,1,c,*37
$GPRMC,064832,A,4738.6300,N,00326.7396,W,0.0,216.9,070618,3.3,W,A*15
$GPGGA,064832,4738.6300,N,00326.7396,W,1,10,1.0,2.1,M,49.6,M,,*52
$GPGSA,A,3,10,12,13,15,17,19,20,24,28,37,,,2.1,1.0,1.8*39
$GPGSV,3,3,10,28,10,043,00,37,34,195,00*7A
$GPGLL,4738.6300,N,00326.7396,W,064832,A,A*5F
$GPBOD,,T,,M,,*47
$GPVTG,216.9,T,220.2,M,0.0,N,0.0,K*40
$GPRTE,1,1,c,*37
$GPRMC,064834,A,4738.6300,N,00326.7396,W,0.0,216.9,070618,3.3,W,A*13
$GPGGA,064834,4738.6300,N,00326.7396,W,1,10,1.0,2.1,M,49.6,M,,*54
$GPGSA,A,3,10,12,13,15,17,19,20,24,28,37,,,2.1,1.0,1.8*39
$GPGSV,3,1,10,10,24,308,00,12,38,208,00,13,35,134,00,15,65,171,00*76
$GPGLL,4738.6300,N,00326.7396,W,064834,A,A*59
$GPBOD,,T,,M,,*47
$GPVTG,216.9,T,220.2,M,0.0,N,0.0,K*40
$GPRTE,1,1,c,*37
$GPRMC,064836,A,4738.6300,N,00326.7396,W,0.0,216.9,070618,3.3,W,A*11
$GPGGA,064836,4738.6300,N,00326.7396,W,1,10,1.0,2.1,M,49.6,M,,*56
$GPGSA,A,3,10,12,13,15,17,19,20,24,28,37,,,2.1,1.0,1.8*39
$GPGSV,3,2,10,17,30,077,00,19,28,105,00,20,30,266,00,24,69,295,00*7E
$GPGLL,4738.6300,N,00326.7396,W,064836,A,A*5B
$GPBOD,,T,,M,,*47
$GPVTG,216.9,T,220.2,M,0.0,N,0.0,K*40
$GPRTE,1,1,c,*37
$GPRMC,064838,A,4738.6300,N,00326.7396,W,0.0,216.9,070618,3.3,W,A*1F
$GPGGA,064838,4738.6300,N,00326.7396,W,1,10,1.0,2.1,M,49.6,M,,*58
$GPGSA,A,3,10,12,13,15,17,19,20,24,28,37,,,2.1,1.0,1.8*39
$GPGSV,3,3,10,28,10,043,00,37,34,195,00*7A
$GPGLL,4738.6300,N,00326.7396,W,064838,A,A*55
$GPBOD,,T,,M,,*47
$GPVTG,216.9,T,220.2,M,0.0,N,0.0,K*40
$GPRTE,1,1,c,*37
$GPRMC,064840,A,4738.6300,N,00326.7396,W,0.0,216.9,070618,3.3,W,A*10
$GPGGA,064840,4738.6300,N,00326.7396,W,1,10,1.0,2.1,M,49.6,M,,*57
$GPGSA,A,3,10,12,13,15,17,19,20,24,28,37,,,2.1,1.0,1.8*39
$GPGSV,3,1,10,10,24,308,00,12,38,208,00,13,35,134,00,15,65,171,00*76
$GPGLL,4738.6300,N,00326.7396,W,064840,A,A*5A
$GPBOD,,T,,M,,*47
$GPVTG,216.9,T,220.2,M,0.0,N,0.0,K*40
$GPRTE,1,1,c,*37
$GPRMC,064842,A,4738.6300,N,00326.7396,W,0.0,216.9,070618,3.3,W,A*12
$GPGGA,064842,4738.6300,N,00326.7396,W,1,10,1.0,2.1,M,49.6,M,,*55
$GPGSA,A,3,10,12,13,15,17,19,20,24,28,37,,,2.1,1.0,1.8*39
$GPGSV,3,2,10,17,30,077,00,19,28,105,00,20,30,266,00,24,69,295,00*7E
$GPGLL,4738.6300,N,00326.7396,W,064842,A,A*58
$GPBOD,,T,,M,,*47
$GPVTG,216.9,T,220.2,M,0.0,N,0.0,K*40
$GPRTE,1,1,c,*37
$GPRMC,064844,A,4738.6300,N,00326.7396,W,0.0,216.9,070618,3.3,W,A*14
$GPGGA,064844,4738.6300,N,00326.7396,W,1,10,1.0,2.1,M,49.6,M,,*53
$GPGSA,A,3,10,12,13,15,17,19,20,24,28,37,,,2.1,1.0,1.8*39
$GPGSV,3,3,10,28,10,043,00,37,34,195,00*7A
$GPGLL,4738.6300,N,00326.7396,W,064844,A,A*5E
$GPBOD,,T,,M,,*47
$GPVTG,216.9,T,220.2,M,0.0,N,0.0,K*40
$GPRTE,1,1,c,*37
$GPRMC,064846,A,4738.6300,N,00326.7396,W,0.0,216.9,070618,3.3,W,A*16
$GPGGA,064846,4738.6300,N,00326.7396,W,1,10,1.0,2.1,M,49.6,M,,*51
$GPGSA,A,3,10,12,13,15,17,19,20,24,28,37,,,2.1,1.0,1.8*39
$GPGSV,3,1,10,10,25,307,00,12,38,208,00,13,35,134,00,15,65,171,00*78
$GPGLL,4738.6300,N,00326.7396,W,064846,A,A*5C
$GPBOD,,T,,M,,*47
$GPVTG,216.9,T,220.2,M,0.0,N,0.0,K*40
$GPRTE,1,1,c,*37
$GPRMC,064848,A,4738.6300,N,00326.7396,W,0.0,216.9,070618,3.3,W,A*18
$GPGGA,064848,4738.6300,N,00326.7396,W,1,10,1.0,2.1,M,49.6,M,,*5F
$GPGSA,A,3,10,12,13,15,17,19,20,24,28,37,,,2.1,1.0,1.8*39
$GPGSV,3,2,10,17,30,077,00,19,28,105,00,20,30,266,00,24,69,295,00*7E
$GPGLL,4738.6300,N,00326.7396,W,064848,A,A*52
$GPBOD,,T,,M,,*47
$GPVTG,216.9,T,220.2,M,0.0,N,0.0,K*40
$GPRTE,1,1,c,*37
$GPRMC,064850,A,4738.6300,N,00326.7396,W,0.0,216.9,070618,3.3,W,A*11
$GPGGA,064850,4738.6300,N,00326.7396,W,1,10,1.0,2.1,M,49.6,M,,*56
$GPGSA,A,3,10,12,13,15,17,19,20,24,28,37,,,2.1,1.0,1.8*39
$GPGSV,3,3,10,28,10,043,00,37,34,195,00*7A
$GPGLL,4738.6300,N,00326.7396,W,064850,A,A*5B
$GPBOD,,T,,M,,*47
$GPVTG,216.9,T,220.2,M,0.0,N,0.0,K*40
$GPRTE,1,1,c,*37
$GPRMC,064852,A,4738.6300,N,00326.7396,W,0.0,216.9,070618,3.3,W,A*13
$GPGGA,064852,4738.6300,N,00326.7396,W,1,10,1.0,2.1,M,49.6,M,,*54
$GPGSA,A,3,10,12,13,15,17,19,20,24,28,37,,,2.1,1.0,1.8*39
$GPGSV,3,1,10,10,25,307,00,12,39,208,00,13,34,134,00,15,65,171,00*78
$GPGLL,4738.6300,N,00326.7396,W,064852,A,A*59
$GPBOD,,T,,M,,*47
$GPVTG,216.9,T,220.2,M,0.0,N,0.0,K*40
$GPRTE,1,1,c,*37
$GPRMC,064854,A,4738.6300,N,00326.7396,W,0.0,216.9,070618,3.3,W,A*15
$GPGGA,064854,4738.6300,N,00326.7396,W,1,10,1.0,2.1,M,49.6,M,,*52
$GPGSA,A,3,10,12,13,15,17,19,20,24,28,37,,,2.1,1.0,1.8*39
$GPGSV,3,2,10,17,30,077,00,19,28,105,00,20,30,266,00,24,69,295,00*7E
$GPGLL,4738.6300,N,00326.7396,W,064854,A,A*5F
$GPBOD,,T,,M,,*47
$GPVTG,216.9,T,220.2,M,0.0,N,0.0,K*40
$GPRTE,1,1,c,*37
$GPRMC,064856,A,4738.6300,N,00326.7396,W,0.0,216.9,070618,3.3,W,A*17
$GPGGA,064856,4738.6300,N,00326.7396,W,1,10,1.0,2.1,M,49.6,M,,*50
$GPGSA,A,3,10,12,13,15,17,19,20,24,28,37,,,2.1,1.0,1.8*39
$GPGSV,3,3,10,28,10,043,00,37,34,195,00*7A
$GPGLL,4738.6300,N,00326.7396,W,064856,A,A*5D
$GPBOD,,T,,M,,*47
$GPVTG,216.9,T,220.2,M,0.0,N,0.0,K*40
$GPRTE,1,1,c,*37
$GPRMC,064858,A,4738.6300,N,00326.7396,W,0.0,216.9,070618,3.3,W,A*19
$GPGGA,064858,4738.6300,N,00326.7396,W,1,10,1.0,2.1,M,49.6,M,,*5E
$GPGSA,A,3,10,12,13,15,17,19,20,24,28,37,,,2.1,1.0,1.8*39
$GPGSV,3,1,10,10,25,307,00,12,39,208,00,13,34,134,00,15,65,171,00*78
$GPGLL,4738.6300,N,00326.7396,W,064858,A,A*53
$GPBOD,,T,,M,,*47
$GPVTG,216.9,T,220.2,M,0.0,N,0.0,K*40
$GPRTE,1,1,c,*37
$GPRMC,064900,A,4738.6300,N,00326.7396,W,0.0,216.9,070618,3.3,W,A*15
$GPGGA,064900,4738.6300,N,00326.7396,W,1,10,1.0,2.1,M,49.6,M,,*52
$GPGSA,A,3,10,12,13,15,17,19,20,24,28,37,,,2.1,1.0,1.8*39
$GPGSV,3,2,10,17,30,076,00,19,28,105,00,20,30,266,00,24,69,295,00*7F
$GPGLL,4738.6300,N,00326.7396,W,064900,A,A*5F
$GPBOD,,T,,M,,*47
$GPVTG,216.9,T,220.2,M,0.0,N,0.0,K*40
$GPRTE,1,1,c,*37
$GPRMC,064902,A,4738.6300,N,00326.7396,W,0.0,216.9,070618,3.3,W,A*17
$GPGGA,064902,4738.6300,N,00326.7396,W,1,11,1.0,2.1,M,49.6,M,,*51
$GPGSA,A,3,10,12,13,15,17,19,20,24,25,28,37,,2.1,1.0,1.8*3E
$GPGSV,3,3,11,25,01,221,00,28,10,043,00,37,34,195,00*4C
$GPGLL,4738.6300,N,00326.7396,W,064902,A,A*5D
$GPBOD,,T,,M,,*47
$GPVTG,216.9,T,220.2,M,0.0,N,0.0,K*40
$GPRTE,1,1,c,*37
$GPRMC,064904,A,4738.6300,N,00326.7396,W,0.0,216.9,070618,3.3,W,A*11
$GPGGA,064904,4738.6300,N,00326.7396,W,1,11,1.0,2.1,M,49.6,M,,*57
$GPGSA,A,3,10,12,13,15,17,19,20,24,25,28,37,,2.1,1.0,1.8*3E
$GPGSV,3,1,11,10,25,307,00,12,39,208,00,13,34,134,00,15,65,171,00*79
$GPGLL,4738.6300,N,00326.7396,W,064904,A,A*5B
$GPBOD,,T,,M,,*47
$GPVTG,216.9,T,220.2,M,0.0,N,0.0,K*40
$GPRTE,1,1,c,*37
$GPRMC,064906,A,4738.6300,N,00326.7396,W,0.0,216.9,070618,3.3,W,A*13
$GPGGA,064906,4738.6300,N,00326.7396,W,1,11,1.0,2.1,M,49.6,M,,*55
$GPGSA,A,3,10,12,13,15,17,19,20,24,25,28,37,,2.1,1.0,1.8*3E
$GPGSV,3,2,11,17,30,076,00,19,28,105,00,20,29,265,00,24,69,295,00*75
$GPGLL,4738.6300,N,00326.7396,W,064906,A,A*59
$GPBOD,,T,,M,,*47
$GPVTG,216.9,T,220.2,M,0.0,N,0.0,K*40
$GPRTE,1,1,c,*37
$GPRMC,064908,A,4738.6300,N,00326.7396,W,0.0,216.9,070618,3.3,W,A*1D
$GPGGA,064908,4738.6300,N,00326.7396,W,1,11,1.0,2.1,M,49.6,M,,*5B
$GPGSA,A,3,10,12,13,15,17,19,20,24,25,28,37,,2.1,1.0,1.8*3E
$GPGSV,3,3,11,25,01,221,00,28,10,043,00,37,34,195,00*4C
$GPGLL,4738.6300,N,00326.7396,W,064908,A,A*57
$GPBOD,,T,,M,,*47
$GPVTG,216.9,T,220.2,M,0.0,N,0.0,K*40
$GPRTE,1,1,c,*37
$GPRMC,064910,A,4738.6300,N,00326.7396,W,0.0,216.9,070618,3.3,W,A*14
$GPGGA,064910,4738.6300,N,00326.7396,W,1,11,1.0,2.1,M,49.6,M,,*52
$GPGSA,A,3,10,12,13,15,17,19,20,24,25,28,37,,2.1,1.0,1.8*3E
$GPGSV,3,1,11,10,25,307,00,12,39,208,00,13,34,134,00,15,65,171,00*79
$GPGLL,4738.6300,N,00326.7396,W,064910,A,A*5E
$GPBOD,,T,,M,,*47
$GPVTG,216.9,T,220.2,M,0.0,N,0.0,K*40
$GPRTE,1,1,c,*37
$GPRMC,064912,A,4738.6302,N,00326.7396,W,0.0,216.9,070618,3.3,W,A*14
$GPGGA,064912,4738.6302,N,00326.7396,W,1,11,1.0,2.0,M,49.6,M,,*53
$GPGSA,A,3,10,12,13,15,17,19,20,24,25,28,37,,2.1,1.0,1.8*3E
$GPGSV,3,2,11,17,30,076,00,19,28,105,00,20,29,265,00,24,70,295,00*7D
$GPGLL,4738.6302,N,00326.7396,W,064912,A,A*5E
$GPBOD,,T,,M,,*47
$GPVTG,216.9,T,220.2,M,0.0,N,0.0,K*40
$GPRTE,1,1,c,*37
$GPRMC,064914,A,4738.6302,N,00326.7396,W,0.0,216.9,070618,3.3,W,A*12
$GPGGA,064914,4738.6302,N,00326.7396,W,1,11,1.0,2.0,M,49.6,M,,*55
$GPGSA,A,3,10,12,13,15,17,19,20,24,25,28,37,,2.1,1.0,1.8*3E
$GPGSV,3,3,11,25,01,221,00,28,10,043,00,37,34,195,00*4C
$GPGLL,4738.6302,N,00326.7396,W,064914,A,A*58
$GPBOD,,T,,M,,*47
$GPVTG,216.9,T,220.2,M,0.0,N,0.0,K*40
$GPRTE,1,1,c,*37
$GPRMC,064916,A,4738.6302,N,00326.7396,W,0.0,216.9,070618,3.3,W,A*10
$GPGGA,064916,4738.6302,N,00326.7396,W,1,11,1.0,2.0,M,49.6,M,,*57
$GPGSA,A,3,10,12,13,15,17,19,20,24,25,28,37,,2.1,1.0,1.8*3E
$GPGSV,3,1,11,10,25,307,00,12,39,208,00,13,34,134,00,15,65,171,00*79
$GPGLL,4738.6302,N,00326.7396,W,064916,A,A*5A
$GPBOD,,T,,M,,*47
$GPVTG,216.9,T,220.2,M,0.0,N,0.0,K*40
$GPRTE,1,1,c,*37
$GPRMC,064918,A,4738.6302,N,00326.7396,W,0.0,216.9,070618,3.3,W,A*1E
$GPGGA,064918,4738.6302,N,00326.7396,W,1,11,1.0,2.0,M,49.6,M,,*59
$GPGSA,A,3,10,12,13,15,17,19,20,24,25,28,37,,2.1,1.0,1.8*3E
$GPGSV,3,2,11,17,30,076,00,19,28,105,00,20,29,265,00,24,70,295,00*7D
$GPGLL,4738.6302,N,00326.7396,W,064918,A,A*54
$GPBOD,,T,,M,,*47
$GPVTG,216.9,T,220.2,M,0.0,N,0.0,K*40
$GPRTE,1,1,c,*37
$GPRMC,064920,A,4738.6302,N,00326.7396,W,0.0,216.9,070618,3.3,W,A*15
$GPGGA,064920,4738.6302,N,00326.7396,W,1,11,1.0,2.0,M,49.6,M,,*52
$GPGSA,A,3,10,12,13,15,17,19,20,24,25,28,37,,2.1,1.0,1.8*3E
$GPGSV,3,3,11,25,01,221,00,28,10,043,00,37,34,195,00*4C
$GPGLL,4738.6302,N,00326.7396,W,064920,A,A*5F
$GPBOD,,T,,M,,*47
$GPVTG,216.9,T,220.2,M,0.0,N,0.0,K*40
$GPRTE,1,1,c,*37
$GPRMC,064922,A,4738.6302,N,00326.7396,W,0.0,216.9,070618,3.3,W,A*17
$GPGGA,064922,4738.6302,N,00326.7396,W,1,11,1.0,2.0,M,49.6,M,,*50
$GPGSA,A,3,10,12,13,15,17,19,20,24,25,28,37,,2.1,1.0,1.8*3E
$GPGSV,3,1,11,10,25,307,00,12,39,208,00,13,34,134,00,15,65,171,00*79
$GPGLL,4738.6302,N,00326.7396,W,064922,A,A*5D
$GPBOD,,T,,M,,*47
$GPVTG,216.9,T,220.2,M,0.0,N,0.0,K*40
$GPRTE,1,1,c,*37
$GPRMC,064924,A,4738.6302,N,00326.7396,W,0.0,216.9,070618,3.3,W,A*11
$GPGGA,064924,4738.6302,N,00326.7396,W,1,11,1.0,2.0,M,49.6,M,,*56
$GPGSA,A,3,10,12,13,15,17,19,20,24,25,28,37,,2.1,1.0,1.8*3E
$GPGSV,3,2,11,17,30,076,00,19,28,105,00,20,29,265,00,24,70,295,00*7D
$GPGLL,4738.6302,N,00326.7396,W,064924,A,A*5B
$GPBOD,,T,,M,,*47
$GPVTG,216.9,T,220.2,M,0.0,N,0.0,K*40
$GPRTE,1,1,c,*37
$GPRMC,064926,A,4738.6302,N,00326.7396,W,0.0,216.9,070618,3.3,W,A*13
$GPGGA,064926,4738.6302,N,00326.7396,W,1,11,1.0,2.0,M,49.6,M,,*54
$GPGSA,A,3,10,12,13,15,17,19,20,24,25,28,37,,2.1,1.0,1.8*3E
$GPGSV,3,3,11,25,01,221,00,28,10,043,00,37,34,195,00*4C
$GPGLL,4738.6302,N,00326.7396,W,064926,A,A*59
$GPBOD,,T,,M,,*47
$GPVTG,216.9,T,220.2,M,0.0,N,0.0,K*40
$GPRTE,1,1,c,*37
$GPRMC,064928,A,4738.6302,N,00326.7396,W,0.0,216.9,070618,3.3,W,A*1D
$GPGGA,064928,4738.6302,N,00326.7396,W,1,11,1.0,2.0,M,49.6,M,,*5A
$GPGSA,A,3,10,12,13,15,17,19,20,24,25,28,37,,2.1,1.0,1.8*3E
$GPGSV,3,1,11,10,25,307,00,12,39,208,00,13,34,134,00,15,65,171,00*79
$GPGLL,4738.6302,N,00326.7396,W,064928,A,A*57
$GPBOD,,T,,M,,*47
$GPVTG,216.9,T,220.2,M,0.0,N,0.0,K*40
$GPRTE,1,1,c,*37
$GPRMC,064930,A,4738.6302,N,00326.7396,W,0.0,216.9,070618,3.3,W,A*14
$GPGGA,064930,4738.6302,N,00326.7396,W,1,11,1.0,2.0,M,49.6,M,,*53
$GPGSA,A,3,10,12,13,15,17,19,20,24,25,28,37,,2.1,1.0,1.8*3E
$GPGSV,3,2,11,17,30,076,00,19,28,105,00,20,29,265,00,24,70,295,00*7D
$GPGLL,4738.6302,N,00326.7396,W,064930,A,A*5E
$GPBOD,,T,,M,,*47
$GPVTG,216.9,T,220.2,M,0.0,N,0.0,K*40
$GPRTE,1,1,c,*37
$GPRMC,064932,A,4738.6302,N,00326.7396,W,0.0,216.9,070618,3.3,W,A*16
$GPGGA,064932,4738.6302,N,00326.7396,W,1,11,1.0,2.0,M,49.6,M,,*51
$GPGSA,A,3,10,12,13,15,17,19,20,24,25,28,37,,2.1,1.0,1.8*3E
$GPGSV,3,3,11,25,01,221,00,28,10,043,00,37,34,195,00*4C
$GPGLL,4738.6302,N,00326.7396,W,064932,A,A*5C
$GPBOD,,T,,M,,*47
$GPVTG,216.9,T,220.2,M,0.0,N,0.0,K*40
$GPRTE,1,1,c,*37
$GPRMC,064934,A,4738.6302,N,00326.7396,W,0.0,216.9,070618,3.3,W,A*10
$GPGGA,064934,4738.6302,N,00326.7396,W,1,11,1.0,2.0,M,49.6,M,,*57
$GPGSA,A,3,10,12,13,15,17,19,20,24,25,28,37,,2.1,1.0,1.8*3E
$GPGSV,3,1,11,10,25,307,00,12,39,208,00,13,34,134,00,15,65,171,00*79
$GPGLL,4738.6302,N,00326.7396,W,064934,A,A*5A
$GPBOD,,T,,M,,*47
$GPVTG,216.9,T,220.2,M,0.0,N,0.0,K*40
$GPRTE,1,1,c,*37
$GPRMC,064936,A,4738.6302,N,00326.7396,W,0.0,216.9,070618,3.3,W,A*12
$GPGGA,064936,4738.6302,N,00326.7396,W,1,11,1.0,2.0,M,49.6,M,,*55
$GPGSA,A,3,10,12,13,15,17,19,20,24,25,28,37,,2.1,1.0,1.8*3E
$GPGSV,3,2,11,17,30,076,00,19,28,105,00,20,29,265,00,24,70,295,00*7D
$GPGLL,4738.6302,N,00326.7396,W,064936,A,A*58
$GPBOD,,T,,M,,*47
$GPVTG,216.9,T,220.2,M,0.0,N,0.0,K*40
$GPRTE,1,1,c,*37
$GPRMC,064938,A,4738.6302,N,00326.7396,W,0.0,216.9,070618,3.3,W,A*1C
$GPGGA,064938,4738.6302,N,00326.7396,W,1,11,1.0,2.0,M,49.6,M,,*5B
$GPGSA,A,3,10,12,13,15,17,19,20,24,25,28,37,,2.1,1.0,1.8*3E
$GPGSV,3,3,11,25,01,221,00,28,10,043,00,37,34,195,00*4C
$GPGLL,4738.6302,N,00326.7396,W,064938,A,A*56
$GPBOD,,T,,M,,*47
$GPVTG,216.9,T,220.2,M,0.0,N,0.0,K*40
$GPRTE,1,1,c,*37
$GPRMC,064940,A,4738.6302,N,00326.7396,W,0.0,216.9,070618,3.3,W,A*13
$GPGGA,064940,4738.6302,N,00326.7396,W,1,11,1.0,2.0,M,49.6,M,,*54
$GPGSA,A,3,10,12,13,15,17,19,20,24,25,28,37,,2.1,1.0,1.8*3E
$GPGSV,3,1,11,10,25,307,00,12,39,208,00,13,34,134,00,15,65,171,00*79
$GPGLL,4738.6302,N,00326.7396,W,064940,A,A*59
$GPBOD,,T,,M,,*47
$GPVTG,216.9,T,220.2,M,0.0,N,0.0,K*40
$GPRTE,1,1,c,*37
$GPRMC,064942,A,4738.6302,N,00326.7396,W,0.0,216.9,070618,3.3,W,A*11
$GPGGA,064942,4738.6302,N,00326.7396,W,1,11,1.0,2.0,M,49.6,M,,*56
$GPGSA,A,3,10,12,13,15,17,19,20,24,25,28,37,,2.1,1.0,1.8*3E
$GPGSV,3,2,11,17,30,076,00,19,28,105,00,20,29,265,00,24,70,295,00*7D
$GPGLL,4738.6302,N,00326.7396,W,064942,A,A*5B
$GPBOD,,T,,M,,*47
$GPVTG,216.9,T,220.2,M,0.0,N,0.0,K*40
$GPRTE,1,1,c,*37
$GPRMC,064944,A,4738.6302,N,00326.7396,W,0.0,216.9,070618,3.3,W,A*17
$GPGGA,064944,4738.6302,N,00326.7396,W,1,11,1.0,2.0,M,49.6,M,,*50
$GPGSA,A,3,10,12,13,15,17,19,20,24,25,28,37,,2.1,1.0,1.8*3E
$GPGSV,3,3,11,25,01,221,00,28,10,043,00,37,34,195,00*4C
$GPGLL,4738.6302,N,00326.7396,W,064944,A,A*5D
$GPBOD,,T,,M,,*47
$GPVTG,216.9,T,220.2,M,0.0,N,0.0,K*40
$GPRTE,1,1,c,*37
$GPRMC,064946,A,4738.6302,N,00326.7396,W,0.0,216.9,070618,3.3,W,A*15
$GPGGA,064946,4738.6302,N,00326.7396,W,1,11,1.0,2.0,M,49.6,M,,*52
$GPGSA,A,3,10,12,13,15,17,19,20,24,25,28,37,,2.1,1.0,1.8*3E
$GPGSV,3,1,11,10,25,307,00,12,39,208,00,13,34,134,00,15,65,171,00*79
$GPGLL,4738.6302,N,00326.7396,W,064946,A,A*5F
$GPBOD,,T,,M,,*47
$GPVTG,216.9,T,220.2,M,0.0,N,0.0,K*40
$GPRTE,1,1,c,*37
$GPRMC,064948,A,4738.6302,N,00326.7396,W,0.0,216.9,070618,3.3,W,A*1B
$GPGGA,064948,4738.6302,N,00326.7396,W,1,11,1.0,2.0,M,49.6,M,,*5C
$GPGSA,A,3,10,12,13,15,17,19,20,24,25,28,37,,2.1,1.0,1.8*3E
$GPGSV,3,2,11,17,30,076,00,19,28,105,00,20,29,265,00,24,70,295,00*7D
$GPGLL,4738.6302,N,00326.7396,W,064948,A,A*51
$GPBOD,,T,,M,,*47
$GPVTG,216.9,T,220.2,M,0.0,N,0.0,K*40
$GPRTE,1,1,c,*37
$GPRMC,064950,A,4738.6302,N,00326.7396,W,0.0,216.9,070618,3.3,W,A*12
$GPGGA,064950,4738.6302,N,00326.7396,W,1,11,1.0,2.0,M,49.6,M,,*55
$GPGSA,A,3,10,12,13,15,17,19,20,24,25,28,37,,2.1,1.0,1.8*3E
$GPGSV,3,3,11,25,01,221,00,28,10,043,00,37,34,195,00*4C
$GPGLL,4738.6302,N,00326.7396,W,064950,A,A*58
$GPBOD,,T,,M,,*47
$GPVTG,216.9,T,220.2,M,0.0,N,0.0,K*40
$GPRTE,1,1,c,*37
$GPRMC,064952,A,4738.6302,N,00326.7397,W,0.0,216.9,070618,3.3,W,A*11
$GPGGA,064952,4738.6302,N,00326.7397,W,1,11,1.0,2.0,M,49.6,M,,*56
$GPGSA,A,3,10,12,13,15,17,19,20,24,25,28,37,,2.1,1.0,1.8*3E
$GPGSV,3,1,11,10,25,307,00,12,39,208,00,13,34,134,00,15,65,171,00*79
$GPGLL,4738.6302,N,00326.7397,W,064952,A,A*5B
$GPBOD,,T,,M,,*47
$GPVTG,216.9,T,220.2,M,0.0,N,0.0,K*40
$GPRTE,1,1,c,*37
$GPRMC,064954,A,4738.6302,N,00326.7397,W,0.0,216.9,070618,3.3,W,A*17
$GPGGA,064954,4738.6302,N,00326.7397,W,1,11,1.0,2.0,M,49.6,M,,*50
