$IIMWV,326,R,14.5,N,A*14
$IIVWR,034.,L,14.5,N,07.5,M,026.9,K*6F
$IIMWD,,,034.,M,10.4,N,05.3,M*0A
$IIMTA,23.6,C*02
$IIMTW,21.3,C*13
$IIVWT,052.,L,10.3,N,05.3,M,019.1,K*6B
$IIHDG,086.,,,,*77
$IIHDM,086.,M*1C
$IIGLL,4728.452,N,00239.726,W,082058,A,A*44
$IIZDA,082058,09,06,2018,,*5C
$IIVTG,082.,T,,M,05.0,N,09.3,K,A*2F
$IIDPT,0011.2,,*70
$IIDBT,0036.8,f,0011.2,M,,*76
$IIVLW,0295.0,N,097.17,N*4B
$ECRMB,A,0.213,L,003,004,4729.055,N,00234.841,W,3.368,79.649,5.000,V*3C
$ECRMC,082100,A,4728.452,N,00239.726,W,5.000,82.000,090618,0.812,W*5F
$ECAPB,A,A,0.213,L,N,V,V,83.304,T,004,79.649,T,79.649,T*0B
$ECXTE,A,A,0.213,L,N*4F
$IIVHW,,,086.,M,05.61,N,10.38,K*19
$IIMWV,326,R,14.5,N,A*14
$IIVWR,034.,L,14.5,N,07.5,M,026.9,K*6F
$IIMWD,,,034.,M,10.3,N,05.3,M*0D
$IIMTA,23.6,C*02
$IIMTW,21.3,C*13
$IIVWT,052.,L,10.3,N,05.3,M,019.1,K*6B
$IIHDG,086.,,,,*77
$IIHDM,086.,M*1C
$IIGLL,4728.452,N,00239.722,W,082100,A,A*4C
$IIZDA,082100,09,06,2018,,*50
$IIVTG,081.,T,,M,04.8,N,08.9,K,A*2E
$IIDPT,0011.2,,*70
$IIDBT,0036.8,f,0011.2,M,,*76
$ECRMB,A,0.213,L,003,004,4729.055,N,00234.841,W,3.365,79.641,4.800,V*30
$ECRMC,082101,A,4728.452,N,00239.722,W,4.800,81.000,090618,0.812,W*50
$ECAPB,A,A,0.213,L,N,V,V,83.304,T,004,79.641,T,79.641,T*0B
$ECXTE,A,A,0.213,L,N*4F
$IIVLW,0295.0,N,097.17,N*4B
$IIVHW,,,086.,M,05.59,N,10.35,K*1F
$IIMWV,326,R,14.4,N,A*15
$IIVWR,034.,L,14.4,N,07.4,M,026.7,K*61
$IIMWD,,,034.,M,10.3,N,05.3,M*0D
$IIMTA,23.6,C*02
$IIMTW,21.3,C*13
$IIVWT,052.,L,10.2,N,05.2,M,018.9,K*62
$IIHDG,086.,,,,*77
$IIHDM,086.,M*1C
$IIGLL,4728.452,N,00239.722,W,082102,A,A*4E
$IIZDA,082102,09,06,2018,,*52
$IIVTG,081.,T,,M,04.8,N,08.9,K,A*2E
$IIDPT,0011.2,,*70
$ECRMB,A,0.213,L,003,004,4729.055,N,00234.841,W,3.365,79.641,4.800,V*30
$ECRMC,082102,A,4728.452,N,00239.722,W,4.800,81.000,090618,0.812,W*53
$ECAPB,A,A,0.213,L,N,V,V,83.304,T,004,79.641,T,79.641,T*0B
$ECXTE,A,A,0.213,L,N*4F
$IIDBT,0036.8,f,0011.2,M,,*76
$IIVLW,0295.0,N,097.17,N*4B
$IIVHW,,,086.,M,05.57,N,10.32,K*16
$IIMWV,326,R,14.4,N,A*15
$IIVWR,034.,L,14.4,N,07.4,M,026.7,K*61
$IIMWD,,,034.,M,10.2,N,05.2,M*0D
$IIMTA,23.6,C*02
$IIMTW,21.3,C*13
$IIVWT,052.,L,10.2,N,05.2,M,018.9,K*62
$IIHDG,087.,,,,*76
$IIHDM,087.,M*1D
$IIGLL,4728.453,N,00239.718,W,082102,A,A*46
$IIZDA,082102,09,06,2018,,*52
$ECRMB,A,0.212,L,003,004,4729.055,N,00234.841,W,3.362,79.649,4.800,V*3E
$ECRMC,082103,A,4728.453,N,00239.718,W,4.800,81.000,090618,0.812,W*5A
$ECAPB,A,A,0.212,L,N,V,V,83.304,T,004,79.649,T,79.649,T*0A
$ECXTE,A,A,0.212,L,N*4E
$IIVTG,081.,T,,M,05.0,N,09.3,K,A*2C
$IIDPT,0011.2,,*70
$IIDBT,0036.8,f,0011.2,M,,*76
$IIVLW,0295.0,N,097.17,N*4B
$IIVHW,,,087.,M,05.56,N,10.29,K*1C
$IIMWV,326,R,14.3,N,A*12
$IIVWR,034.,L,14.3,N,07.4,M,026.5,K*64
$IIMWD,,,035.,M,10.1,N,05.2,M*0F
$IIMTA,23.6,C*02
$IIMTW,21.3,C*13
$IIVWT,052.,L,10.1,N,05.2,M,018.7,K*6F
$IIHDG,087.,,,,*76
$IIHDM,087.,M*1D
$IIGLL,4728.453,N,00239.714,W,082104,A,A*4C
$IIZDA,082104,09,06,2018,,*54
$ECRMB,A,0.213,L,003,004,4729.055,N,00234.841,W,3.360,79.641,5.000,V*3C
$ECRMC,082104,A,4728.453,N,00239.714,W,5.000,81.000,090618,0.812,W*58
$ECAPB,A,A,0.213,L,N,V,V,83.304,T,004,79.641,T,79.641,T*0B
$ECXTE,A,A,0.213,L,N*4F
$IIVTG,081.,T,,M,05.0,N,09.3,K,A*2C
$IIDPT,0011.1,,*73
$IIDBT,0036.4,f,0011.1,M,,*79
$IIVLW,0295.0,N,097.18,N*44
$IIVHW,,,087.,M,05.54,N,10.25,K*12
$IIMWV,326,R,14.3,N,A*12
$IIVWR,034.,L,14.3,N,07.4,M,026.5,K*64
$IIMWD,,,035.,M,10.1,N,05.2,M*0F
$IIMTA,23.6,C*02
$IIMTW,21.3,C*13
$IIVWT,052.,L,10.1,N,05.2,M,018.7,K*6F
$IIHDG,087.,,,,*76
$IIHDM,087.,M*1D
$IIGLL,4728.453,N,00239.714,W,082104,A,A*4C
$ECRMB,A,0.213,L,003,004,4729.055,N,00234.841,W,3.360,79.641,5.000,V*3C
$ECRMC,082105,A,4728.453,N,00239.714,W,5.000,81.000,090618,0.812,W*59
$ECAPB,A,A,0.213,L,N,V,V,83.304,T,004,79.641,T,79.641,T*0B
$ECXTE,A,A,0.213,L,N*4F
$IIZDA,082104,09,06,2018,,*54
$IIVTG,084.,T,,M,04.9,N,09.1,K,A*23
$IIDPT,0011.1,,*73
$IIDBT,0036.4,f,0011.1,M,,*79
$IIVLW,0295.0,N,097.18,N*44
$IIVHW,,,087.,M,05.54,N,10.26,K*11
$IIMWV,326,R,14.3,N,A*12
$IIVWR,034.,L,14.3,N,07.4,M,026.5,K*64
$IIMWD,,,035.,M,10.1,N,05.2,M*0F
$IIMTA,23.6,C*02
$IIMTW,21.3,C*13
$IIVWT,052.,L,10.1,N,05.2,M,018.7,K*6F
$IIHDG,087.,,,,*76
$IIHDM,087.,M*1D
$ECRMB,A,0.213,L,003,004,4729.055,N,00234.841,W,3.360,79.641,4.900,V*34
$ECRMC,082106,A,4728.453,N,00239.714,W,4.900,84.000,090618,0.812,W*57
$ECAPB,A,A,0.213,L,N,V,V,83.304,T,004,79.641,T,79.641,T*0B
$ECXTE,A,A,0.213,L,N*4F
$IIGLL,4728.453,N,00239.710,W,082106,A,A*4A
$IIZDA,082106,09,06,2018,,*56
$IIVTG,084.,T,,M,04.9,N,09.1,K,A*23
$IIDPT,0011.2,,*70
$IIDBT,0036.8,f,0011.2,M,,*76
$IIVLW,0295.0,N,097.18,N*44
$IIVHW,,,087.,M,05.52,N,10.23,K*12
$IIMWV,327,R,14.3,N,A*13
$IIVWR,033.,L,14.3,N,07.4,M,026.5,K*63
$IIMWD,,,037.,M,10.1,N,05.2,M*0D
$IIMTA,23.6,C*02
$IIMTW,21.3,C*13
$IIVWT,050.,L,10.1,N,05.2,M,018.7,K*6D
$IIHDG,088.,,,,*79
$ECRMB,A,0.213,L,003,004,4729.055,N,00234.841,W,3.357,79.633,4.900,V*35
$ECRMC,082107,A,4728.453,N,00239.710,W,4.900,84.000,090618,0.812,W*52
$ECAPB,A,A,0.213,L,N,V,V,83.304,T,004,79.633,T,79.633,T*0B
$ECXTE,A,A,0.213,L,N*4F
$IIHDM,088.,M*12
$IIGLL,4728.453,N,00239.710,W,082106,A,A*4A
$IIZDA,082106,09,06,2018,,*56
$IIVTG,082.,T,,M,04.9,N,09.1,K,A*25
$IIDPT,0011.2,,*70
$IIDBT,0036.8,f,0011.2,M,,*76
$IIVLW,0295.0,N,097.18,N*44
$IIVHW,,,088.,M,05.49,N,10.17,K*10
$IIMWV,327,R,14.3,N,A*13
$IIVWR,033.,L,14.3,N,07.4,M,026.5,K*63
$IIMWD,,,038.,M,10.1,N,05.2,M*02
$IIMTA,23.6,C*02
$IIMTW,21.3,C*13
$ECRMB,A,0.213,L,003,004,4729.055,N,00234.841,W,3.357,79.633,4.900,V*35
$ECRMC,082108,A,4728.453,N,00239.710,W,4.900,82.000,090618,0.812,W*5B
$ECAPB,A,A,0.213,L,N,V,V,83.304,T,004,79.633,T,79.633,T*0B
$ECXTE,A,A,0.213,L,N*4F
$IIVWT,050.,L,10.1,N,05.2,M,018.7,K*6D
$IIHDG,087.,,,,*76
$IIHDM,087.,M*1D
$IIGLL,4728.454,N,00239.706,W,082108,A,A*44
$IIZDA,082108,09,06,2018,,*58
$IIVTG,085.,T,,M,04.8,N,08.9,K,A*2A
$IIDPT,0011.2,,*70
$IIDBT,0036.8,f,0011.2,M,,*76
$IIVLW,0295.0,N,097.18,N*44
$IIVHW,,,088.,M,05.47,N,10.13,K*1A
$IIMWV,327,R,14.3,N,A*13
$IIVWR,033.,L,14.3,N,07.4,M,026.5,K*63
$IIMWD,,,037.,M,10.1,N,05.2,M*0D
$IIMTA,23.6,C*02
$ECRMB,A,0.212,L,003,004,4729.055,N,00234.841,W,3.354,79.641,4.800,V*33
$ECRMC,082109,A,4728.454,N,00239.706,W,4.800,85.000,090618,0.812,W*5C
$ECAPB,A,A,0.212,L,N,V,V,83.304,T,004,79.641,T,79.641,T*0A
$ECXTE,A,A,0.212,L,N*4E
$IIMTW,21.3,C*13
$IIVWT,050.,L,10.1,N,05.2,M,018.7,K*6D
$IIHDG,088.,,,,*79
$IIHDM,088.,M*12
$IIGLL,4728.454,N,00239.706,W,082108,A,A*44
$IIZDA,082108,09,06,2018,,*58
$IIVTG,085.,T,,M,04.8,N,08.9,K,A*2A
$IIDPT,0011.2,,*70
$IIDBT,0036.8,f,0011.2,M,,*76
$IIVLW,0295.0,N,097.18,N*44
$IIVHW,,,088.,M,05.47,N,10.13,K*1A
$IIMWV,326,R,14.3,N,A*12
$IIVWR,034.,L,14.3,N,07.4,M,026.5,K*64
$IIMWD,,,038.,M,10.1,N,05.2,M*02
$ECRMB,A,0.212,L,003,004,4729.055,N,00234.841,W,3.354,79.641,4.800,V*33
$ECRMC,082110,A,4728.454,N,00239.706,W,4.800,85.000,090618,0.812,W*54
$ECAPB,A,A,0.212,L,N,V,V,83.304,T,004,79.641,T,79.641,T*0A
$ECXTE,A,A,0.212,L,N*4E
$IIMTA,23.6,C*02
$IIMTW,21.3,C*13
$IIVWT,051.,L,10.2,N,05.2,M,018.9,K*61
$IIHDG,088.,,,,*79
$IIHDM,088.,M*12
$IIGLL,4728.454,N,00239.702,W,082110,A,A*49
$IIZDA,082110,09,06,2018,,*51
$IIVTG,082.,T,,M,04.9,N,09.1,K,A*25
$IIDPT,0011.2,,*70
$IIDBT,0036.8,f,0011.2,M,,*76
$IIVLW,0295.0,N,097.19,N*45
$IIVHW,,,088.,M,05.48,N,10.15,K*13
$IIMWV,326,R,14.3,N,A*12
$IIVWR,034.,L,14.3,N,07.4,M,026.5,K*64
$ECRMB,A,0.213,L,003,004,4729.055,N,00234.841,W,3.352,79.633,4.900,V*30
$ECRMC,082111,A,4728.454,N,00239.702,W,4.900,82.000,090618,0.812,W*57
$ECAPB,A,A,0.213,L,N,V,V,83.304,T,004,79.633,T,79.633,T*0B
$ECXTE,A,A,0.213,L,N*4F
$IIMWD,,,037.,M,10.2,N,05.2,M*0E
$IIMTA,23.6,C*02
$IIMTW,21.3,C*13
$IIVWT,051.,L,10.2,N,05.2,M,018.9,K*61
$IIHDG,088.,,,,*79
$IIHDM,088.,M*12
$IIGLL,4728.454,N,00239.702,W,082112,A,A*4B
$IIZDA,082112,09,06,2018,,*53
$IIVTG,082.,T,,M,04.9,N,09.1,K,A*25
$IIDPT,0011.2,,*70
$IIDBT,0036.8,f,0011.2,M,,*76
$IIVLW,0295.0,N,097.19,N*45
$IIVHW,,,088.,M,05.48,N,10.15,K*13
$IIMWV,326,R,14.4,N,A*15
$ECRMB,A,0.213,L,003,004,4729.055,N,00234.841,W,3.352,79.633,4.900,V*30
$ECRMC,082112,A,4728.454,N,00239.702,W,4.900,82.000,090618,0.812,W*54
$ECAPB,A,A,0.213,L,N,V,V,83.304,T,004,79.633,T,79.633,T*0B
$ECXTE,A,A,0.213,L,N*4F
$IIVWR,034.,L,14.4,N,07.4,M,026.7,K*61
$IIMWD,,,037.,M,10.3,N,05.3,M*0E
$IIMTA,23.6,C*02
$IIMTW,21.3,C*13
$IIVWT,051.,L,10.3,N,05.3,M,019.1,K*68
$IIHDG,088.,,,,*79
$IIHDM,088.,M*12
$IIGLL,4728.454,N,00239.698,W,082112,A,A*49
$IIZDA,082112,09,06,2018,,*53
$IIVTG,082.,T,,M,05.0,N,09.3,K,A*2F
$IIDPT,0011.2,,*70
$IIDBT,0036.8,f,0011.2,M,,*76
$IIVLW,0295.0,N,097.19,N*45
$IIVHW,,,088.,M,05.44,N,10.08,K*13
$ECRMB,A,0.213,L,003,004,4729.055,N,00234.841,W,3.349,79.624,5.000,V*34
$ECRMC,082113,A,4728.454,N,00239.698,W,5.000,82.000,090618,0.812,W*5F
$ECAPB,A,A,0.213,L,N,V,V,83.304,T,004,79.624,T,79.624,T*0B
$ECXTE,A,A,0.213,L,N*4F
$IIMWV,326,R,14.4,N,A*15
$IIVWR,034.,L,14.4,N,07.4,M,026.7,K*61
$IIMWD,,,037.,M,10.3,N,05.3,M*0E
$IIMTA,23.6,C*02
$IIMTW,21.3,C*13
$IIVWT,051.,L,10.3,N,05.3,M,019.1,K*68
$IIHDG,088.,,,,*79
$IIHDM,088.,M*12
$IIGLL,4728.454,N,00239.698,W,082114,A,A*4F
$IIZDA,082114,09,06,2018,,*55
$IIVTG,082.,T,,M,05.0,N,09.3,K,A*2F
$IIDPT,0011.2,,*70
$IIDBT,0036.8,f,0011.2,M,,*76
$IIVLW,0295.0,N,097.19,N*45
$ECRMB,A,0.213,L,003,004,4729.055,N,00234.841,W,3.349,79.624,5.000,V*34
$ECRMC,082114,A,4728.454,N,00239.698,W,5.000,82.000,090618,0.812,W*58
$ECAPB,A,A,0.213,L,N,V,V,83.304,T,004,79.624,T,79.624,T*0B
$ECXTE,A,A,0.213,L,N*4F
$IIVHW,,,088.,M,05.43,N,10.05,K*19
$IIMWV,326,R,14.4,N,A*15
$IIVWR,034.,L,14.4,N,07.4,M,026.7,K*61
$IIMWD,,,037.,M,10.3,N,05.3,M*0E
$IIMTA,23.6,C*02
$IIMTW,21.3,C*13
$IIVWT,051.,L,10.3,N,05.3,M,019.1,K*68
$IIHDG,089.,,,,*78
$IIHDM,089.,M*13
$IIGLL,4728.455,N,00239.694,W,082114,A,A*42
$IIZDA,082114,09,06,2018,,*55
$IIVTG,084.,T,,M,04.9,N,09.1,K,A*23
$IIDPT,0011.2,,*70
$IIDBT,0036.8,f,0011.2,M,,*76
$ECRMB,A,0.212,L,003,004,4729.055,N,00234.841,W,3.346,79.633,4.900,V*34
$ECRMC,082115,A,4728.455,N,00239.694,W,4.900,84.000,090618,0.812,W*5A
$ECAPB,A,A,0.212,L,N,V,V,83.304,T,004,79.633,T,79.633,T*0A
$ECXTE,A,A,0.212,L,N*4E
$IIVLW,0295.0,N,097.19,N*45
$IIVHW,,,089.,M,05.44,N,10.07,K*1D
$IIMWV,326,R,14.4,N,A*15
$IIVWR,034.,L,14.4,N,07.4,M,026.7,K*61
$IIMWD,,,038.,M,10.3,N,05.3,M*01
$IIMTA,23.6,C*02
$IIMTW,21.3,C*13
$IIVWT,051.,L,10.3,N,05.3,M,019.1,K*68
$IIHDG,089.,,,,*78
$IIHDM,089.,M*13
$IIGLL,4728.455,N,00239.690,W,082116,A,A*44
$IIZDA,082116,09,06,2018,,*57
$IIVTG,084.,T,,M,04.9,N,09.1,K,A*23
$IIDPT,0011.2,,*70
$ECRMB,A,0.213,L,003,004,4729.055,N,00234.841,W,3.343,79.625,4.900,V*37
$ECRMC,082116,A,4728.455,N,00239.690,W,4.900,84.000,090618,0.812,W*5D
$ECAPB,A,A,0.213,L,N,V,V,83.304,T,004,79.625,T,79.625,T*0B
$ECXTE,A,A,0.213,L,N*4F
$IIDBT,0036.8,f,0011.2,M,,*76
$IIVLW,0295.0,N,097.19,N*45
$IIVHW,,,088.,M,05.44,N,10.08,K*13
$IIMWV,326,R,14.3,N,A*12
$IIVWR,034.,L,14.3,N,07.4,M,026.5,K*64
$IIMWD,,,037.,M,10.2,N,05.2,M*0E
$IIMTA,23.6,C*02
$IIMTW,21.3,C*13
$IIVWT,051.,L,10.2,N,05.2,M,018.9,K*61
$IIHDG,088.,,,,*79
$IIHDM,088.,M*12
$IIGLL,4728.455,N,00239.690,W,082116,A,A*44
$IIZDA,082116,09,06,2018,,*57
$IIVTG,085.,T,,M,04.7,N,08.7,K,A*2B
$ECRMB,A,0.213,L,003,004,4729.055,N,00234.841,W,3.343,79.625,4.700,V*39
$ECRMC,082118,A,4728.455,N,00239.690,W,4.700,85.000,090618,0.812,W*5C
$ECAPB,A,A,0.213,L,N,V,V,83.304,T,004,79.625,T,79.625,T*0B
$ECXTE,A,A,0.213,L,N*4F
$IIDPT,0011.2,,*70
$IIDBT,0036.8,f,0011.2,M,,*76
$IIVLW,0295.0,N,097.19,N*45
$IIVHW,,,088.,M,05.43,N,10.06,K*1A
$IIMWV,326,R,14.2,N,A*13
$IIVWR,034.,L,14.2,N,07.3,M,026.3,K*64
$IIMWD,,,037.,M,10.2,N,05.2,M*0E
$IIMTA,23.6,C*02
$IIMTW,21.3,C*13
$IIVWT,051.,L,10.2,N,05.2,M,018.9,K*61
$IIHDG,088.,,,,*79
$IIHDM,088.,M*12
$IIGLL,4728.455,N,00239.686,W,082118,A,A*4D
$IIZDA,082118,09,06,2018,,*59
$ECRMB,A,0.213,L,003,004,4729.055,N,00234.841,W,3.341,79.616,4.700,V*3B
$ECRMC,082119,A,4728.455,N,00239.686,W,4.700,85.000,090618,0.812,W*5A
$ECAPB,A,A,0.213,L,N,V,V,83.304,T,004,79.616,T,79.616,T*0B
$ECXTE,A,A,0.213,L,N*4F
$IIVTG,085.,T,,M,04.7,N,08.7,K,A*2B
$IIDPT,0011.2,,*70
$IIDBT,0036.8,f,0011.2,M,,*76
$IIVLW,0295.0,N,097.20,N*4F
$IIVHW,,,088.,M,05.45,N,10.09,K*13
$IIMWV,326,R,14.2,N,A*13
$IIVWR,034.,L,14.2,N,07.3,M,026.3,K*64
$IIMWD,,,037.,M,10.1,N,05.2,M*0D
$IIMTA,23.6,C*02
$IIMTW,21.3,C*13
$IIVWT,051.,L,10.1,N,05.2,M,018.7,K*6C
$IIHDG,088.,,,,*79
$IIHDM,088.,M*12
$IIGLL,4728.455,N,00239.686,W,082118,A,A*4D
$ECRMB,A,0.213,L,003,004,4729.055,N,00234.841,W,3.341,79.616,4.700,V*3B
$ECRMC,082120,A,4728.455,N,00239.686,W,4.700,85.000,090618,0.812,W*50
$ECAPB,A,A,0.213,L,N,V,V,83.304,T,004,79.616,T,79.616,T*0B
$ECXTE,A,A,0.213,L,N*4F
$IIZDA,082118,09,06,2018,,*59
$IIVTG,086.,T,,M,04.8,N,08.9,K,A*29
$IIDPT,0011.2,,*70
$IIDBT,0036.8,f,0011.2,M,,*76
$IIVLW,0295.0,N,097.20,N*4F
$IIVHW,,,088.,M,05.47,N,10.13,K*1A
$IIMWV,326,R,14.2,N,A*13
$IIVWR,034.,L,14.2,N,07.3,M,026.3,K*64
$IIMWD,,,037.,M,10.1,N,05.2,M*0D
$IIMTA,23.6,C*02
$IIMTW,21.3,C*13
$IIVWT,051.,L,10.1,N,05.2,M,018.7,K*6C
$IIHDG,088.,,,,*79
$IIHDM,088.,M*12
$ECRMB,A,0.213,L,003,004,4729.055,N,00234.841,W,3.341,79.616,4.800,V*34
$ECRMC,082121,A,4728.455,N,00239.686,W,4.800,86.000,090618,0.812,W*5D
$ECAPB,A,A,0.213,L,N,V,V,83.304,T,004,79.616,T,79.616,T*0B
$ECXTE,A,A,0.213,L,N*4F
$IIGLL,4728.455,N,00239.682,W,082120,A,A*42
$IIZDA,082120,09,06,2018,,*52
$IIVTG,084.,T,,M,04.8,N,08.9,K,A*2B
$IIDPT,0011.2,,*70
$IIDBT,0036.8,f,0011.2,M,,*76
$IIVLW,0295.0,N,097.20,N*4F
$IIVHW,,,088.,M,05.44,N,10.07,K*1C
$IIMWV,325,R,14.2,N,A*10
$IIVWR,035.,L,14.2,N,07.3,M,026.3,K*65
$IIMWD,,,036.,M,10.1,N,05.2,M*0C
$IIMTA,23.6,C*02
$IIMTW,21.3,C*13
$IIVWT,052.,L,10.1,N,05.2,M,018.7,K*6F
$IIHDG,089.,,,,*78
$IIHDM,089.,M*13
$ECRMB,A,0.213,L,003,004,4729.055,N,00234.841,W,3.338,79.608,4.800,V*35
$ECRMC,082122,A,4728.455,N,00239.682,W,4.800,84.000,090618,0.812,W*58
$ECAPB,A,A,0.213,L,N,V,V,83.304,T,004,79.608,T,79.608,T*0B
$ECXTE,A,A,0.213,L,N*4F
$IIGLL,4728.455,N,00239.682,W,082122,A,A*40
$IIZDA,082122,09,06,2018,,*50
$IIVTG,084.,T,,M,04.8,N,08.9,K,A*2B
$IIDPT,0011.2,,*70
$IIDBT,0036.8,f,0011.2,M,,*76
$IIVLW,0295.0,N,097.20,N*4F
$IIVHW,,,089.,M,05.45,N,10.09,K*12
$IIMWV,325,R,14.2,N,A*10
$IIVWR,035.,L,14.2,N,07.3,M,026.3,K*65
$IIMWD,,,035.,M,10.2,N,05.2,M*0C
$IIMTA,23.6,C*02
$IIMTW,21.3,C*13
$IIVWT,053.,L,10.2,N,05.2,M,018.9,K*63
$ECRMB,A,0.213,L,003,004,4729.055,N,00234.841,W,3.338,79.608,4.800,V*35
$ECRMC,082123,A,4728.455,N,00239.682,W,4.800,84.000,090618,0.812,W*59
$ECAPB,A,A,0.213,L,N,V,V,83.304,T,004,79.608,T,79.608,T*0B
$ECXTE,A,A,0.213,L,N*4F
$IIHDG,089.,,,,*78
$IIHDM,089.,M*13
$IIGLL,4728.456,N,00239.678,W,082122,A,A*46
$IIZDA,082122,09,06,2018,,*50
$IIVTG,086.,T,,M,04.7,N,08.7,K,A*28
$IIDPT,0011.2,,*70
$IIDBT,0036.8,f,0011.2,M,,*76
$IIVLW,0295.0,N,097.20,N*4F
$IIVHW,,,089.,M,05.46,N,10.11,K*18
$IIMWV,325,R,14.2,N,A*10
$IIVWR,035.,L,14.2,N,07.3,M,026.3,K*65
$IIMWD,,,036.,M,10.2,N,05.2,M*0F
$IIMTA,23.6,C*02
$IIMTW,21.3,C*13
$ECRMB,A,0.213,L,003,004,4729.055,N,00234.841,W,3.335,79.616,4.700,V*38
$ECRMC,082124,A,4728.456,N,00239.678,W,4.700,86.000,090618,0.812,W*55
$ECAPB,A,A,0.213,L,N,V,V,83.304,T,004,79.616,T,79.616,T*0B
$ECXTE,A,A,0.213,L,N*4F
$IIVWT,053.,L,10.2,N,05.2,M,018.9,K*63
$IIHDG,089.,,,,*78
$IIHDM,089.,M*13
$IIGLL,4728.456,N,00239.678,W,082124,A,A*40
$IIZDA,082124,09,06,2018,,*56
$IIVTG,086.,T,,M,04.7,N,08.7,K,A*28
$IIDPT,0011.2,,*70
$IIDBT,0036.8,f,0011.2,M,,*76
$IIVLW,0295.0,N,097.20,N*4F
$IIVHW,,,089.,M,05.48,N,10.14,K*13
$IIMWV,325,R,14.1,N,A*13
$IIVWR,035.,L,14.1,N,07.3,M,026.1,K*64
$IIMWD,,,036.,M,10.1,N,05.2,M*0C
$IIMTA,23.6,C*02
$ECRMB,A,0.213,L,003,004,4729.055,N,00234.841,W,3.335,79.616,4.700,V*38
$ECRMC,082125,A,4728.456,N,00239.678,W,4.700,86.000,090618,0.812,W*54
$ECAPB,A,A,0.213,L,N,V,V,83.304,T,004,79.616,T,79.616,T*0B
$ECXTE,A,A,0.213,L,N*4F
$IIMTW,21.3,C*13
$IIVWT,053.,L,10.1,N,05.2,M,018.7,K*6E
$IIHDG,089.,,,,*78
$IIHDM,089.,M*13
$IIGLL,4728.456,N,00239.674,W,082124,A,A*4C
$IIZDA,082124,09,06,2018,,*56
$IIVTG,086.,T,,M,04.8,N,08.9,K,A*29
$IIDPT,0011.2,,*70
$IIDBT,0036.8,f,0011.2,M,,*76
$IIVLW,0295.0,N,097.21,N*4E
$IIVHW,,,089.,M,05.48,N,10.14,K*13
$IIMWV,326,R,14.1,N,A*10
$IIVWR,034.,L,14.1,N,07.3,M,026.1,K*65
$ECRMB,A,0.213,L,003,004,4729.055,N,00234.841,W,3.332,79.608,4.800,V*3F
$ECRMC,082126,A,4728.456,N,00239.674,W,4.800,86.000,090618,0.812,W*54
$ECAPB,A,A,0.213,L,N,V,V,83.304,T,004,79.608,T,79.608,T*0B
$ECXTE,A,A,0.213,L,N*4F
$IIMWD,,,036.,M,10.1,N,05.2,M*0C
$IIMTA,23.6,C*02
$IIMTW,21.3,C*13
$IIVWT,053.,L,10.1,N,05.2,M,018.7,K*6E
$IIHDG,089.,,,,*78
$IIHDM,089.,M*13
$IIGLL,4728.456,N,00239.674,W,082126,A,A*4E
$IIZDA,082126,09,06,2018,,*54
$IIVTG,086.,T,,M,04.8,N,08.9,K,A*29
$IIDPT,0011.2,,*70
$IIDBT,0036.8,f,0011.2,M,,*76
$IIVLW,0295.0,N,097.21,N*4E
$IIVHW,,,089.,M,05.45,N,10.10,K*1A
$IIMWV,326,R,14.0,N,A*11
$IIVWR,034.,L,14.0,N,07.2,M,025.9,K*6E
$ECRMB,A,0.213,L,003,004,4729.055,N,00234.841,W,3.332,79.608,4.800,V*3F
$ECRMC,082127,A,4728.456,N,00239.674,W,4.800,86.000,090618,0.812,W*55
$ECAPB,A,A,0.213,L,N,V,V,83.304,T,004,79.608,T,79.608,T*0B
$ECXTE,A,A,0.213,L,N*4F
$IIMWD,,,037.,M,10.0,N,05.1,M*0F
$IIMTA,23.6,C*02
$IIMTW,21.3,C*13
$IIVWT,052.,L,10.0,N,05.1,M,018.5,K*6F
$IIHDG,089.,,,,*78
$IIHDM,089.,M*13
$IIGLL,4728.456,N,00239.670,W,082126,A,A*4A
$IIZDA,082126,09,06,2018,,*54
$IIVTG,086.,T,,M,04.8,N,08.9,K,A*29
$IIDPT,0011.2,,*70
$IIDBT,0036.8,f,0011.2,M,,*76
$IIVLW,0295.0,N,097.21,N*4E
$IIVHW,,,089.,M,05.47,N,10.13,K*1B
$IIMWV,326,R,14.1,N,A*10
$ECRMB,A,0.213,L,003,004,4729.055,N,00234.841,W,3.330,79.600,4.800,V*35
$ECRMC,082128,A,4728.456,N,00239.670,W,4.800,86.000,090618,0.812,W*5E
$ECAPB,A,A,0.213,L,N,V,V,83.304,T,004,79.600,T,79.600,T*0B
$ECXTE,A,A,0.213,L,N*4F
$IIVWR,034.,L,14.1,N,07.3,M,026.1,K*65
$IIMWD,,,037.,M,10.0,N,05.1,M*0F
$IIMTA,23.6,C*02
$IIMTW,21.3,C*13
$IIVWT,052.,L,10.0,N,05.1,M,018.5,K*6F
$IIHDG,089.,,,,*78
$IIHDM,089.,M*13
$IIGLL,4728.456,N,00239.666,W,082128,A,A*43
$IIZDA,082128,09,06,2018,,*5A
$IIVTG,086.,T,,M,04.9,N,09.1,K,A*21
$IIDPT,0011.2,,*70
$IIDBT,0036.8,f,0011.2,M,,*76
$IIVLW,0295.0,N,097.21,N*4E
$IIVHW,,,089.,M,05.46,N,10.12,K*1B
$ECRMB,A,0.214,L,003,004,4729.055,N,00234.841,W,3.327,79.591,4.900,V*3E
$ECRMC,082129,A,4728.456,N,00239.666,W,4.900,86.000,090618,0.812,W*59
$ECAPB,A,A,0.214,L,N,V,V,83.304,T,004,79.591,T,79.591,T*0C
$ECXTE,A,A,0.214,L,N*48
$IIMWV,326,R,14.1,N,A*10
$IIVWR,034.,L,14.1,N,07.3,M,026.1,K*65
$IIMWD,,,037.,M,10.0,N,05.1,M*0F
$IIMTA,23.6,C*02
$IIMTW,21.3,C*13
$IIVWT,052.,L,10.0,N,05.1,M,018.5,K*6F
$IIHDG,089.,,,,*78
$IIHDM,089.,M*13
$IIGLL,4728.456,N,00239.666,W,082128,A,A*43
$IIZDA,082128,09,06,2018,,*5A
$IIVTG,086.,T,,M,04.9,N,09.1,K,A*21
$IIDPT,0011.2,,*70
$IIDBT,0036.8,f,0011.2,M,,*76
$IIVLW,0295.0,N,097.21,N*4E
$ECRMB,A,0.214,L,003,004,4729.055,N,00234.841,W,3.327,79.591,4.900,V*3E
$ECRMC,082130,A,4728.456,N,00239.666,W,4.900,86.000,090618,0.812,W*51
$ECAPB,A,A,0.214,L,N,V,V,83.304,T,004,79.591,T,79.591,T*0C
$ECXTE,A,A,0.214,L,N*48
$IIVHW,,,089.,M,05.48,N,10.14,K*13
$IIMWV,326,R,14.0,N,A*11
$IIVWR,034.,L,14.0,N,07.2,M,025.9,K*6E
$IIMWD,,,037.,M,09.9,N,05.1,M*0E
$IIMTA,23.6,C*02
$IIMTW,21.3,C*13
$IIVWT,052.,L,09.9,N,05.1,M,018.3,K*68
$IIHDG,089.,,,,*78
$IIHDM,089.,M*13
$IIGLL,4728.456,N,00239.662,W,082130,A,A*4E
$IIZDA,082130,09,06,2018,,*53
$IIVTG,081.,T,,M,05.1,N,09.4,K,A*2A
$IIDPT,0011.2,,*70
$IIDBT,0036.8,f,0011.2,M,,*76
$ECRMB,A,0.214,L,003,004,4729.055,N,00234.841,W,3.324,79.583,5.100,V*37
$ECRMC,082131,A,4728.456,N,00239.662,W,5.100,81.000,090618,0.812,W*5A
$ECAPB,A,A,0.214,L,N,V,V,83.304,T,004,79.583,T,79.583,T*0C
$ECXTE,A,A,0.214,L,N*48
$IIVLW,0295.0,N,097.21,N*4E
$IIVHW,,,089.,M,05.48,N,10.15,K*12
$IIMWV,326,R,14.0,N,A*11
$IIVWR,034.,L,14.0,N,07.2,M,025.9,K*6E
$IIMWD,,,037.,M,09.9,N,05.1,M*0E
$IIMTA,23.6,C*02
$IIMTW,21.3,C*13
$IIVWT,052.,L,09.9,N,05.1,M,018.3,K*68
$IIHDG,089.,,,,*78
$IIHDM,089.,M*13
$IIGLL,4728.456,N,00239.662,W,082130,A,A*4E
$IIZDA,082130,09,06,2018,,*53
$IIVTG,081.,T,,M,05.1,N,09.4,K,A*2A
$IIDPT,0011.2,,*70
$ECRMB,A,0.214,L,003,004,4729.055,N,00234.841,W,3.324,79.583,5.100,V*37
$ECRMC,082132,A,4728.456,N,00239.662,W,5.100,81.000,090618,0.812,W*59
$ECAPB,A,A,0.214,L,N,V,V,83.304,T,004,79.583,T,79.583,T*0C
$ECXTE,A,A,0.214,L,N*48
$IIDBT,0036.8,f,0011.2,M,,*76
$IIVLW,0295.0,N,097.22,N*4D
$IIVHW,,,090.,M,05.49,N,10.16,K*18
$IIMWV,326,R,14.0,N,A*11
$IIVWR,034.,L,14.0,N,07.2,M,025.9,K*6E
$IIMWD,,,037.,M,09.9,N,05.1,M*0E
$IIMTA,23.6,C*02
$IIMTW,21.3,C*13
$IIVWT,052.,L,09.9,N,05.1,M,018.3,K*68
$IIHDG,089.,,,,*78
$IIHDM,089.,M*13
$IIGLL,4728.456,N,00239.662,W,082132,A,A*4C
$IIZDA,082132,09,06,2018,,*51
$ECRMB,A,0.214,L,003,004,4729.055,N,00234.841,W,3.324,79.583,5.100,V*37
$ECRMC,082133,A,4728.456,N,00239.662,W,5.100,81.000,090618,0.812,W*58
$ECAPB,A,A,0.214,L,N,V,V,83.304,T,004,79.583,T,79.583,T*0C
$ECXTE,A,A,0.214,L,N*48
$IIVTG,085.,T,,M,04.8,N,08.9,K,A*2A
$IIDPT,0011.2,,*70
$IIDBT,0036.8,f,0011.2,M,,*76
$IIVLW,0295.0,N,097.22,N*4D
$IIVHW,,,089.,M,05.46,N,10.12,K*1B
$IIMWV,326,R,14.1,N,A*10
$IIVWR,034.,L,14.1,N,07.3,M,026.1,K*65
$IIMWD,,,038.,M,09.9,N,05.1,M*01
$IIMTA,23.6,C*02
$IIMTW,21.3,C*13
$IIVWT,052.,L,09.9,N,05.1,M,018.3,K*68
$IIHDG,089.,,,,*78
$IIHDM,089.,M*13
$IIGLL,4728.457,N,00239.658,W,082132,A,A*44
$ECRMB,A,0.213,L,003,004,4729.055,N,00234.841,W,3.322,79.591,4.800,V*3D
$ECRMC,082134,A,4728.457,N,00239.658,W,4.800,85.000,090618,0.812,W*5B
$ECAPB,A,A,0.213,L,N,V,V,83.304,T,004,79.591,T,79.591,T*0B
$ECXTE,A,A,0.213,L,N*4F
$IIZDA,082132,09,06,2018,,*51
$IIVTG,085.,T,,M,04.8,N,08.9,K,A*2A
$IIDPT,0010.7,,*74
$IIDBT,0035.1,f,0010.7,M,,*78
$IIVLW,0295.0,N,097.22,N*4D
$IIVHW,,,089.,M,05.46,N,10.11,K*18
$IIMWV,326,R,14.1,N,A*10
$IIVWR,034.,L,14.1,N,07.3,M,026.1,K*65
$IIMWD,,,037.,M,10.0,N,05.1,M*0F
$IIMTA,23.6,C*02
$IIMTW,21.3,C*13
$IIVWT,052.,L,10.0,N,05.1,M,018.5,K*6F
$IIHDG,089.,,,,*78
$IIHDM,089.,M*13
$ECRMB,A,0.213,L,003,004,4729.055,N,00234.841,W,3.322,79.591,4.800,V*3D
$ECRMC,082135,A,4728.457,N,00239.658,W,4.800,85.000,090618,0.812,W*5A
$ECAPB,A,A,0.213,L,N,V,V,83.304,T,004,79.591,T,79.591,T*0B
$ECXTE,A,A,0.213,L,N*4F
$IIGLL,4728.457,N,00239.654,W,082134,A,A*4E
$IIZDA,082134,09,06,2018,,*57
$IIVTG,086.,T,,M,04.7,N,08.7,K,A*28
$IIDPT,0010.4,,*77
$IIDBT,0034.1,f,0010.4,M,,*7A
$IIVLW,0295.0,N,097.22,N*4D
$IIVHW,,,089.,M,05.48,N,10.14,K*13
$IIMWV,326,R,14.1,N,A*10
$IIVWR,034.,L,14.1,N,07.3,M,026.1,K*65
$IIMWD,,,037.,M,10.0,N,05.1,M*0F
$IIMTA,23.6,C*02
$IIMTW,21.3,C*13
$IIVWT,052.,L,10.0,N,05.1,M,018.5,K*6F
$IIHDG,089.,,,,*78
$IIHDM,089.,M*13
$ECRMB,A,0.213,L,003,004,4729.055,N,00234.841,W,3.319,79.583,4.700,V*39
$ECRMC,082136,A,4728.457,N,00239.654,W,4.700,86.000,090618,0.812,W*59
$ECAPB,A,A,0.213,L,N,V,V,83.304,T,004,79.583,T,79.583,T*0B
$ECXTE,A,A,0.213,L,N*4F
$IIGLL,4728.457,N,00239.650,W,082136,A,A*48
$IIZDA,082136,09,06,2018,,*55
$IIVTG,086.,T,,M,04.7,N,08.7,K,A*28
$IIDPT,0011.2,,*70
$IIDBT,0036.8,f,0011.2,M,,*76
$IIVLW,0295.0,N,097.22,N*4D
$IIVHW,,,089.,M,05.46,N,10.12,K*1B
$IIMWV,326,R,14.1,N,A*10
$IIVWR,034.,L,14.1,N,07.3,M,026.1,K*65
$IIMWD,,,037.,M,10.0,N,05.1,M*0F
$IIMTA,23.6,C*02
$IIMTW,21.3,C*13
$IIVWT,052.,L,10.0,N,05.1,M,018.5,K*6F
$ECRMB,A,0.214,L,003,004,4729.055,N,00234.841,W,3.316,79.574,4.700,V*39
$ECRMC,082137,A,4728.457,N,00239.650,W,4.700,86.000,090618,0.811,W*5F
$ECAPB,A,A,0.214,L,N,V,V,83.304,T,004,79.574,T,79.574,T*0C
$ECXTE,A,A,0.214,L,N*48
$IIHDG,089.,,,,*78
$IIHDM,089.,M*13
$IIGLL,4728.457,N,00239.650,W,082136,A,A*48
$IIZDA,082136,09,06,2018,,*55
$IIVTG,083.,T,,M,04.8,N,08.9,K,A*2C
$IIDPT,0011.2,,*70
$IIDBT,0036.8,f,0011.2,M,,*76
$IIVLW,0295.0,N,097.22,N*4D
$IIVHW,,,089.,M,05.46,N,10.11,K*18
$IIMWV,326,R,14.0,N,A*11
$IIVWR,034.,L,14.0,N,07.2,M,025.9,K*6E
$IIMWD,,,037.,M,09.9,N,05.1,M*0E
$IIMTA,23.6,C*02
$IIMTW,21.3,C*13
$ECRMB,A,0.214,L,003,004,4729.055,N,00234.841,W,3.316,79.574,4.800,V*36
$ECRMC,082138,A,4728.457,N,00239.650,W,4.800,83.000,090618,0.811,W*5A
$ECAPB,A,A,0.214,L,N,V,V,83.304,T,004,79.574,T,79.574,T*0C
$ECXTE,A,A,0.214,L,N*48
$IIVWT,052.,L,09.9,N,05.1,M,018.3,K*68
$IIHDG,089.,,,,*78
$IIHDM,089.,M*13
$IIGLL,4728.457,N,00239.650,W,082138,A,A*46
$IIZDA,082138,09,06,2018,,*5B
$IIVTG,083.,T,,M,04.8,N,08.9,K,A*2C
$IIDPT,0011.2,,*70
$IIDBT,0036.8,f,0011.2,M,,*76
$IIVLW,0295.0,N,097.23,N*4C
$IIVHW,,,089.,M,05.44,N,10.08,K*12
$IIMWV,326,R,14.0,N,A*11
$IIVWR,034.,L,14.0,N,07.2,M,025.9,K*6E
$IIMWD,,,037.,M,09.9,N,05.1,M*0E
$IIMTA,23.6,C*02
$ECRMB,A,0.214,L,003,004,4729.055,N,00234.841,W,3.316,79.574,4.800,V*36
$ECRMC,082139,A,4728.457,N,00239.650,W,4.800,83.000,090618,0.811,W*5B
$ECAPB,A,A,0.214,L,N,V,V,83.304,T,004,79.574,T,79.574,T*0C
$ECXTE,A,A,0.214,L,N*48
$IIMTW,21.3,C*13
$IIVWT,052.,L,09.9,N,05.1,M,018.3,K*68
$IIHDG,089.,,,,*78
$IIHDM,089.,M*13
$IIGLL,4728.458,N,00239.646,W,082138,A,A*4E
$IIZDA,082138,09,06,2018,,*5B
$IIVTG,083.,T,,M,04.8,N,08.9,K,A*2C
$IIDPT,0011.2,,*70
$IIDBT,0036.8,f,0011.2,M,,*76
$IIVLW,0295.0,N,097.23,N*4C
$IIVHW,,,089.,M,05.43,N,10.06,K*1B
$IIMWV,326,R,13.9,N,A*1F
$IIVWR,034.,L,13.9,N,07.2,M,025.7,K*6E
$ECRMB,A,0.213,L,003,004,4729.055,N,00234.841,W,3.313,79.583,4.800,V*3C
$ECRMC,082140,A,4728.458,N,00239.646,W,4.800,83.000,090618,0.811,W*5D
$ECAPB,A,A,0.213,L,N,V,V,83.304,T,004,79.583,T,79.583,T*0B
$ECXTE,A,A,0.213,L,N*4F
$IIMWD,,,037.,M,09.8,N,05.0,M*0E
$IIMTA,23.6,C*02
$IIMTW,21.3,C*13
$IIVWT,052.,L,09.8,N,05.0,M,018.1,K*6A
$IIHDG,089.,,,,*78
$IIHDM,089.,M*13
$IIGLL,4728.458,N,00239.642,W,082140,A,A*45
$IIZDA,082140,09,06,2018,,*54
$IIVTG,084.,T,,M,04.7,N,08.7,K,A*2A
$IIDPT,0011.2,,*70
$IIDBT,0036.8,f,0011.2,M,,*76
$IIVLW,0295.0,N,097.23,N*4C
$IIVHW,,,089.,M,05.41,N,10.01,K*1E
$IIMWV,326,R,14.0,N,A*11
$IIVWR,034.,L,14.0,N,07.2,M,025.9,K*6E
$ECRMB,A,0.213,L,003,004,4729.055,N,00234.841,W,3.311,79.574,4.700,V*39
$ECRMC,082141,A,4728.458,N,00239.642,W,4.700,84.000,090618,0.811,W*50
$ECAPB,A,A,0.213,L,N,V,V,83.304,T,004,79.574,T,79.574,T*0B
$ECXTE,A,A,0.213,L,N*4F
$IIMWD,,,037.,M,09.9,N,05.1,M*0E
$IIMTA,23.6,C*02
$IIMTW,21.3,C*13
$IIVWT,052.,L,09.9,N,05.1,M,018.3,K*68
$IIHDG,089.,,,,*78
$IIHDM,089.,M*13
$IIGLL,4728.458,N,00239.642,W,082140,A,A*45
$IIZDA,082140,09,06,2018,,*54
$IIVTG,084.,T,,M,04.7,N,08.7,K,A*2A
$IIDPT,0011.2,,*70
$IIDBT,0036.8,f,0011.2,M,,*76
$IIVLW,0295.0,N,097.23,N*4C
$IIVHW,,,090.,M,05.41,N,10.01,K*16
$IIMWV,326,R,14.0,N,A*11
$ECRMB,A,0.213,L,003,004,4729.055,N,00234.841,W,3.311,79.574,4.700,V*39
$ECRMC,082142,A,4728.458,N,00239.642,W,4.700,84.000,090618,0.811,W*53
$ECAPB,A,A,0.213,L,N,V,V,83.304,T,004,79.574,T,79.574,T*0B
$ECXTE,A,A,0.213,L,N*4F
$IIVWR,034.,L,14.0,N,07.2,M,025.9,K*6E
$IIMWD,,,037.,M,09.9,N,05.1,M*0E
$IIMTA,23.6,C*02
$IIMTW,21.3,C*13
$IIVWT,052.,L,09.9,N,05.1,M,018.3,K*68
$IIHDG,090.,,,,*70
$IIHDM,090.,M*1B
$IIGLL,4728.458,N,00239.639,W,082142,A,A*4B
$IIZDA,082142,09,06,2018,,*56
$IIVTG,087.,T,,M,04.6,N,08.5,K,A*2A
$IIDPT,0011.0,,*72
$IIDBT,0036.1,f,0011.0,M,,*7D
$IIVLW,0295.0,N,097.23,N*4C
$IIVHW,,,090.,M,05.39,N,09.99,K*10
$ECRMB,A,0.214,L,003,004,4729.055,N,00234.841,W,3.309,79.568,4.600,V*3B
$ECRMC,082143,A,4728.458,N,00239.639,W,4.600,87.000,090618,0.811,W*5C
$ECAPB,A,A,0.214,L,N,V,V,83.304,T,004,79.568,T,79.568,T*0C
$ECXTE,A,A,0.214,L,N*48
$IIMWV,326,R,14.0,N,A*11
$IIVWR,034.,L,14.0,N,07.2,M,025.9,K*6E
$IIMWD,,,038.,M,09.9,N,05.1,M*01
$IIMTA,23.6,C*02
$IIMTW,21.3,C*13
$IIVWT,052.,L,09.9,N,05.1,M,018.3,K*68
$IIHDG,090.,,,,*70
$IIHDM,090.,M*1B
$IIGLL,4728.458,N,00239.639,W,082142,A,A*4B
$IIZDA,082142,09,06,2018,,*56
$IIVTG,087.,T,,M,04.6,N,08.5,K,A*2A
$IIDPT,0011.0,,*72
$IIDBT,0036.1,f,0011.0,M,,*7D
$IIVLW,0295.0,N,097.24,N*4B
$ECRMB,A,0.214,L,003,004,4729.055,N,00234.841,W,3.309,79.568,4.600,V*3B
$ECRMC,082144,A,4728.458,N,00239.639,W,4.600,87.000,090618,0.811,W*5B
$ECAPB,A,A,0.214,L,N,V,V,83.304,T,004,79.568,T,79.568,T*0C
$ECXTE,A,A,0.214,L,N*48
$IIVHW,,,089.,M,05.41,N,10.01,K*1E
$IIMWV,326,R,13.9,N,A*1F
$IIVWR,034.,L,13.9,N,07.2,M,025.7,K*6E
$IIMWD,,,038.,M,09.8,N,05.0,M*01
$IIMTA,23.6,C*02
$IIMTW,21.3,C*13
$IIVWT,052.,L,09.8,N,05.0,M,018.1,K*6A
$IIHDG,089.,,,,*78
$IIHDM,089.,M*13
$IIGLL,4728.458,N,00239.635,W,082144,A,A*41
$IIZDA,082144,09,06,2018,,*50
$IIVTG,085.,T,,M,04.7,N,08.7,K,A*2B
$IIDPT,0011.0,,*72
$IIDBT,0036.1,f,0011.0,M,,*7D
$ECRMB,A,0.214,L,003,004,4729.055,N,00234.841,W,3.306,79.560,4.700,V*3D
$ECRMC,082145,A,4728.458,N,00239.635,W,4.700,85.000,090618,0.811,W*55
$ECAPB,A,A,0.214,L,N,V,V,83.304,T,004,79.560,T,79.560,T*0C
$ECXTE,A,A,0.214,L,N*48
$IIVLW,0295.0,N,097.24,N*4B
$IIVHW,,,089.,M,05.39,N,09.98,K*19
$IIMWV,326,R,13.9,N,A*1F
$IIVWR,034.,L,13.9,N,07.2,M,025.7,K*6E
$IIMWD,,,037.,M,09.8,N,05.0,M*0E
$IIMTA,23.6,C*02
$IIMTW,21.3,C*13
$IIVWT,052.,L,09.8,N,05.0,M,018.1,K*6A
$IIHDG,089.,,,,*78
$IIHDM,089.,M*13
$IIGLL,4728.458,N,00239.635,W,082144,A,A*41
$IIZDA,082144,09,06,2018,,*50
$IIVTG,085.,T,,M,04.7,N,08.7,K,A*2B
$IIDPT,0011.0,,*72
$ECRMB,A,0.214,L,003,004,4729.055,N,00234.841,W,3.306,79.560,4.700,V*3D
$ECRMC,082146,A,4728.458,N,00239.635,W,4.700,85.000,090618,0.811,W*56
$ECAPB,A,A,0.214,L,N,V,V,83.304,T,004,79.560,T,79.560,T*0C
$ECXTE,A,A,0.214,L,N*48
$IIDBT,0036.1,f,0011.0,M,,*7D
$IIVLW,0295.0,N,097.24,N*4B
$IIVHW,,,089.,M,05.38,N,09.97,K*17
$IIMWV,326,R,13.9,N,A*1F
$IIVWR,034.,L,13.9,N,07.2,M,025.7,K*6E
$IIMWD,,,037.,M,09.9,N,05.1,M*0E
$IIMTA,23.6,C*02
$IIMTW,21.3,C*13
$IIVWT,052.,L,09.9,N,05.1,M,018.3,K*68
$IIHDG,089.,,,,*78
$IIHDM,089.,M*13
$IIGLL,4728.458,N,00239.631,W,082146,A,A*47
$IIZDA,082146,09,06,2018,,*52
$IIVTG,086.,T,,M,04.7,N,08.7,K,A*28
$ECRMB,A,0.214,L,003,004,4729.055,N,00234.841,W,3.303,79.551,4.700,V*3A
$ECRMC,082147,A,4728.458,N,00239.631,W,4.700,86.000,090618,0.811,W*50
$ECAPB,A,A,0.214,L,N,V,V,83.304,T,004,79.551,T,79.551,T*0C
$ECXTE,A,A,0.214,L,N*48
$IIDPT,0011.0,,*72
$IIDBT,0036.1,f,0011.0,M,,*7D
$IIVLW,0295.0,N,097.24,N*4B
$IIVHW,,,089.,M,05.34,N,09.89,K*14
$IIMWV,326,R,13.9,N,A*1F
$IIVWR,034.,L,13.9,N,07.2,M,025.7,K*6E
$IIMWD,,,037.,M,09.9,N,05.1,M*0E
$IIMTA,23.6,C*02
$IIMTW,21.3,C*13
$IIVWT,052.,L,09.9,N,05.1,M,018.3,K*68
$IIHDG,089.,,,,*78
$IIHDM,089.,M*13
$IIGLL,4728.459,N,00239.627,W,082148,A,A*4F
$IIZDA,082148,09,06,2018,,*5C
$ECRMB,A,0.214,L,003,004,4729.055,N,00234.841,W,3.301,79.560,4.700,V*3A
$ECRMC,082148,A,4728.459,N,00239.627,W,4.700,86.000,090618,0.811,W*59
$ECAPB,A,A,0.214,L,N,V,V,83.304,T,004,79.560,T,79.560,T*0C
$ECXTE,A,A,0.214,L,N*48
$IIVTG,086.,T,,M,04.7,N,08.7,K,A*28
$IIDPT,0011.2,,*70
$IIDBT,0036.8,f,0011.2,M,,*76
$IIVLW,0295.0,N,097.24,N*4B
$IIVHW,,,089.,M,05.32,N,09.86,K*1D
$IIMWV,326,R,13.8,N,A*1E
$IIVWR,034.,L,13.8,N,07.1,M,025.6,K*6D
$IIMWD,,,037.,M,09.8,N,05.0,M*0E
$IIMTA,23.6,C*02
$IIMTW,21.3,C*13
$IIVWT,052.,L,09.8,N,05.0,M,018.1,K*6A
$IIHDG,089.,,,,*78
$IIHDM,089.,M*13
$IIGLL,4728.459,N,00239.627,W,082148,A,A*4F
$ECRMB,A,0.214,L,003,004,4729.055,N,00234.841,W,3.301,79.560,4.700,V*3A
$ECRMC,082149,A,4728.459,N,00239.627,W,4.700,86.000,090618,0.811,W*58
$ECAPB,A,A,0.214,L,N,V,V,83.304,T,004,79.560,T,79.560,T*0C
$ECXTE,A,A,0.214,L,N*48
$IIZDA,082148,09,06,2018,,*5C
$IIVTG,085.,T,,M,04.8,N,08.9,K,A*2A
$IIDPT,0011.2,,*70
$IIDBT,0036.8,f,0011.2,M,,*76
$IIVLW,0295.0,N,097.24,N*4B
$IIVHW,,,089.,M,05.34,N,09.88,K*15
$IIMWV,326,R,13.8,N,A*1E
$IIVWR,034.,L,13.8,N,07.1,M,025.6,K*6D
$IIMWD,,,037.,M,09.8,N,05.0,M*0E
$IIMTA,23.6,C*02
$IIMTW,21.3,C*13
$IIVWT,052.,L,09.8,N,05.0,M,018.1,K*6A
$IIHDG,089.,,,,*78
$IIHDM,089.,M*13
$ECRMB,A,0.214,L,003,004,4729.055,N,00234.841,W,3.301,79.560,4.800,V*35
$ECRMC,082150,A,4728.459,N,00239.627,W,4.800,85.000,090618,0.811,W*5C
$ECAPB,A,A,0.214,L,N,V,V,83.304,T,004,79.560,T,79.560,T*0C
$ECXTE,A,A,0.214,L,N*48
$IIGLL,4728.459,N,00239.623,W,082150,A,A*42
$IIZDA,082150,09,06,2018,,*55
$IIVTG,085.,T,,M,04.8,N,08.9,K,A*2A
$IIDPT,0011.2,,*70
$IIDBT,0036.8,f,0011.2,M,,*76
$IIVLW,0295.0,N,097.25,N*4A
$IIVHW,,,089.,M,05.32,N,09.86,K*1D
$IIMWV,326,R,13.8,N,A*1E
$IIVWR,034.,L,13.8,N,07.1,M,025.6,K*6D
$IIMWD,,,037.,M,09.8,N,05.0,M*0E
$IIMTA,23.6,C*02
$IIMTW,21.3,C*13
$IIVWT,052.,L,09.8,N,05.0,M,018.1,K*6A
$IIHDG,090.,,,,*70
$ECRMB,A,0.214,L,003,004,4729.055,N,00234.841,W,3.298,79.551,4.800,V*36
$ECRMC,082151,A,4728.459,N,00239.623,W,4.800,85.000,090618,0.811,W*59
$ECAPB,A,A,0.214,L,N,V,V,83.304,T,004,79.551,T,79.551,T*0C
$ECXTE,A,A,0.214,L,N*48
$IIHDM,090.,M*1B
$IIGLL,4728.459,N,00239.623,W,082150,A,A*42
$IIZDA,082150,09,06,2018,,*55
$IIVTG,086.,T,,M,04.8,N,08.9,K,A*29
$IIDPT,0011.2,,*70
$IIDBT,0036.8,f,0011.2,M,,*76
$IIVLW,0295.0,N,097.25,N*4A
$IIVHW,,,090.,M,05.33,N,09.87,K*15
$IIMWV,326,R,13.7,N,A*11
$IIVWR,034.,L,13.7,N,07.0,M,025.4,K*61
$IIMWD,,,038.,M,09.8,N,05.0,M*01
$IIMTA,23.6,C*02
$IIMTW,21.3,C*13
$IIVWT,052.,L,09.8,N,05.0,M,018.1,K*6A
$ECRMB,A,0.214,L,003,004,4729.055,N,00234.841,W,3.298,79.551,4.800,V*36
$ECRMC,082152,A,4728.459,N,00239.623,W,4.800,86.000,090618,0.811,W*59
$ECAPB,A,A,0.214,L,N,V,V,83.304,T,004,79.551,T,79.551,T*0C
$ECXTE,A,A,0.214,L,N*48
$IIHDG,090.,,,,*70
$IIHDM,090.,M*1B
$IIGLL,4728.459,N,00239.619,W,082152,A,A*49
$IIZDA,082152,09,06,2018,,*57
$IIVTG,084.,T,,M,04.9,N,09.1,K,A*23
$IIDPT,0011.1,,*73
$IIDBT,0036.4,f,0011.1,M,,*79
$IIVLW,0295.0,N,097.25,N*4A
$IIVHW,,,090.,M,05.34,N,09.88,K*1D
$IIMWV,326,R,13.7,N,A*11
$IIVWR,034.,L,13.7,N,07.0,M,025.4,K*61
$IIMWD,,,038.,M,09.7,N,05.0,M*0E
$IIMTA,23.6,C*02
$IIMTW,21.3,C*13
$ECRMB,A,0.214,L,003,004,4729.055,N,00234.841,W,3.295,79.542,4.900,V*38
$ECRMC,082153,A,4728.459,N,00239.619,W,4.900,84.000,090618,0.811,W*52
$ECAPB,A,A,0.214,L,N,V,V,83.304,T,004,79.542,T,79.542,T*0C
$ECXTE,A,A,0.214,L,N*48
$IIVWT,052.,L,09.7,N,05.0,M,018.0,K*64
$IIHDG,090.,,,,*70
$IIHDM,090.,M*1B
$IIGLL,4728.459,N,00239.619,W,082152,A,A*49
$IIZDA,082152,09,06,2018,,*57
$IIVTG,084.,T,,M,04.9,N,09.1,K,A*23
$IIDPT,0011.1,,*73
$IIDBT,0036.4,f,0011.1,M,,*79
$IIVLW,0295.0,N,097.25,N*4A
$IIVHW,,,090.,M,05.34,N,09.88,K*1D
$IIMWV,326,R,13.6,N,A*10
$IIVWR,034.,L,13.6,N,07.0,M,025.2,K*66
$IIMWD,,,038.,M,09.7,N,05.0,M*0E
$IIMTA,23.6,C*02
$ECRMB,A,0.214,L,003,004,4729.055,N,00234.841,W,3.295,79.542,4.900,V*38
$ECRMC,082154,A,4728.459,N,00239.619,W,4.900,84.000,090618,0.811,W*55
$ECAPB,A,A,0.214,L,N,V,V,83.304,T,004,79.542,T,79.542,T*0C
$ECXTE,A,A,0.214,L,N*48
$IIMTW,21.3,C*13
$IIVWT,052.,L,09.7,N,05.0,M,018.0,K*64
$IIHDG,090.,,,,*70
$IIHDM,090.,M*1B
$IIGLL,4728.459,N,00239.615,W,082154,A,A*43
$IIZDA,082154,09,06,2018,,*51
$IIVTG,084.,T,,M,04.9,N,09.1,K,A*23
$IIDPT,0011.0,,*72
$IIDBT,0036.1,f,0011.0,M,,*7D
$IIVLW,0295.0,N,097.25,N*4A
$IIVHW,,,090.,M,05.34,N,09.89,K*1C
$IIMWV,326,R,13.6,N,A*10
$IIVWR,034.,L,13.6,N,07.0,M,025.2,K*66
$ECRMB,A,0.215,L,003,004,4729.055,N,00234.841,W,3.293,79.534,4.900,V*3E
$ECRMC,082155,A,4728.459,N,00239.615,W,4.900,84.000,090618,0.811,W*58
$ECAPB,A,A,0.215,L,N,V,V,83.304,T,004,79.534,T,79.534,T*0D
$ECXTE,A,A,0.215,L,N*49
$IIMWD,,,038.,M,09.6,N,04.9,M*07
$IIMTA,23.6,C*02
$IIMTW,21.3,C*13
$IIVWT,052.,L,09.6,N,04.9,M,017.8,K*6A
$IIHDG,090.,,,,*70
$IIHDM,090.,M*1B
$IIGLL,4728.459,N,00239.615,W,082154,A,A*43
$IIZDA,082154,09,06,2018,,*51
$IIVTG,084.,T,,M,04.9,N,09.1,K,A*23
$IIDPT,0011.0,,*72
$IIDBT,0036.1,f,0011.0,M,,*7D
$IIVLW,0295.0,N,097.25,N*4A
$IIVHW,,,090.,M,05.36,N,09.92,K*14
$IIMWV,326,R,13.6,N,A*10
$ECRMB,A,0.215,L,003,004,4729.055,N,00234.841,W,3.293,79.534,4.900,V*3E
$ECRMC,082156,A,4728.459,N,00239.615,W,4.900,84.000,090618,0.811,W*5B
$ECAPB,A,A,0.215,L,N,V,V,83.304,T,004,79.534,T,79.534,T*0D
$ECXTE,A,A,0.215,L,N*49
$IIVWR,034.,L,13.6,N,07.0,M,025.2,K*66
$IIMWD,,,038.,M,09.6,N,04.9,M*07
$IIMTA,23.6,C*02
$IIMTW,21.3,C*13
$IIVWT,052.,L,09.6,N,04.9,M,017.8,K*6A
$IIHDG,090.,,,,*70
$IIHDM,090.,M*1B
$IIGLL,4728.460,N,00239.611,W,082156,A,A*4F
$IIZDA,082156,09,06,2018,,*53
$IIVTG,088.,T,,M,04.8,N,08.9,K,A*27
$IIDPT,0011.0,,*72
$IIDBT,0036.1,f,0011.0,M,,*7D
$IIVLW,0295.0,N,097.25,N*4A
$IIVHW,,,090.,M,05.35,N,09.90,K*15
$IIMWV,326,R,13.6,N,A*10
$ECRMB,A,0.214,L,003,004,4729.055,N,00234.841,W,3.290,79.543,4.800,V*3D
$ECRMC,082157,A,4728.460,N,00239.611,W,4.800,88.000,090618,0.811,W*59
$ECAPB,A,A,0.214,L,N,V,V,83.304,T,004,79.543,T,79.543,T*0C
$ECXTE,A,A,0.214,L,N*48
$IIVWR,034.,L,13.6,N,07.0,M,025.2,K*66
$IIMWD,,,038.,M,09.6,N,04.9,M*07
$IIMTA,23.6,C*02
$IIMTW,21.3,C*13
$IIVWT,052.,L,09.6,N,04.9,M,017.8,K*6A
$IIHDG,090.,,,,*70
$IIHDM,090.,M*1B
$IIGLL,4728.460,N,00239.611,W,082158,A,A*41
$IIZDA,082158,09,06,2018,,*5D
$IIVTG,088.,T,,M,04.8,N,08.9,K,A*27
$IIDPT,0010.9,,*7A
$IIDBT,0035.8,f,0010.9,M,,*7F
$IIVLW,0295.0,N,097.26,N*49
$IIVHW,,,090.,M,05.34,N,09.89,K*1C
$ECRMB,A,0.214,L,003,004,4729.055,N,00234.841,W,3.290,79.543,4.800,V*3D
$ECRMC,082158,A,4728.460,N,00239.611,W,4.800,88.000,090618,0.811,W*56
$ECAPB,A,A,0.214,L,N,V,V,83.304,T,004,79.543,T,79.543,T*0C
$ECXTE,A,A,0.214,L,N*48
$IIMWV,325,R,13.5,N,A*10
$IIVWR,035.,L,13.5,N,06.9,M,025.0,K*6E
$IIMWD,,,036.,M,09.6,N,04.9,M*09
$IIMTA,23.6,C*02
$IIMTW,21.3,C*13
$IIVWT,054.,L,09.6,N,04.9,M,017.8,K*6C
$IIHDG,090.,,,,*70
$IIHDM,090.,M*1B
$IIGLL,4728.460,N,00239.607,W,082158,A,A*46
$IIZDA,082158,09,06,2018,,*5D
$IIVTG,085.,T,,M,04.7,N,08.7,K,A*2B
$IIDPT,0011.0,,*72
$IIDBT,0036.1,f,0011.0,M,,*7D
$IIVLW,0295.0,N,097.26,N*49
$ECRMB,A,0.214,L,003,004,4729.055,N,00234.841,W,3.287,79.534,4.700,V*34
$ECRMC,082159,A,4728.460,N,00239.607,W,4.700,85.000,090618,0.811,W*52
$ECAPB,A,A,0.214,L,N,V,V,83.304,T,004,79.534,T,79.534,T*0C
$ECXTE,A,A,0.214,L,N*48
$IIVHW,,,090.,M,05.36,N,09.92,K*14
$IIMWV,325,R,13.4,N,A*11
$IIVWR,035.,L,13.4,N,06.9,M,024.8,K*66
$IIMWD,,,036.,M,09.6,N,04.9,M*09
$IIMTA,23.6,C*02
$IIMTW,21.3,C*13
$IIVWT,054.,L,09.6,N,04.9,M,017.8,K*6C
$IIHDG,091.,,,,*71
$IIHDM,091.,M*1A
$IIGLL,4728.460,N,00239.603,W,082200,A,A*4C
$IIZDA,082200,09,06,2018,,*53
$IIVTG,085.,T,,M,04.7,N,08.7,K,A*2B
$IIDPT,0011.0,,*72
$IIDBT,0036.1,f,0011.0,M,,*7D
$ECRMB,A,0.215,L,003,004,4729.055,N,00234.841,W,3.284,79.525,4.700,V*36
$ECRMC,082201,A,4728.460,N,00239.603,W,4.700,85.000,090618,0.811,W*58
$ECAPB,A,A,0.215,L,N,V,V,83.304,T,004,79.525,T,79.525,T*0D
$ECXTE,A,A,0.215,L,N*49
$IIVLW,0295.0,N,097.26,N*49
$IIVHW,,,091.,M,05.35,N,09.91,K*15
$IIMWV,325,R,13.4,N,A*11
$IIVWR,035.,L,13.4,N,06.9,M,024.8,K*66
$IIMWD,,,037.,M,09.5,N,04.9,M*0B
$IIMTA,23.6,C*02
$IIMTW,21.3,C*13
$IIVWT,054.,L,09.5,N,04.9,M,017.6,K*61
$IIHDG,091.,,,,*71
$IIHDM,091.,M*1A
$IIGLL,4728.460,N,00239.603,W,082200,A,A*4C
$IIZDA,082200,09,06,2018,,*53
$IIVTG,087.,T,,M,04.7,N,08.7,K,A*29
$IIDPT,0011.1,,*73
$ECRMB,A,0.215,L,003,004,4729.055,N,00234.841,W,3.284,79.525,4.700,V*36
$ECRMC,082202,A,4728.460,N,00239.603,W,4.700,87.000,090618,0.811,W*59
$ECAPB,A,A,0.215,L,N,V,V,83.304,T,004,79.525,T,79.525,T*0D
$ECXTE,A,A,0.215,L,N*49
$IIDBT,0036.4,f,0011.1,M,,*79
$IIVLW,0295.0,N,097.26,N*49
$IIVHW,,,091.,M,05.36,N,09.92,K*15
$IIMWV,325,R,13.3,N,A*16
$IIVWR,035.,L,13.3,N,06.8,M,024.6,K*6E
$IIMWD,,,037.,M,09.4,N,04.8,M*0B
$IIMTA,23.6,C*02
$IIMTW,21.3,C*13
$IIVWT,054.,L,09.4,N,04.8,M,017.4,K*63
$IIHDG,091.,,,,*71
$IIHDM,091.,M*1A
$IIGLL,4728.460,N,00239.599,W,082202,A,A*4E
$IIZDA,082202,09,06,2018,,*51
$ECRMB,A,0.215,L,003,004,4729.055,N,00234.841,W,3.282,79.517,4.700,V*31
$ECRMC,082203,A,4728.460,N,00239.599,W,4.700,87.000,090618,0.811,W*58
$ECAPB,A,A,0.215,L,N,V,V,83.304,T,004,79.517,T,79.517,T*0D
$ECXTE,A,A,0.215,L,N*49
$IIVTG,087.,T,,M,04.7,N,08.7,K,A*29
$IIDPT,0011.2,,*70
$IIDBT,0036.4,f,0011.1,M,,*79
$IIVLW,0295.0,N,097.26,N*49
$IIVHW,,,091.,M,05.36,N,09.92,K*15
$IIMWV,325,R,13.3,N,A*16
$IIVWR,035.,L,13.3,N,06.8,M,024.6,K*6E
$IIMWD,,,037.,M,09.4,N,04.8,M*0B
$IIMTA,23.6,C*02
$IIMTW,21.3,C*13
$IIVWT,054.,L,09.4,N,04.8,M,017.4,K*63
$IIHDG,091.,,,,*71
$IIHDM,091.,M*1A
$IIGLL,4728.460,N,00239.599,W,082202,A,A*4E
$IIZDA,082202,09,06,2018,,*51
$ECRMB,A,0.215,L,003,004,4729.055,N,00234.841,W,3.282,79.517,4.700,V*31
$ECRMC,082204,A,4728.460,N,00239.599,W,4.700,87.000,090618,0.811,W*5F
$ECAPB,A,A,0.215,L,N,V,V,83.304,T,004,79.517,T,79.517,T*0D
$ECXTE,A,A,0.215,L,N*49
$IIVTG,089.,T,,M,04.7,N,08.7,K,A*27
$IIDPT,0011.1,,*73
$IIDBT,0036.4,f,0011.1,M,,*79
$IIVLW,0295.0,N,097.26,N*49
$IIVHW,,,090.,M,05.38,N,09.97,K*1F
$IIMWV,324,R,13.4,N,A*10
$IIVWR,036.,L,13.4,N,06.9,M,024.8,K*65
$IIMWD,,,037.,M,09.5,N,04.9,M*0B
$IIMTA,23.6,C*02
$IIMTW,21.3,C*13
$IIVWT,055.,L,09.5,N,04.9,M,017.6,K*60
$IIHDG,090.,,,,*70
$IIHDM,090.,M*1B
$ECRMB,A,0.215,L,003,004,4729.055,N,00234.841,W,3.282,79.517,4.700,V*31
$ECRMC,082205,A,4728.460,N,00239.599,W,4.700,89.000,090618,0.811,W*50
$ECAPB,A,A,0.215,L,N,V,V,83.304,T,004,79.517,T,79.517,T*0D
$ECXTE,A,A,0.215,L,N*49
$IIGLL,4728.460,N,00239.595,W,082204,A,A*44
$IIZDA,082204,09,06,2018,,*57
$IIVTG,083.,T,,M,04.7,N,08.7,K,A*2D
$IIDPT,0011.0,,*72
$IIDBT,0036.1,f,0011.0,M,,*7D
$IIVLW,0295.0,N,097.27,N*48
$IIVHW,,,090.,M,05.38,N,09.97,K*1F
$IIMWV,324,R,13.4,N,A*10
$IIVWR,036.,L,13.4,N,06.9,M,024.8,K*65
$IIMWD,,,035.,M,09.5,N,04.9,M*09
$IIMTA,23.6,C*02
$IIMTW,21.3,C*13
$IIVWT,055.,L,09.5,N,04.9,M,017.6,K*60
$IIHDG,090.,,,,*70
$IIHDM,090.,M*1B
$ECRMB,A,0.215,L,003,004,4729.055,N,00234.841,W,3.279,79.508,4.700,V*3B
$ECRMC,082206,A,4728.460,N,00239.595,W,4.700,83.000,090618,0.811,W*55
$ECAPB,A,A,0.215,L,N,V,V,83.304,T,004,79.508,T,79.508,T*0D
$ECXTE,A,A,0.215,L,N*49
$IIGLL,4728.460,N,00239.595,W,082204,A,A*44
$IIZDA,082204,09,06,2018,,*57
$IIVTG,083.,T,,M,04.8,N,08.9,K,A*2C
$IIDPT,0011.0,,*72
$IIDBT,0036.1,f,0011.0,M,,*7D
$IIVLW,0295.0,N,097.27,N*48
$IIVHW,,,090.,M,05.40,N,10.00,K*16
$IIMWV,324,R,13.4,N,A*10
$IIVWR,036.,L,13.4,N,06.9,M,024.8,K*65
$IIMWD,,,035.,M,09.5,N,04.9,M*09
$IIMTA,23.6,C*02
$IIMTW,21.3,C*13
$IIVWT,055.,L,09.5,N,04.9,M,017.6,K*60
$ECRMB,A,0.215,L,003,004,4729.055,N,00234.841,W,3.279,79.508,4.800,V*34
$ECRMC,082207,A,4728.460,N,00239.595,W,4.800,83.000,090618,0.811,W*5B
$ECAPB,A,A,0.215,L,N,V,V,83.304,T,004,79.508,T,79.508,T*0D
$ECXTE,A,A,0.215,L,N*49
$IIHDG,090.,,,,*70
$IIHDM,090.,M*1B
$IIGLL,4728.460,N,00239.591,W,082206,A,A*42
$IIZDA,082206,09,06,2018,,*55
$IIVTG,085.,T,,M,04.9,N,09.1,K,A*22
$IIDPT,0011.0,,*72
$IIDBT,0036.1,f,0011.0,M,,*7D
$IIVLW,0295.0,N,097.27,N*48
$IIVHW,,,090.,M,05.39,N,09.98,K*11
$IIMWV,324,R,13.4,N,A*10
$IIVWR,036.,L,13.4,N,06.9,M,024.8,K*65
$IIMWD,,,035.,M,09.5,N,04.9,M*09
$IIMTA,23.6,C*02
$IIMTW,21.3,C*13
$ECRMB,A,0.215,L,003,004,4729.055,N,00234.841,W,3.276,79.499,4.900,V*33
$ECRMC,082208,A,4728.460,N,00239.591,W,4.900,85.000,090618,0.811,W*57
$ECAPB,A,A,0.215,L,N,V,V,83.304,T,004,79.499,T,79.499,T*0D
$ECXTE,A,A,0.215,L,N*49
$IIVWT,055.,L,09.5,N,04.9,M,017.6,K*60
$IIHDG,090.,,,,*70
$IIHDM,089.,M*13
$IIGLL,4728.460,N,00239.591,W,082206,A,A*42
$IIZDA,082206,09,06,2018,,*55
$IIVTG,085.,T,,M,04.9,N,09.1,K,A*22
$IIDPT,0011.0,,*72
$IIDBT,0036.1,f,0011.0,M,,*7D
$IIVLW,0295.0,N,097.27,N*48
$IIVHW,,,089.,M,05.40,N,10.00,K*1E
$IIMWV,324,R,13.3,N,A*17
$IIVWR,036.,L,13.3,N,06.8,M,024.6,K*6D
$IIMWD,,,033.,M,09.4,N,04.8,M*0F
$IIMTA,23.6,C*02
$ECRMB,A,0.215,L,003,004,4729.055,N,00234.841,W,3.276,79.499,4.900,V*33
$ECRMC,082209,A,4728.460,N,00239.591,W,4.900,85.000,090618,0.811,W*56
$ECAPB,A,A,0.215,L,N,V,V,83.304,T,004,79.499,T,79.499,T*0D
$ECXTE,A,A,0.215,L,N*49
$IIMTW,21.3,C*13
$IIVWT,056.,L,09.4,N,04.8,M,017.4,K*61
$IIHDG,089.,,,,*78
$IIHDM,089.,M*13
$IIGLL,4728.461,N,00239.587,W,082208,A,A*4A
$IIZDA,082208,09,06,2018,,*5B
$IIVTG,085.,T,,M,04.7,N,08.7,K,A*2B
$IIDPT,0011.0,,*72
$IIDBT,0036.1,f,0011.0,M,,*7D
$IIVLW,0295.0,N,097.27,N*48
$IIVHW,,,089.,M,05.40,N,10.00,K*1E
$IIMWV,324,R,13.3,N,A*17
$IIVWR,036.,L,13.3,N,06.8,M,024.6,K*6D
$IIMWD,,,033.,M,09.4,N,04.8,M*0F
$ECRMB,A,0.215,L,003,004,4729.055,N,00234.841,W,3.274,79.508,4.700,V*36
$ECRMC,082210,A,4728.461,N,00239.587,W,4.700,85.000,090618,0.811,W*56
$ECAPB,A,A,0.215,L,N,V,V,83.304,T,004,79.508,T,79.508,T*0D
$ECXTE,A,A,0.215,L,N*49
$IIMTA,23.6,C*02
$IIMTW,21.3,C*13
$IIVWT,056.,L,09.4,N,04.8,M,017.4,K*61
$IIHDG,089.,,,,*78
$IIHDM,089.,M*13
$IIGLL,4728.461,N,00239.587,W,082210,A,A*43
$IIZDA,082210,09,06,2018,,*52
$IIVTG,085.,T,,M,04.7,N,08.7,K,A*2B
$IIDPT,0011.0,,*72
$IIDBT,0036.1,f,0011.0,M,,*7D
$IIVLW,0295.0,N,097.28,N*47
$IIVHW,,,089.,M,05.39,N,09.98,K*19
$IIMWV,324,R,13.3,N,A*17
$IIVWR,036.,L,13.3,N,06.8,M,024.6,K*6D
$ECRMB,A,0.215,L,003,004,4729.055,N,00234.841,W,3.274,79.508,4.700,V*36
$ECRMC,082211,A,4728.461,N,00239.587,W,4.700,85.000,090618,0.811,W*57
$ECAPB,A,A,0.215,L,N,V,V,83.304,T,004,79.508,T,79.508,T*0D
$ECXTE,A,A,0.215,L,N*49
$IIMWD,,,034.,M,09.4,N,04.8,M*08
$IIMTA,23.6,C*02
$IIMTW,21.3,C*13
$IIVWT,055.,L,09.4,N,04.8,M,017.4,K*62
$IIHDG,089.,,,,*78
$IIHDM,089.,M*13
$IIGLL,4728.461,N,00239.584,W,082210,A,A*40
$IIZDA,082210,09,06,2018,,*52
$IIVTG,082.,T,,M,04.7,N,08.7,K,A*2C
$IIDPT,0011.0,,*72
$IIDBT,0036.1,f,0011.0,M,,*7D
$IIVLW,0295.0,N,097.28,N*47
$IIVHW,,,089.,M,05.43,N,10.06,K*1B
$IIMWV,324,R,13.3,N,A*17
$ECRMB,A,0.215,L,003,004,4729.055,N,00234.841,W,3.272,79.502,4.700,V*3A
$ECRMC,082212,A,4728.461,N,00239.584,W,4.700,82.000,090618,0.811,W*50
$ECAPB,A,A,0.215,L,N,V,V,83.304,T,004,79.502,T,79.502,T*0D
$ECXTE,A,A,0.215,L,N*49
$IIVWR,036.,L,13.3,N,06.8,M,024.6,K*6D
$IIMWD,,,033.,M,09.4,N,04.8,M*0F
$IIMTA,23.6,C*02
$IIMTW,21.3,C*13
$IIVWT,056.,L,09.4,N,04.8,M,017.4,K*61
$IIHDG,089.,,,,*78
$IIHDM,089.,M*13
$IIGLL,4728.461,N,00239.580,W,082212,A,A*46
$IIZDA,082212,09,06,2018,,*50
$IIVTG,082.,T,,M,04.7,N,08.7,K,A*2C
$IIDPT,0011.0,,*72
$IIDBT,0036.1,f,0011.0,M,,*7D
$IIVLW,0295.0,N,097.28,N*47
$IIVHW,,,089.,M,05.43,N,10.06,K*1B
$ECRMB,A,0.215,L,003,004,4729.055,N,00234.841,W,3.269,79.493,4.700,V*39
$ECRMC,082213,A,4728.461,N,00239.580,W,4.700,82.000,090618,0.811,W*55
$ECAPB,A,A,0.215,L,N,V,V,83.304,T,004,79.493,T,79.493,T*0D
$ECXTE,A,A,0.215,L,N*49
$IIMWV,324,R,13.2,N,A*16
$IIVWR,036.,L,13.2,N,06.8,M,024.4,K*6E
$IIMWD,,,033.,M,09.4,N,04.8,M*0F
$IIMTA,23.7,C*03
$IIMTW,21.3,C*13
$IIVWT,056.,L,09.4,N,04.8,M,017.4,K*61
$IIHDG,089.,,,,*78
$IIHDM,089.,M*13
$IIGLL,4728.461,N,00239.580,W,082212,A,A*46
$IIZDA,082212,09,06,2018,,*50
$IIVTG,086.,T,,M,04.9,N,09.1,K,A*21
$IIDPT,0011.0,,*72
$IIDBT,0036.1,f,0011.0,M,,*7D
$IIVLW,0295.0,N,097.28,N*47
$ECRMB,A,0.215,L,003,004,4729.055,N,00234.841,W,3.269,79.493,4.900,V*37
$ECRMC,082214,A,4728.461,N,00239.580,W,4.900,86.000,090618,0.811,W*58
$ECAPB,A,A,0.215,L,N,V,V,83.304,T,004,79.493,T,79.493,T*0D
$ECXTE,A,A,0.215,L,N*49
$IIVHW,,,089.,M,05.43,N,10.05,K*18
$IIMWV,324,R,13.3,N,A*17
$IIVWR,036.,L,13.3,N,06.8,M,024.6,K*6D
$IIMWD,,,033.,M,09.3,N,04.8,M*08
$IIMTA,23.7,C*03
$IIMTW,21.3,C*13
$IIVWT,056.,L,09.3,N,04.8,M,017.2,K*60
$IIHDG,088.,,,,*79
$IIHDM,088.,M*12
$IIGLL,4728.461,N,00239.576,W,082214,A,A*49
$IIZDA,082214,09,06,2018,,*56
$IIVTG,086.,T,,M,04.9,N,09.1,K,A*21
$IIDPT,0011.0,,*72
$IIDBT,0036.1,f,0011.0,M,,*7D
$ECRMB,A,0.216,L,003,004,4729.055,N,00234.841,W,3.266,79.484,4.900,V*3D
$ECRMC,082215,A,4728.461,N,00239.576,W,4.900,86.000,090618,0.811,W*50
$ECAPB,A,A,0.216,L,N,V,V,83.304,T,004,79.484,T,79.484,T*0E
$ECXTE,A,A,0.216,L,N*4A
$IIVLW,0295.0,N,097.28,N*47
$IIVHW,,,088.,M,05.43,N,10.05,K*19
$IIMWV,324,R,13.3,N,A*17
$IIVWR,036.,L,13.3,N,06.8,M,024.6,K*6D
$IIMWD,,,033.,M,09.4,N,04.8,M*0F
$IIMTA,23.7,C*03
$IIMTW,21.3,C*13
$IIVWT,056.,L,09.4,N,04.8,M,017.4,K*61
$IIHDG,088.,,,,*79
$IIHDM,088.,M*12
$IIGLL,4728.461,N,00239.576,W,082214,A,A*49
$IIZDA,082214,09,06,2018,,*56
$IIVTG,085.,T,,M,04.7,N,08.7,K,A*2B
$IIDPT,0011.0,,*72
$ECRMB,A,0.216,L,003,004,4729.055,N,00234.841,W,3.266,79.484,4.700,V*33
$ECRMC,082216,A,4728.461,N,00239.576,W,4.700,85.000,090618,0.811,W*5E
$ECAPB,A,A,0.216,L,N,V,V,83.304,T,004,79.484,T,79.484,T*0E
$ECXTE,A,A,0.216,L,N*4A
$IIDBT,0036.1,f,0011.0,M,,*7D
$IIVLW,0295.0,N,097.28,N*47
$IIVHW,,,088.,M,05.44,N,10.07,K*1C
$IIMWV,324,R,13.3,N,A*17
$IIVWR,036.,L,13.3,N,06.8,M,024.6,K*6D
$IIMWD,,,032.,M,09.4,N,04.8,M*0E
$IIMTA,23.7,C*03
$IIMTW,21.3,C*13
$IIVWT,056.,L,09.4,N,04.8,M,017.4,K*61
$IIHDG,088.,,,,*79
$IIHDM,088.,M*12
$IIGLL,4728.461,N,00239.572,W,082216,A,A*4F
$IIZDA,082216,09,06,2018,,*54
$ECRMB,A,0.216,L,003,004,4729.055,N,00234.841,W,3.264,79.476,4.700,V*3C
$ECRMC,082217,A,4728.461,N,00239.572,W,4.700,85.000,090618,0.811,W*5B
$ECAPB,A,A,0.216,L,N,V,V,83.304,T,004,79.476,T,79.476,T*0E
$ECXTE,A,A,0.216,L,N*4A
$IIVTG,084.,T,,M,04.7,N,08.7,K,A*2A
$IIDPT,0011.0,,*72
$IIDBT,0036.1,f,0011.0,M,,*7D
$IIVLW,0295.0,N,097.28,N*47
$IIVHW,,,088.,M,05.42,N,10.04,K*19
$IIMWV,324,R,13.3,N,A*17
$IIVWR,036.,L,13.3,N,06.8,M,024.6,K*6D
$IIMWD,,,032.,M,09.4,N,04.8,M*0E
$IIMTA,23.7,C*03
$IIMTW,21.3,C*13
$IIVWT,056.,L,09.4,N,04.8,M,017.4,K*61
$IIHDG,088.,,,,*79
$IIHDM,088.,M*12
$IIGLL,4728.461,N,00239.572,W,082216,A,A*4F
$IIZDA,082216,09,06,2018,,*54
$ECRMB,A,0.216,L,003,004,4729.055,N,00234.841,W,3.264,79.476,4.700,V*3C
$ECRMC,082218,A,4728.461,N,00239.572,W,4.700,84.000,090618,0.811,W*55
$ECAPB,A,A,0.216,L,N,V,V,83.304,T,004,79.476,T,79.476,T*0E
$ECXTE,A,A,0.216,L,N*4A
$IIVTG,084.,T,,M,04.7,N,08.7,K,A*2A
$IIDPT,0011.1,,*73
$IIDBT,0036.4,f,0011.1,M,,*79
$IIVLW,0295.0,N,097.29,N*46
$IIVHW,,,088.,M,05.42,N,10.03,K*1E
$IIMWV,324,R,13.2,N,A*16
$IIVWR,036.,L,13.2,N,06.8,M,024.4,K*6E
$IIMWD,,,032.,M,09.4,N,04.8,M*0E
$IIMTA,23.7,C*03
$IIMTW,21.3,C*13
$IIVWT,056.,L,09.4,N,04.8,M,017.4,K*61
$IIHDG,088.,,,,*79
$IIHDM,088.,M*12
$IIGLL,4728.462,N,00239.568,W,082218,A,A*49
$ECRMB,A,0.215,L,003,004,4729.055,N,00234.841,W,3.261,79.484,4.700,V*37
$ECRMC,082219,A,4728.462,N,00239.568,W,4.700,84.000,090618,0.811,W*5C
$ECAPB,A,A,0.215,L,N,V,V,83.304,T,004,79.484,T,79.484,T*0D
$ECXTE,A,A,0.215,L,N*49
$IIZDA,082218,09,06,2018,,*5A
$IIVTG,082.,T,,M,05.0,N,09.3,K,A*2F
$IIDPT,0011.1,,*73
$IIDBT,0036.4,f,0011.1,M,,*79
$IIVLW,0295.0,N,097.29,N*46
$IIVHW,,,088.,M,05.44,N,10.08,K*13
$IIMWV,325,R,13.2,N,A*17
$IIVWR,035.,L,13.2,N,06.8,M,024.4,K*6D
$IIMWD,,,032.,M,09.3,N,04.8,M*09
$IIMTA,23.7,C*03
$IIMTW,21.3,C*13
$IIVWT,056.,L,09.3,N,04.8,M,017.2,K*60
$IIHDG,088.,,,,*79
$IIHDM,088.,M*12
$ECRMB,A,0.215,L,003,004,4729.055,N,00234.841,W,3.261,79.484,5.000,V*31
$ECRMC,082220,A,4728.462,N,00239.568,W,5.000,82.000,090618,0.811,W*56
$ECAPB,A,A,0.215,L,N,V,V,83.304,T,004,79.484,T,79.484,T*0D
$ECXTE,A,A,0.215,L,N*49
$IIGLL,4728.462,N,00239.568,W,082220,A,A*42
$IIZDA,082220,09,06,2018,,*51
$IIVTG,082.,T,,M,05.0,N,09.3,K,A*2F
$IIDPT,0011.1,,*73
$IIDBT,0036.4,f,0011.1,M,,*79
$IIVLW,0295.0,N,097.29,N*46
$IIVHW,,,088.,M,05.44,N,10.07,K*1C
$IIMWV,325,R,13.1,N,A*14
$IIVWR,035.,L,13.1,N,06.7,M,024.3,K*66
$IIMWD,,,033.,M,09.1,N,04.7,M*05
$IIMTA,23.7,C*03
$IIMTW,21.3,C*13
$IIVWT,055.,L,09.1,N,04.7,M,016.9,K*64
$IIHDG,088.,,,,*79
$ECRMB,A,0.215,L,003,004,4729.055,N,00234.841,W,3.261,79.484,5.000,V*31
$ECRMC,082221,A,4728.462,N,00239.568,W,5.000,82.000,090618,0.811,W*57
$ECAPB,A,A,0.215,L,N,V,V,83.304,T,004,79.484,T,79.484,T*0D
$ECXTE,A,A,0.215,L,N*49
$IIHDM,088.,M*12
$IIGLL,4728.462,N,00239.564,W,082220,A,A*4E
$IIZDA,082220,09,06,2018,,*51
$IIVTG,082.,T,,M,04.8,N,08.9,K,A*2D
$IIDPT,0011.0,,*72
$IIDBT,0036.1,f,0011.0,M,,*7D
$IIVLW,0295.0,N,097.29,N*46
$IIVHW,,,088.,M,05.45,N,10.09,K*13
$IIMWV,325,R,13.1,N,A*14
$IIVWR,035.,L,13.1,N,06.7,M,024.3,K*66
$IIMWD,,,033.,M,09.1,N,04.7,M*05
$IIMTA,23.7,C*03
$IIMTW,21.3,C*13
$ECRMB,A,0.216,L,003,004,4729.055,N,00234.841,W,3.258,79.475,4.800,V*3F
$ECRMC,082222,A,4728.462,N,00239.564,W,4.800,82.000,090618,0.811,W*51
$ECAPB,A,A,0.216,L,N,V,V,83.304,T,004,79.475,T,79.475,T*0E
$ECXTE,A,A,0.216,L,N*4A
$IIVWT,055.,L,09.1,N,04.7,M,016.9,K*64
$IIHDG,088.,,,,*79
$IIHDM,088.,M*12
$IIGLL,4728.462,N,00239.564,W,082222,A,A*4C
$IIZDA,082222,09,06,2018,,*53
$IIVTG,082.,T,,M,04.8,N,08.9,K,A*2D
$IIDPT,0011.0,,*72
$IIDBT,0036.1,f,0011.0,M,,*7D
$IIVLW,0295.0,N,097.29,N*46
$IIVHW,,,088.,M,05.44,N,10.08,K*13
$IIMWV,325,R,13.1,N,A*14
$IIVWR,035.,L,13.1,N,06.7,M,024.3,K*66
$IIMWD,,,032.,M,09.1,N,04.7,M*04
$IIMTA,23.7,C*03
$IIMTW,21.3,C*13
$ECRMB,A,0.216,L,003,004,4729.055,N,00234.841,W,3.258,79.475,4.800,V*3F
$ECRMC,082223,A,4728.462,N,00239.564,W,4.800,82.000,090618,0.811,W*50
$ECAPB,A,A,0.216,L,N,V,V,83.304,T,004,79.475,T,79.475,T*0E
$ECXTE,A,A,0.216,L,N*4A
$IIVWT,056.,L,09.1,N,04.7,M,016.9,K*67
$IIHDG,088.,,,,*79
$IIHDM,088.,M*12
$IIGLL,4728.462,N,00239.560,W,082222,A,A*48
$IIZDA,082222,09,06,2018,,*53
$IIVTG,083.,T,,M,04.7,N,08.7,K,A*2D
$IIDPT,0011.0,,*72
$IIDBT,0036.1,f,0011.0,M,,*7D
$IIVLW,0295.0,N,097.29,N*46
$IIVHW,,,088.,M,05.42,N,10.04,K*19
$IIMWV,325,R,13.1,N,A*14
$IIVWR,035.,L,13.1,N,06.7,M,024.3,K*66
$IIMWD,,,033.,M,09.2,N,04.7,M*06
$ECRMB,A,0.216,L,003,004,4729.055,N,00234.841,W,3.255,79.467,4.700,V*3E
$ECRMC,082224,A,4728.462,N,00239.560,W,4.700,83.000,090618,0.811,W*5D
$ECAPB,A,A,0.216,L,N,V,V,83.304,T,004,79.467,T,79.467,T*0E
$ECXTE,A,A,0.216,L,N*4A
$IIMTA,23.7,C*03
$IIMTW,21.3,C*13
$IIVWT,055.,L,09.2,N,04.7,M,017.0,K*6F
$IIHDG,088.,,,,*79
$IIHDM,088.,M*12
$IIGLL,4728.463,N,00239.556,W,082224,A,A*4A
$IIZDA,082224,09,06,2018,,*55
$IIVTG,083.,T,,M,04.7,N,08.7,K,A*2D
$IIDPT,0011.0,,*72
$IIDBT,0036.1,f,0011.0,M,,*7D
$IIVLW,0295.0,N,097.30,N*4E
$IIVHW,,,088.,M,05.40,N,10.00,K*1F
$IIMWV,325,R,13.0,N,A*15
$IIVWR,035.,L,13.0,N,06.7,M,024.1,K*65
$ECRMB,A,0.215,L,003,004,4729.055,N,00234.841,W,3.253,79.475,4.700,V*38
$ECRMC,082225,A,4728.463,N,00239.556,W,4.700,83.000,090618,0.811,W*58
$ECAPB,A,A,0.215,L,N,V,V,83.304,T,004,79.475,T,79.475,T*0D
$ECXTE,A,A,0.215,L,N*49
$IIMWD,,,033.,M,09.1,N,04.7,M*05
$IIMTA,23.7,C*03
$IIMTW,21.3,C*13
$IIVWT,055.,L,09.1,N,04.7,M,016.9,K*64
$IIHDG,088.,,,,*79
$IIHDM,088.,M*12
$IIGLL,4728.463,N,00239.556,W,082224,A,A*4A
$IIZDA,082224,09,06,2018,,*55
$IIVTG,084.,T,,M,04.7,N,08.7,K,A*2A
$IIDPT,0010.9,,*7A
$IIDBT,0035.8,f,0010.9,M,,*7F
$IIVLW,0295.0,N,097.30,N*4E
$IIVHW,,,088.,M,05.35,N,09.91,K*1D
$IIMWV,325,R,13.1,N,A*14
$ECRMB,A,0.215,L,003,004,4729.055,N,00234.841,W,3.253,79.475,4.700,V*38
$ECRMC,082226,A,4728.463,N,00239.556,W,4.700,84.000,090618,0.811,W*5C
$ECAPB,A,A,0.215,L,N,V,V,83.304,T,004,79.475,T,79.475,T*0D
$ECXTE,A,A,0.215,L,N*49
$IIVWR,035.,L,13.1,N,06.7,M,024.3,K*66
$IIMWD,,,033.,M,09.1,N,04.7,M*05
$IIMTA,23.7,C*03
$IIMTW,21.3,C*13
$IIVWT,055.,L,09.1,N,04.7,M,016.9,K*64
$IIHDG,088.,,,,*79
$IIHDM,088.,M*12
$IIGLL,4728.463,N,00239.552,W,082226,A,A*4C
$IIZDA,082226,09,06,2018,,*57
$IIVTG,083.,T,,M,04.6,N,08.5,K,A*2E
$IIDPT,0011.0,,*72
$IIDBT,0036.1,f,0011.0,M,,*7D
$IIVLW,0295.0,N,097.30,N*4E
$IIVHW,,,088.,M,05.35,N,09.90,K*1C
$ECRMB,A,0.216,L,003,004,4729.055,N,00234.841,W,3.250,79.467,4.600,V*3A
$ECRMC,082227,A,4728.463,N,00239.552,W,4.600,83.000,090618,0.811,W*5F
$ECAPB,A,A,0.216,L,N,V,V,83.304,T,004,79.467,T,79.467,T*0E
$ECXTE,A,A,0.216,L,N*4A
$IIMWV,325,R,13.2,N,A*17
$IIVWR,035.,L,13.2,N,06.8,M,024.4,K*6D
$IIMWD,,,034.,M,09.2,N,04.7,M*01
$IIMTA,23.7,C*03
$IIMTW,21.3,C*13
$IIVWT,054.,L,09.2,N,04.7,M,017.0,K*6E
$IIHDG,088.,,,,*79
$IIHDM,088.,M*12
$IIGLL,4728.463,N,00239.552,W,082226,A,A*4C
$IIZDA,082226,09,06,2018,,*57
$IIVTG,083.,T,,M,04.6,N,08.5,K,A*2E
$IIDPT,0011.0,,*72
$IIDBT,0036.1,f,0011.0,M,,*7D
$IIVLW,0295.0,N,097.30,N*4E
$ECRMB,A,0.216,L,003,004,4729.055,N,00234.841,W,3.250,79.467,4.600,V*3A
$ECRMC,082228,A,4728.463,N,00239.552,W,4.600,83.000,090618,0.811,W*50
$ECAPB,A,A,0.216,L,N,V,V,83.304,T,004,79.467,T,79.467,T*0E
$ECXTE,A,A,0.216,L,N*4A
$IIVHW,,,088.,M,05.31,N,09.84,K*1D
$IIMWV,325,R,13.2,N,A*17
$IIVWR,035.,L,13.2,N,06.8,M,024.4,K*6D
$IIMWD,,,034.,M,09.3,N,04.8,M*0F
$IIMTA,23.7,C*03
$IIMTW,21.3,C*13
$IIVWT,054.,L,09.3,N,04.8,M,017.2,K*62
$IIHDG,088.,,,,*79
$IIHDM,088.,M*12
$IIGLL,4728.463,N,00239.549,W,082228,A,A*48
$IIZDA,082228,09,06,2018,,*59
$IIVTG,084.,T,,M,04.6,N,08.5,K,A*29
$IIDPT,0011.0,,*72
$IIDBT,0036.1,f,0011.0,M,,*7D
$ECRMB,A,0.216,L,003,004,4729.055,N,00234.841,W,3.248,79.460,4.600,V*34
$ECRMC,082229,A,4728.463,N,00239.549,W,4.600,84.000,090618,0.811,W*5C
$ECAPB,A,A,0.216,L,N,V,V,83.304,T,004,79.460,T,79.460,T*0E
$ECXTE,A,A,0.216,L,N*4A
$IIVLW,0295.0,N,097.30,N*4E
$IIVHW,,,088.,M,05.31,N,09.83,K*1A
$IIMWV,325,R,13.2,N,A*17
$IIVWR,035.,L,13.2,N,06.8,M,024.4,K*6D
$IIMWD,,,034.,M,09.3,N,04.8,M*0F
$IIMTA,23.7,C*03
$IIMTW,21.3,C*13
$IIVWT,054.,L,09.3,N,04.8,M,017.2,K*62
$IIHDG,089.,,,,*78
$IIHDM,089.,M*13
$IIGLL,4728.463,N,00239.549,W,082228,A,A*48
$IIZDA,082228,09,06,2018,,*59
$IIVTG,084.,T,,M,04.6,N,08.5,K,A*29
$IIDPT,0011.1,,*73
$ECRMB,A,0.216,L,003,004,4729.055,N,00234.841,W,3.248,79.460,4.600,V*34
$ECRMC,082230,A,4728.463,N,00239.549,W,4.600,84.000,090618,0.811,W*54
$ECAPB,A,A,0.216,L,N,V,V,83.304,T,004,79.460,T,79.460,T*0E
$ECXTE,A,A,0.216,L,N*4A
$IIDBT,0036.4,f,0011.1,M,,*79
$IIVLW,0295.0,N,097.30,N*4E
$IIVHW,,,089.,M,05.31,N,09.83,K*1B
$IIMWV,325,R,13.2,N,A*17
$IIVWR,035.,L,13.2,N,06.8,M,024.4,K*6D
$IIMWD,,,035.,M,09.3,N,04.8,M*0E
$IIMTA,23.7,C*03
$IIMTW,21.3,C*13
$IIVWT,054.,L,09.3,N,04.8,M,017.2,K*62
$IIHDG,089.,,,,*78
$IIHDM,089.,M*13
$IIGLL,4728.463,N,00239.545,W,082230,A,A*4D
$IIZDA,082230,09,06,2018,,*50
$IIVTG,085.,T,,M,04.8,N,08.9,K,A*2A
$ECRMB,A,0.216,L,003,004,4729.055,N,00234.841,W,3.245,79.451,4.800,V*35
$ECRMC,082231,A,4728.463,N,00239.545,W,4.800,85.000,090618,0.811,W*56
$ECAPB,A,A,0.216,L,N,V,V,83.304,T,004,79.451,T,79.451,T*0E
$ECXTE,A,A,0.216,L,N*4A
$IIDPT,0011.1,,*73
$IIDBT,0036.4,f,0011.1,M,,*79
$IIVLW,0295.0,N,097.31,N*4F
$IIVHW,,,089.,M,05.30,N,09.82,K*1B
$IIMWV,325,R,13.2,N,A*17
$IIVWR,035.,L,13.2,N,06.8,M,024.4,K*6D
$IIMWD,,,035.,M,09.3,N,04.8,M*0E
$IIMTA,23.7,C*03
$IIMTW,21.3,C*13
$IIVWT,054.,L,09.3,N,04.8,M,017.2,K*62
$IIHDG,089.,,,,*78
$IIHDM,089.,M*13
$IIGLL,4728.463,N,00239.545,W,082232,A,A*4F
$IIZDA,082232,09,06,2018,,*52
$ECRMB,A,0.216,L,003,004,4729.055,N,00234.841,W,3.245,79.451,4.800,V*35
$ECRMC,082232,A,4728.463,N,00239.545,W,4.800,85.000,090618,0.811,W*55
$ECAPB,A,A,0.216,L,N,V,V,83.304,T,004,79.451,T,79.451,T*0E
$ECXTE,A,A,0.216,L,N*4A
$IIVTG,085.,T,,M,04.8,N,08.9,K,A*2A
$IIDPT,0011.0,,*72
$IIDBT,0036.1,f,0011.0,M,,*7D
$IIVLW,0295.0,N,097.31,N*4F
$IIVHW,,,089.,M,05.32,N,09.86,K*1D
$IIMWV,325,R,13.3,N,A*16
$IIVWR,035.,L,13.3,N,06.8,M,024.6,K*6E
$IIMWD,,,035.,M,09.3,N,04.8,M*0E
$IIMTA,23.7,C*03
$IIMTW,21.3,C*13
$IIVWT,054.,L,09.3,N,04.8,M,017.2,K*62
$IIHDG,088.,,,,*79
$IIHDM,088.,M*12
$IIGLL,4728.463,N,00239.541,W,082232,A,A*4B
$ECRMB,A,0.216,L,003,004,4729.055,N,00234.841,W,3.243,79.443,4.800,V*30
$ECRMC,082233,A,4728.463,N,00239.541,W,4.800,85.000,090618,0.811,W*50
$ECAPB,A,A,0.216,L,N,V,V,83.304,T,004,79.443,T,79.443,T*0E
$ECXTE,A,A,0.216,L,N*4A
$IIZDA,082232,09,06,2018,,*52
$IIVTG,085.,T,,M,04.7,N,08.7,K,A*2B
$IIDPT,0011.0,,*72
$IIDBT,0036.1,f,0011.0,M,,*7D
$IIVLW,0295.0,N,097.31,N*4F
$IIVHW,,,088.,M,05.32,N,09.86,K*1C
$IIMWV,324,R,13.3,N,A*17
$IIVWR,036.,L,13.3,N,06.8,M,024.6,K*6D
$IIMWD,,,034.,M,09.4,N,04.8,M*08
$IIMTA,23.7,C*03
$IIMTW,21.3,C*13
$IIVWT,054.,L,09.4,N,04.8,M,017.4,K*63
$IIHDG,088.,,,,*79
$IIHDM,088.,M*12
$ECRMB,A,0.216,L,003,004,4729.055,N,00234.841,W,3.243,79.443,4.700,V*3F
$ECRMC,082234,A,4728.463,N,00239.541,W,4.700,85.000,090618,0.811,W*58
$ECAPB,A,A,0.216,L,N,V,V,83.304,T,004,79.443,T,79.443,T*0E
$ECXTE,A,A,0.216,L,N*4A
$IIGLL,4728.464,N,00239.537,W,082234,A,A*4B
$IIZDA,082234,09,06,2018,,*54
$IIVTG,085.,T,,M,04.7,N,08.7,K,A*2B
$IIDPT,0011.0,,*72
$IIDBT,0036.1,f,0011.0,M,,*7D
$IIVLW,0295.0,N,097.31,N*4F
$IIVHW,,,088.,M,05.32,N,09.86,K*1C
$IIMWV,325,R,13.2,N,A*17
$IIVWR,035.,L,13.2,N,06.8,M,024.4,K*6D
$IIMWD,,,034.,M,09.3,N,04.8,M*0F
$IIMTA,23.7,C*03
$IIMTW,21.3,C*13
