<<<<<<< HEAD
$PSRT,001,,,***************************************34
$PSRT,001,,,Software Bootloader Ver 4.0 *57
$PSRT,001,,,--- Jul  4 2008 13:17:18 ---*54
$PSRT,VER,,,,,,00001403*6E
$PSRT,001,,,Booting main application*13
$PSRT,001,,,--- -----------------------------------*14
$PSRT,001,,,--- Class B AIS Transponder *36
$PSRT,001,,,--- *39
$PSRT,001,,,--- SW Ver 10.0.13.0 May 25 2010 14:24:04 *27
$PSRT,001,,,--- FPGA Ver 5   HW Ver unknown    *4B
$PSRT,VER,,,00000000,002F760C,00000005,0A000D00 *4E
$PSRT,001,,,--- Loading previous settings...    *45
$GPTXT,01,01,02,ANTSTATUS=OK*3B
$GPTXT,01,01,02,ANTSTATUS=OK*3B
!AIVDO,1,1,,,B3HvFrP3wk?8mP=18D3Q3wv5kP06,0*73
!AIVDO,1,1,,,B3HvFrP3wk?8mP=18D3Q3wv5kP06,0*73
!AIVDO,1,1,,,B3HvFrP3wk?8mP=18D3Q3wv5kP06,0*73
!AIVDO,1,1,,,B3HvFrP3wk?8mP=18D3Q3wv5kP06,0*73
!AIVDO,1,1,,,B3HvFrP3wk?8mP=18D3Q3wv5kP06,0*73
!AIVDO,1,1,,,B3HvFrP3wk?8mP=18D3Q3wv5kP06,0*73
!AIVDO,1,1,,,B3HvFrP3wk?8mP=18D3Q3wv5kP06,0*73
!AIVDO,1,1,,,B3HvFrP3wk?8mP=18D3Q3wv5kP06,0*73
!AIVDO,1,1,,,B3HvFrP3wk?8mP=18D3Q3wv5kP06,0*73
!AIVDO,1,1,,,B3HvFrP3wk?8mP=18D3Q3wv5kP06,0*73
!AIVDO,1,1,,,B3HvFrP3wk?8mP=18D3Q3wv5kP06,0*73
!AIVDO,1,1,,,B3HvFrP3wk?8mP=18D3Q3wv5kP06,0*73
!AIVDO,1,1,,,B3HvFrP3wk?8mP=18D3Q3wv5kP06,0*73
!AIVDO,1,1,,,B3HvFrP3wk?8mP=18D3Q3wv5kP06,0*73
!AIVDO,1,1,,,B3HvFrP3wk?8mP=18D3Q3wv5kP06,0*73
!AIVDO,1,1,,,B3HvFrP3wk?8mP=18D3Q3wv5kP06,0*73
!AIVDM,1,1,,A,B3Ht4qP00ouAhiVjmToHVe012JGQ,0*5A
!AIVDM,1,1,,A,B3Ht4qP00ouAhiVjmToHVe012JGQ,0*5A
!AIVDO,1,1,,,B3HvFrP3wk?8mP=18D3Q3wv5kP06,0*73
!AIVDO,1,1,,,B3HvFrP3wk?8mP=18D3Q3wv5kP06,0*73
!AIVDO,1,1,,,B3HvFrP3wk?8mP=18D3Q3wv5kP06,0*73
!AIVDO,1,1,,,B3HvFrP3wk?8mP=18D3Q3wv5kP06,0*73
!AIVDO,1,1,,,B3HvFrP3wk?8mP=18D3Q3wv5kP06,0*73
!AIVDO,1,1,,,B3HvFrP3wk?8mP=18D3Q3wv5kP06,0*73
!AIVDO,1,1,,,B3HvFrP3wk?8mP=18D3Q3wv5kP06,0*73
!AIVDO,1,1,,,B3HvFrP3wk?8mP=18D3Q3wv5kP06,0*73
!AIVDO,1,1,,,B3HvFrP3wk?8mP=18D3Q3wv5kP06,0*73
!AIVDO,1,1,,,B3HvFrP3wk?8mP=18D3Q3wv5kP06,0*73
!AIVDO,1,1,,,B3HvFrP3wk?8mP=18D3Q3wv5kP06,0*73
!AIVDO,1,1,,,B3HvFrP3wk?8mP=18D3Q3wv5kP06,0*73
!AIVDO,1,1,,,B3HvFrP3wk?8mP=18D3Q3wv5kP06,0*73
!AIVDO,1,1,,,B3HvFrP3wk?8mP=18D3Q3wv5kP06,0*73
!AIVDO,1,1,,,B3HvFrP3wk?8mP=18D3Q3wv5kP06,0*73
!AIVDO,1,1,,,B3HvFrP3wk?8mP=18D3Q3wv5kP06,0*73
!AIVDO,1,1,,,B3HvFrP3wk?8mP=18D3Q3wv5kP06,0*73
!AIVDO,1,1,,,B3HvFrP3wk?8mP=18D3Q3wv5kP06,0*73
!AIVDO,1,1,,,B3HvFrP3wk?8mP=18D3Q3wv5kP06,0*73
!AIVDO,1,1,,,B3HvFrP3wk?8mP=18D3Q3wv5kP06,0*73
!AIVDO,1,1,,,B3HvFrP3wk?8mP=18D3Q3wv5kP06,0*73
!AIVDO,1,1,,,B3HvFrP3wk?8mP=18D3Q3wv5kP06,0*73
!AIVDM,1,1,,B,B3Hw3GP00?uAg16jpF;Q1EcUoP06,0*69
!AIVDM,1,1,,B,B3Hw3GP00?uAg16jpF;Q1EcUoP06,0*69
!AIVDO,1,1,,,B3HvFrP3wk?8mP=18D3Q3wv5kP06,0*73
!AIVDO,1,1,,,B3HvFrP3wk?8mP=18D3Q3wv5kP06,0*73
!AIVDO,1,1,,,B3HvFrP3wk?8mP=18D3Q3wv5kP06,0*73
!AIVDO,1,1,,,B3HvFrP3wk?8mP=18D3Q3wv5kP06,0*73
!AIVDO,1,1,,,B3HvFrP3wk?8mP=18D3Q3wv5kP06,0*73
!AIVDO,1,1,,,B3HvFrP3wk?8mP=18D3Q3wv5kP06,0*73
!AIVDO,1,1,,,B3HvFrP3wk?8mP=18D3Q3wv5kP06,0*73
!AIVDO,1,1,,,B3HvFrP3wk?8mP=18D3Q3wv5kP06,0*73
!AIVDO,1,1,,,B3HvFrP3wk?8mP=18D3Q3wv5kP06,0*73
!AIVDO,1,1,,,B3HvFrP3wk?8mP=18D3Q3wv5kP06,0*73
!AIVDO,1,1,,,B3HvFrP3wk?8mP=18D3Q3wv5kP06,0*73
!AIVDO,1,1,,,B3HvFrP3wk?8mP=18D3Q3wv5kP06,0*73
!AIVDO,1,1,,,B3HvFrP3wk?8mP=18D3Q3wv5kP06,0*73
!AIVDO,1,1,,,B3HvFrP3wk?8mP=18D3Q3wv5kP06,0*73
!AIVDO,1,1,,,B3HvFrP3wk?8mP=18D3Q3wv5kP06,0*73
!AIVDO,1,1,,,B3HvFrP3wk?8mP=18D3Q3wv5sP06,0*6B
$AITXT,01,01,25,AIS: Internal GNSS in use*7C
!AIVDO,1,1,,,B3HvFrP3wouAtT6jokoQ3wu5wP06,0*32
$AITXT,01,01,28,AIS: Internal SOG/COG in use*47
!AIVDO,1,1,,,B3HvFrP007uAtTVjoklOWwu5wP06,0*37
!AIVDO,1,1,,,B3HvFrP007uAtU6jokhPWwu5wP06,0*4D
$GPRMC,150801.00,A,4729.97719,N,00222.58454,W,0.016,,220520,,,A*6C
$GPGBS,150801.00,3.6,2.8,7.1,,,,*45
!AIVDO,1,1,,,B3HvFrP007uAtUVjokd03wu5wP06,0*25
$PSRT,001,,,Startup timer expired*61
!AIVDO,1,1,,,B3HvFrP007uAtV6jokd03wu5wP06,0*46
!AIVDO,1,1,,,B3HvFrP007uAtW6jok`QCwu5wP06,0*52
$GPRMC,150805.00,A,4729.97702,N,00222.58409,W,0.010,,220520,,,A*6C
!AIVDO,1,1,,,B3HvFrP007uAt`6jok`03wu5wP06,0*74
$GPGBS,150805.00,3.6,2.8,7.1,,,,*41
!AIVDO,1,1,,,B3HvFrP007uAt`6jokTSGwu5wP06,0*57
!AIVDO,1,1,,,B3HvFrP007uAt`Vjok`R?wu5wP06,0*7A
!AIVDO,1,1,,,B3HvFrP007uAt`VjokdQ?wu5wP06,0*7D
$GPRMC,150809.00,A,4729.97724,N,00222.58387,W,0.023,52.11,220520,,,A*4C
!AIVDO,1,1,,,B3HvFrP007uAta6jokhPWwu5wP06,0*79
$GPGBS,150809.00,3.6,2.8,7.1,,,,*4D
!AIVDO,1,1,,,B3HvFrP007uAta6jokhP7wu5wP06,0*19
!AIVDO,1,1,,,B3HvFrP007uAta6joklO;wu5wP06,0*0E
!AIVDO,1,1,,,B3HvFrP007uAta6jokpN?wu5wP06,0*17
$GPRMC,150813.00,A,4729.97753,N,00222.58382,W,0.023,46.70,220520,,,A*40
!AIVDO,1,1,,,B3HvFrP007uAta6joktM?wu5wP06,0*10
$GPGBS,150813.00,3.6,2.8,7.1,,,,*46
!AIVDO,1,1,,,B3HvFrP007uAta6jol0LOwu5wP06,0*22
!AIVDO,1,1,,,B3HvFrP007uAta6jol0KSwu5wP06,0*39
!AIVDO,1,1,,,B3HvFrP007uAta6jol003wu5wP06,0*22
$GPRMC,150817.00,A,4729.97767,N,00222.58384,W,0.015,,220520,,,A*6B
!AIVDO,1,1,,,B3HvFrP007uAta6jol003wu5wP06,0*22
$GPGBS,150817.00,3.7,2.8,7.1,,,,*43
!AIVDO,1,1,,,B3HvFrP00ouAta6jol4H7wu5sP06,0*06
!AIVDO,1,1,,,B3HvFrP00ouAtb6jol4E3wu5sP06,0*0C
!AIVDO,1,1,,,B3HvFrP01GuAtaVjol8BKwu5sP06,0*35
$GPRMC,150821.00,A,4729.97790,N,00222.58386,W,0.215,26.16,220520,,,D*4E
!AIVDO,1,1,,,B3HvFrP00WuAta6jol<@Gwu5sP06,0*4E
$GPGBS,150821.00,3.9,3.0,7.3,,,,*43
!AIVDO,1,1,,,B3HvFrP00WuAta6jol<@Cwu5sP06,0*4A
!AIVDO,1,1,,A,B3HvFrP00WuAta6jol<@Cwu5kP06,0*13
!AIVDO,1,1,,,B3HvFrP00ouAtVVjol@@?wu5sP06,0*25
!AIVDO,1,1,,,B3HvFrP00WuAtVVjol<@owu5sP06,0*31
$GPRMC,150825.00,A,4729.97772,N,00222.58436,W,0.037,29.20,220520,,,D*42
$GPGBS,150825.00,4.2,3.0,7.5,,,,*4D
!AIVDO,1,1,,,B3HvFrP007uAtVVjol4BCwu5sP06,0*77
!AIVDO,1,1,,,B3HvFrP007uAtVVjokpDgwu5sP06,0*16
!AIVDO,1,1,,,B3HvFrP007uAtW6jokhG?wu5sP06,0*34
!AIVDO,1,1,,,B3HvFrP007uAtW6jok`Igwu5sP06,0*6A
$GPRMC,150829.00,A,4729.97681,N,00222.58420,W,0.106,44.89,220520,,,D*4F
$GPGBS,150829.00,4.3,3.0,7.6,,,,*43
!AIVDO,1,1,,,B3HvFrP00GuAtW6jokPL3wu5sP06,0*7B
!AIVDM,1,1,,B,B3IFPiP00OuAfp6jmUGQ3wV1nDt:,0*6A
!AIVDM,1,1,,B,B3IFPiP00OuAfp6jmUGQ3wV1nDt:,0*6A
!AIVDO,1,1,,,B3HvFrP007uAtWVjokDJowu5sP06,0*25
!AIVDO,1,1,,,B3HvFrP00GuAtWVjok<Igwu5sP06,0*26
!AIVDO,1,1,,,B3HvFrP00WuAtWVjok4GSwu5sP06,0*04
$GPRMC,150833.00,A,4729.97601,N,00222.58413,W,0.047,36.25,220520,,,D*4B
$GPGBS,150833.00,4.1,3.0,7.6,,,,*4A
!AIVDO,1,1,,,B3HvFrP007uAtWVjok0Fcwu5sP06,0*51
!AIVDO,1,1,,,B3HvFrP00WuAtWVjok0GCwu5sP06,0*10
!AIVDO,1,1,,,B3HvFrP00ouAt`6jok0Howu5sP06,0*5C
!AIVDO,1,1,,,B3HvFrP00WuAta6jojpIkwu5sP06,0*21
$GPRMC,150837.00,A,4729.97583,N,00222.58382,W,0.068,41.06,220520,,,D*45
!AIVDM,1,1,,A,B3HbF8P00?uA@`VjqTcQ3wbUoP06,0*19
!AIVDM,1,1,,A,B3HbF8P00?uA@`VjqTcQ3wbUoP06,0*19
$GPGBS,150837.00,4.0,3.0,7.6,,,,*4F
!AIVDO,1,1,,,B3HvFrP007uAta6jojpIcwu5sP06,0*49
!AIVDO,1,1,,,B3HvFrP00ouAtaVjojlBkwu5sP06,0*6E
!AIVDO,1,1,,,B3HvFrP017uAta6jojl6Kwu5sP06,0*03
!AIVDO,1,1,,,B3HvFrP017uAta6jojl6Kwu5sP06,0*03
$GPRMC,150841.00,A,4729.97584,N,00222.58379,W,0.023,6.52,220520,,,D*7A
$GPGBS,150841.00,4.0,3.0,7.6,,,,*4E
!AIVDO,1,1,,,B3HvFrP007uAtaVjojp47wu5sP06,0*00
!AIVDO,1,1,,,B3HvFrP00GuAtbVjojt3swu5sP06,0*34
!AIVDO,1,1,,,B3HvFrP007uAtc6jok03kwu5sP06,0*78
$GPRMC,150845.00,A,4729.97607,N,00222.58336,W,0.033,6.32,220520,,,D*7A
!AIVDO,1,1,,,B3HvFrP007uAtcVjok03wwu5sP06,0*04
$GPGBS,150845.00,4.0,3.0,7.6,,,,*4A
!AIVDO,1,1,,,B3HvFrP00GuAtd6jok077wu5sP06,0*57
!AIVDO,1,1,,,B3HvFrP00GuAte6jojt:;wu5sP06,0*12
!AIVDO,1,1,,,B3HvFrP00GuAteVjojp=Cwu5sP06,0*09
$GPGBS,150848.00,3.9,3.0,7.6,,,,*49
$GPRMC,150849.00,A,4729.97593,N,00222.58290,W,0.013,,220520,,,D*6E
!AIVDO,1,1,,,B3HvFrP007uAteVjojt03wu5sP06,0*00
$AITXT,01,01,23,AIS: Internal DGNSS in use (beacon)*1B
!AIVDO,1,1,,,B3HvFrP00?uAtf6jok0=?wu5sP06,0*2F
!AIVDO,1,1,,,B3HvFrP00?uAtf6jok0<Gwu5sP06,0*56
!AIVDO,1,1,,,B3HvFrP00?uAtfVjok4<Kwu5sP06,0*3E
$GPGBS,150852.00,3.9,3.0,7.5,,,,*41
!AIVDO,1,1,,B,B3HvFrP00?uAtfVjok4<Kwu5kP06,0*64
$GPRMC,150853.00,A,4729.97619,N,00222.58271,W,0.015,,220520,,,D*6D
!AIVDO,1,1,,,B3HvFrP00?uAtfVjok403wu5sP06,0*4A
!AIVDO,1,1,,,B3HvFrP00?uAtg6jok803wu5sP06,0*27
!AIVDO,1,1,,,B3HvFrP00?uAtg6jok<<;wu5sP06,0*27
!AIVDO,1,1,,,B3HvFrP00?uAtg6jok@03wu5sP06,0*5F
$GPRMC,150839.00,A,4729.97653,N,00222.58273,W,0.026,17.64,220520,,,D*47
!AIVDM,1,1,,B,H3Hw3GP`4pL4@40000000000001,2*5E
!AIVDM,1,1,,B,H3Hw3GP`4pL4@40000000000001,2*5E
$GPGBS,150839.00,3.8,3.0,7.5,,,,*4D
!AIVDO,1,1,,,B3HvFrP00?uAtfVjokD;3wu5sP06,0*31
!AIVDO,1,1,,,B3HvFrP00?uAtfVjokH03wl5sP06,0*2F
!AIVDO,1,1,,,B3HvFrP00?uAtf6jokL:;wlUsP06,0*29
$GPGBS,150842.00,3.9,3.0,7.5,,,,*40
!AIVDO,1,1,,,B3HvFrP00?uAtf6jokP9Kwm5sP06,0*27
$GPRMC,150843.00,A,4729.97690,N,00222.58287,W,0.007,,220520,,,D*67
!AIVDO,1,1,,,B3HvFrP00?uAtf6jokT03wmUsP06,0*32
!AIVDO,1,1,,,B3HvFrP00?uAtf6jokT03wn5sP06,0*51
!AIVDO,1,1,,,B3HvFrP00?uAtf6jokP03wo5sP06,0*54
$GPGBS,150846.00,4.0,3.0,7.5,,,,*4A
$GPRMC,150847.00,A,4729.97674,N,00222.58279,W,0.004,,220520,,,D*6B
!AIVDO,1,1,,,B3HvFrP00?uAtfVjokL03woUsP06,0*48
!AIVDO,1,1,,,B3HvFrP00?uAtg6jok@=owp5sP06,0*0B
!AIVDO,1,1,,,B3HvFrP00?uAtgVjok0?owpUsP06,0*79
!AIVDM,1,1,,B,H3Hw3GTTCBD4HVN671joqq1h1320,0*58
!AIVDM,1,1,,B,H3Hw3GTTCBD4HVN671joqq1h1320,0*58
!AIVDO,1,1,,,B3HvFrP00?uAth6jojp03wq5sP06,0*65
$GPGBS,150850.00,3.9,2.9,7.5,,,,*4B
$GPRMC,150851.00,A,4729.97594,N,00222.58245,W,0.029,24.70,220520,,,D*4E
!AIVDO,1,1,,,B3HvFrP00?uAth6jojt?OwqUsP06,0*72
!AIVDO,1,1,,,B3HvFrP00?uAtgVjok0=owr5sP06,0*19
!AIVDO,1,1,,,B3HvFrP00?uAtgVjok403wrUsP06,0*2C
!AIVDO,1,1,,,B3HvFrP00?uAtgVjok8>;ws5sP06,0*47
$GPGBS,150854.00,3.8,2.9,7.4,,,,*4F
$GPRMC,150855.00,A,4729.97627,N,00222.58252,W,0.048,21.56,220520,,,D*41
!AIVDO,1,1,,,B3HvFrP00?uAtgVjok8=OwsUsP06,0*50
!AIVDO,1,1,,,B3HvFrP00?uAth6jok8<kwt5sP06,0*7D
!AIVDO,1,1,,,B3HvFrP00?uAth6jok4?KwtUsP06,0*32
!AIVDO,1,1,,,B3HvFrP00?uAth6jok0@Swu5sP06,0*30
$GPGBS,150858.00,3.8,2.9,7.4,,,,*43
$GPRMC,150859.00,A,4729.97595,N,00222.58242,W,0.019,,220520,,,D*6C
!AIVDO,1,1,,,B3HvFrP00?uAth6jojt03wuUsP06,0*05
!AIVDO,1,1,,,B3HvFrP00?uAth6jojt?KwP5sP06,0*37
!AIVDO,1,1,,,B3HvFrP00?uAth6jok003wPUsP06,0*65
!AIVDO,1,1,,,B3HvFrP00?uAth6jok0?swQ5sP06,0*4B
$GPGBS,150902.00,3.7,2.9,7.4,,,,*42
$GPRMC,150903.00,A,4729.97608,N,00222.58245,W,0.014,,220520,,,D*6F
!AIVDO,1,1,,,B3HvFrP00?uAth6jok003wQUsP06,0*64
!AIVDO,1,1,,,B3HvFrP00?uAth6jok403wR5sP06,0*03
!AIVDO,1,1,,,B3HvFrP00?uAtgVjok803wRUsP06,0*00
$GPGBS,150906.00,3.7,2.9,7.4,,,,*46
!AIVDO,1,1,,A,B3HvFrP00?uAtgVjok803wS5kP06,0*38
$GPRMC,150907.00,A,4729.97631,N,00222.58260,W,0.018,,220520,,,D*6A
!AIVDO,1,1,,,B3HvFrP00?uAtg6jok<03wSUsP06,0*65
!AIVDO,1,1,,,B3HvFrP00?uAtg6jok<03wT5sP06,0*02
!AIVDO,1,1,,,B3HvFrP00?uAtg6jok@@;wTUsP06,0*66
$GPGBS,150910.00,3.7,2.9,7.3,,,,*46
!AIVDO,1,1,,,B3HvFrP00?uAtg6jok@03wU5sP06,0*7F
$GPRMC,150911.00,A,4729.97648,N,00222.58265,W,0.011,,220520,,,D*6F
!AIVDO,1,1,,,B3HvFrP00?uAtg6jok@03wUUsP06,0*1F
!AIVDO,1,1,,,B3HvFrP00?uAtg6jokD03wV5sP06,0*78
!AIVDO,1,1,,,B3HvFrP00?uAtg6jokD=cwVUsP06,0*45
$GPGBS,150914.00,3.7,2.9,7.3,,,,*42
!AIVDO,1,1,,,B3HvFrP00?uAtgVjokD>wwW5sP06,0*53
$GPRMC,150915.00,A,4729.97655,N,00222.58255,W,0.007,,220520,,,D*63
!AIVDO,1,1,,,B3HvFrP00?uAtgVjokD03wWUsP06,0*79
!AIVDO,1,1,,,B3HvFrP00?uAtgVjokD03w`5sP06,0*2E
!AIVDO,1,1,,,B3HvFrP00?uAtgVjokD03w`UsP06,0*4E
$GPGBS,150918.00,3.7,2.9,7.3,,,,*4E
!AIVDO,1,1,,,B3HvFrP00?uAtgVjokH03wa5sP06,0*23
$GPRMC,150919.00,A,4729.97665,N,00222.58251,W,0.022,26.36,220520,,,D*40
!AIVDO,1,1,,,B3HvFrP00?uAtgVjokH@OwaUsP06,0*4F
!AIVDO,1,1,,,B3HvFrP00?uAth6jokL03wb5sP06,0*4B
!AIVDO,1,1,,,B3HvFrP00?uAth6jokL03wbUsP06,0*2B
$GPGBS,150922.00,3.6,2.9,7.3,,,,*46
!AIVDO,1,1,,,B3HvFrP00?uAth6jokP03wc5sP06,0*56
$GPRMC,150923.00,A,4729.97689,N,00222.58236,W,0.023,28.38,220520,,,D*4B
!AIVDO,1,1,,,B3HvFrP00?uAthVjokT@Owd5sP06,0*39
!AIVDO,1,1,,,B3HvFrP00?uAti6jokT03wdUsP06,0*34
!AIVDO,1,1,,,B3HvFrP00?uAti6jok`03we5sP06,0*61
$GPGBS,150926.00,3.6,2.9,7.3,,,,*42
$GPRMC,150927.00,A,4729.97701,N,00222.58221,W,0.007,,220520,,,D*61
!AIVDO,1,1,,,B3HvFrP00?uAti6jok`03weUsP06,0*01
!AIVDO,1,1,,,B3HvFrP00?uAtiVjok`03wf5sP06,0*02
!AIVDO,1,1,,,B3HvFrP00?uAti6jokT03wfUsP06,0*36
!AIVDO,1,1,,,B3HvFrP00?uAti6jokT03wg5sP06,0*57
$GPGBS,150930.00,3.6,2.9,7.3,,,,*45
$GPRMC,150931.00,A,4729.97696,N,00222.58225,W,0.014,,220520,,,D*6F
!AIVDO,1,1,,,B3HvFrP00?uAti6jokT03wgUsP06,0*37
!AIVDO,1,1,,,B3HvFrP00?uAti6jokT03wh5sP06,0*58
!AIVDO,1,1,,,B3HvFrP00?uAthVjokT03whUsP06,0*59
!AIVDO,1,1,,,B3HvFrP00?uAthVjokT03wi5sP06,0*38
$GPGBS,150934.00,3.6,2.9,7.3,,,,*41
!AIVDM,1,1,,A,B3IJ:wP00?uAwF6joFKQ3whUoP06,0*5C
!AIVDM,1,1,,A,B3IJ:wP00?uAwF6joFKQ3whUoP06,0*5C
!AIVDO,1,1,,B,B3HvFrP00?uAthVjokT03wi5kP06,0*62
$GPRMC,150935.00,A,4729.97692,N,00222.58233,W,0.011,,220520,,,D*6D
!AIVDO,1,1,,,B3HvFrP00?uAthVjokT03wiUsP06,0*58
!AIVDO,1,1,,,B3HvFrP00?uAthVjokT03wj5sP06,0*3B
!AIVDO,1,1,,,B3HvFrP00?uAth6jokP03wk5sP06,0*5E
$GPGBS,150938.00,3.6,2.9,7.3,,,,*4D
$GPRMC,150939.00,A,4729.97685,N,00222.58249,W,0.008,,220520,,,D*62
!AIVDO,1,1,,,B3HvFrP00?uAth6jokP03wkUsP06,0*3E
!AIVDO,1,1,,,B3HvFrP00?uAtgVjokP03wl5sP06,0*36
!AIVDO,1,1,,,B3HvFrP00?uAtgVjokT03wlUsP06,0*52
!AIVDO,1,1,,,B3HvFrP00?uAtgVjokT03wm5sP06,0*33
$GPGBS,150942.00,3.6,2.9,7.3,,,,*40
$GPRMC,150943.00,A,4729.97706,N,00222.58243,W,0.044,24.16,220520,,,A*4D
!AIVDO,1,1,,,B3HvFrP00?uAtgVjokT?7wmUsP06,0*58
!AIVDO,1,1,,,B3HvFrP02guAtgVjokT8gwn5sP06,0*36
!AIVDO,1,1,,,B3HvFrP03?uAtgVjokT2gwnUsP06,0*05
!AIVDO,1,1,,,B3HvFrP03wuAtgVjokWN?wo5sP06,0*0B
$GPGBS,150946.00,3.7,3.0,7.1,,,,*4F
$GPRMC,150947.00,A,4729.97671,N,00222.58357,W,0.116,350.90,220520,,,A*74
!AIVDO,1,1,,,B3HvFrP00OuAtgVjokWKGwoUsP06,0*2D
!AIVDO,1,1,,,B3HvFrP00?uAtgVjokWICwp5sP06,0*24
!AIVDO,1,1,,,B3HvFrP00?uAtgVjokT03wpUsP06,0*4E
!AIVDO,1,1,,,B3HvFrP00?uAtgVjokT03wq5sP06,0*2F
$GPGBS,150950.00,3.6,2.9,7.0,,,,*40
$GPRMC,150951.00,A,4729.97712,N,00222.58362,W,0.017,,220520,,,A*60
!AIVDO,1,1,,,B3HvFrP00?uAtgVjokT03wqUsP06,0*4F
!AIVDM,1,1,,A,H3IFPiPpu9<d400000000000003,2*6A
!AIVDM,1,1,,A,H3IFPiPpu9<d400000000000003,2*6A
!AIVDO,1,1,,,B3HvFrP00?uAtgVjokWHcwr5sP06,0*07
!AIVDO,1,1,,,B3HvFrP00?uAtgVjokT03wrUsP06,0*4C
$GPRMC,150954.00,A,4729.97743,N,00222.58355,W,0.003,,220520,,,A*60
!AIVDO,1,1,,,B3HvFrP00?uAtgVjokT03ws5sP06,0*2D
$GPGBS,150954.00,3.6,2.8,7.0,,,,*45
!AIVDO,1,1,,,B3HvFrP00?uAtgVjokT03wsUsP06,0*4D
!AIVDO,1,1,,,B3HvFrP00?uAtgVjokT03wt5sP06,0*2A
!AIVDO,1,1,,,B3HvFrP00?uAtgVjokT03wtUsP06,0*4A
$GPRMC,150958.00,A,4729.97783,N,00222.58343,W,0.017,,220520,,,A*62
!AIVDO,1,1,,,B3HvFrP00?uAtgVjokT03wu5sP06,0*2B
$GPGBS,150958.00,3.5,2.8,6.9,,,,*42
!AIVDO,1,1,,,B3HvFrP00?uAtgVjokT03wuUsP06,0*4B
!AIVDO,1,1,,,B3HvFrP00?uAtgVjokT03wP5sP06,0*0E
!AIVDM,1,1,,B,B3Ht4qP00ouAhv6jmQwHVe012JGQ,0*3B
!AIVDM,1,1,,B,B3Ht4qP00ouAhv6jmQwHVe012JGQ,0*3B
!AIVDO,1,1,,,B3HvFrP00?uAtgVjokT03wPUsP06,0*6E
$GPRMC,151002.00,A,4729.97816,N,00222.58315,W,0.010,,220520,,,A*62
$GPGBS,151002.00,3.5,2.8,6.9,,,,*45
!AIVDO,1,1,,,B3HvFrP00?uAtgVjokT03wQ5sP06,0*0F
!AIVDO,1,1,,,B3HvFrP00?uAtgVjokT03wQUsP06,0*6F
!AIVDO,1,1,,,B3HvFrP00?uAtgVjokT03wR5sP06,0*0C
!AIVDO,1,1,,A,B3HvFrP00?uAtgVjokT03wRUkP06,0*35
$GPRMC,151006.00,A,4729.97826,N,00222.58286,W,0.019,350.97,220520,,,A*71
!AIVDO,1,1,,,B3HvFrP00?uAtgVjokWKGwS5sP06,0*01
$GPGBS,151006.00,3.5,2.8,6.9,,,,*41
!AIVDO,1,1,,,B3HvFrP00?uAtgVjokT03wSUsP06,0*6D
=======
$PSRT,001,,,***************************************34
$PSRT,001,,,Software Bootloader Ver 4.0 *57
$PSRT,001,,,--- Jul  4 2008 13:17:18 ---*54
$PSRT,VER,,,,,,00001403*6E
$PSRT,001,,,Booting main application*13
$PSRT,001,,,--- -----------------------------------*14
$PSRT,001,,,--- Class B AIS Transponder *36
$PSRT,001,,,--- *39
$PSRT,001,,,--- SW Ver 10.0.13.0 May 25 2010 14:24:04 *27
$PSRT,001,,,--- FPGA Ver 5   HW Ver unknown    *4B
$PSRT,VER,,,00000000,002F760C,00000005,0A000D00 *4E
$PSRT,001,,,--- Loading previous settings...    *45
$GPTXT,01,01,02,ANTSTATUS=OK*3B
$GPTXT,01,01,02,ANTSTATUS=OK*3B
!AIVDO,1,1,,,B3HvFrP3wk?8mP=18D3Q3wv5kP06,0*73
!AIVDO,1,1,,,B3HvFrP3wk?8mP=18D3Q3wv5kP06,0*73
!AIVDO,1,1,,,B3HvFrP3wk?8mP=18D3Q3wv5kP06,0*73
!AIVDO,1,1,,,B3HvFrP3wk?8mP=18D3Q3wv5kP06,0*73
!AIVDO,1,1,,,B3HvFrP3wk?8mP=18D3Q3wv5kP06,0*73
!AIVDO,1,1,,,B3HvFrP3wk?8mP=18D3Q3wv5kP06,0*73
!AIVDO,1,1,,,B3HvFrP3wk?8mP=18D3Q3wv5kP06,0*73
!AIVDO,1,1,,,B3HvFrP3wk?8mP=18D3Q3wv5kP06,0*73
!AIVDO,1,1,,,B3HvFrP3wk?8mP=18D3Q3wv5kP06,0*73
!AIVDO,1,1,,,B3HvFrP3wk?8mP=18D3Q3wv5kP06,0*73
!AIVDO,1,1,,,B3HvFrP3wk?8mP=18D3Q3wv5kP06,0*73
!AIVDO,1,1,,,B3HvFrP3wk?8mP=18D3Q3wv5kP06,0*73
!AIVDO,1,1,,,B3HvFrP3wk?8mP=18D3Q3wv5kP06,0*73
!AIVDO,1,1,,,B3HvFrP3wk?8mP=18D3Q3wv5kP06,0*73
!AIVDO,1,1,,,B3HvFrP3wk?8mP=18D3Q3wv5kP06,0*73
!AIVDO,1,1,,,B3HvFrP3wk?8mP=18D3Q3wv5kP06,0*73
!AIVDM,1,1,,A,B3Ht4qP00ouAhiVjmToHVe012JGQ,0*5A
!AIVDM,1,1,,A,B3Ht4qP00ouAhiVjmToHVe012JGQ,0*5A
!AIVDO,1,1,,,B3HvFrP3wk?8mP=18D3Q3wv5kP06,0*73
!AIVDO,1,1,,,B3HvFrP3wk?8mP=18D3Q3wv5kP06,0*73
!AIVDO,1,1,,,B3HvFrP3wk?8mP=18D3Q3wv5kP06,0*73
!AIVDO,1,1,,,B3HvFrP3wk?8mP=18D3Q3wv5kP06,0*73
!AIVDO,1,1,,,B3HvFrP3wk?8mP=18D3Q3wv5kP06,0*73
!AIVDO,1,1,,,B3HvFrP3wk?8mP=18D3Q3wv5kP06,0*73
!AIVDO,1,1,,,B3HvFrP3wk?8mP=18D3Q3wv5kP06,0*73
!AIVDO,1,1,,,B3HvFrP3wk?8mP=18D3Q3wv5kP06,0*73
!AIVDO,1,1,,,B3HvFrP3wk?8mP=18D3Q3wv5kP06,0*73
!AIVDO,1,1,,,B3HvFrP3wk?8mP=18D3Q3wv5kP06,0*73
!AIVDO,1,1,,,B3HvFrP3wk?8mP=18D3Q3wv5kP06,0*73
!AIVDO,1,1,,,B3HvFrP3wk?8mP=18D3Q3wv5kP06,0*73
!AIVDO,1,1,,,B3HvFrP3wk?8mP=18D3Q3wv5kP06,0*73
!AIVDO,1,1,,,B3HvFrP3wk?8mP=18D3Q3wv5kP06,0*73
!AIVDO,1,1,,,B3HvFrP3wk?8mP=18D3Q3wv5kP06,0*73
!AIVDO,1,1,,,B3HvFrP3wk?8mP=18D3Q3wv5kP06,0*73
!AIVDO,1,1,,,B3HvFrP3wk?8mP=18D3Q3wv5kP06,0*73
!AIVDO,1,1,,,B3HvFrP3wk?8mP=18D3Q3wv5kP06,0*73
!AIVDO,1,1,,,B3HvFrP3wk?8mP=18D3Q3wv5kP06,0*73
!AIVDO,1,1,,,B3HvFrP3wk?8mP=18D3Q3wv5kP06,0*73
!AIVDO,1,1,,,B3HvFrP3wk?8mP=18D3Q3wv5kP06,0*73
!AIVDO,1,1,,,B3HvFrP3wk?8mP=18D3Q3wv5kP06,0*73
!AIVDM,1,1,,B,B3Hw3GP00?uAg16jpF;Q1EcUoP06,0*69
!AIVDM,1,1,,B,B3Hw3GP00?uAg16jpF;Q1EcUoP06,0*69
!AIVDO,1,1,,,B3HvFrP3wk?8mP=18D3Q3wv5kP06,0*73
!AIVDO,1,1,,,B3HvFrP3wk?8mP=18D3Q3wv5kP06,0*73
!AIVDO,1,1,,,B3HvFrP3wk?8mP=18D3Q3wv5kP06,0*73
!AIVDO,1,1,,,B3HvFrP3wk?8mP=18D3Q3wv5kP06,0*73
!AIVDO,1,1,,,B3HvFrP3wk?8mP=18D3Q3wv5kP06,0*73
!AIVDO,1,1,,,B3HvFrP3wk?8mP=18D3Q3wv5kP06,0*73
!AIVDO,1,1,,,B3HvFrP3wk?8mP=18D3Q3wv5kP06,0*73
!AIVDO,1,1,,,B3HvFrP3wk?8mP=18D3Q3wv5kP06,0*73
!AIVDO,1,1,,,B3HvFrP3wk?8mP=18D3Q3wv5kP06,0*73
!AIVDO,1,1,,,B3HvFrP3wk?8mP=18D3Q3wv5kP06,0*73
!AIVDO,1,1,,,B3HvFrP3wk?8mP=18D3Q3wv5kP06,0*73
!AIVDO,1,1,,,B3HvFrP3wk?8mP=18D3Q3wv5kP06,0*73
!AIVDO,1,1,,,B3HvFrP3wk?8mP=18D3Q3wv5kP06,0*73
!AIVDO,1,1,,,B3HvFrP3wk?8mP=18D3Q3wv5kP06,0*73
!AIVDO,1,1,,,B3HvFrP3wk?8mP=18D3Q3wv5kP06,0*73
!AIVDO,1,1,,,B3HvFrP3wk?8mP=18D3Q3wv5sP06,0*6B
$AITXT,01,01,25,AIS: Internal GNSS in use*7C
!AIVDO,1,1,,,B3HvFrP3wouAtT6jokoQ3wu5wP06,0*32
$AITXT,01,01,28,AIS: Internal SOG/COG in use*47
!AIVDO,1,1,,,B3HvFrP007uAtTVjoklOWwu5wP06,0*37
!AIVDO,1,1,,,B3HvFrP007uAtU6jokhPWwu5wP06,0*4D
$GPRMC,150801.00,A,4729.97719,N,00222.58454,W,0.016,,220520,,,A*6C
$GPGBS,150801.00,3.6,2.8,7.1,,,,*45
!AIVDO,1,1,,,B3HvFrP007uAtUVjokd03wu5wP06,0*25
$PSRT,001,,,Startup timer expired*61
!AIVDO,1,1,,,B3HvFrP007uAtV6jokd03wu5wP06,0*46
!AIVDO,1,1,,,B3HvFrP007uAtW6jok`QCwu5wP06,0*52
$GPRMC,150805.00,A,4729.97702,N,00222.58409,W,0.010,,220520,,,A*6C
!AIVDO,1,1,,,B3HvFrP007uAt`6jok`03wu5wP06,0*74
$GPGBS,150805.00,3.6,2.8,7.1,,,,*41
!AIVDO,1,1,,,B3HvFrP007uAt`6jokTSGwu5wP06,0*57
!AIVDO,1,1,,,B3HvFrP007uAt`Vjok`R?wu5wP06,0*7A
!AIVDO,1,1,,,B3HvFrP007uAt`VjokdQ?wu5wP06,0*7D
$GPRMC,150809.00,A,4729.97724,N,00222.58387,W,0.023,52.11,220520,,,A*4C
!AIVDO,1,1,,,B3HvFrP007uAta6jokhPWwu5wP06,0*79
$GPGBS,150809.00,3.6,2.8,7.1,,,,*4D
!AIVDO,1,1,,,B3HvFrP007uAta6jokhP7wu5wP06,0*19
!AIVDO,1,1,,,B3HvFrP007uAta6joklO;wu5wP06,0*0E
!AIVDO,1,1,,,B3HvFrP007uAta6jokpN?wu5wP06,0*17
$GPRMC,150813.00,A,4729.97753,N,00222.58382,W,0.023,46.70,220520,,,A*40
!AIVDO,1,1,,,B3HvFrP007uAta6joktM?wu5wP06,0*10
$GPGBS,150813.00,3.6,2.8,7.1,,,,*46
!AIVDO,1,1,,,B3HvFrP007uAta6jol0LOwu5wP06,0*22
!AIVDO,1,1,,,B3HvFrP007uAta6jol0KSwu5wP06,0*39
!AIVDO,1,1,,,B3HvFrP007uAta6jol003wu5wP06,0*22
$GPRMC,150817.00,A,4729.97767,N,00222.58384,W,0.015,,220520,,,A*6B
!AIVDO,1,1,,,B3HvFrP007uAta6jol003wu5wP06,0*22
$GPGBS,150817.00,3.7,2.8,7.1,,,,*43
!AIVDO,1,1,,,B3HvFrP00ouAta6jol4H7wu5sP06,0*06
!AIVDO,1,1,,,B3HvFrP00ouAtb6jol4E3wu5sP06,0*0C
!AIVDO,1,1,,,B3HvFrP01GuAtaVjol8BKwu5sP06,0*35
$GPRMC,150821.00,A,4729.97790,N,00222.58386,W,0.215,26.16,220520,,,D*4E
!AIVDO,1,1,,,B3HvFrP00WuAta6jol<@Gwu5sP06,0*4E
$GPGBS,150821.00,3.9,3.0,7.3,,,,*43
!AIVDO,1,1,,,B3HvFrP00WuAta6jol<@Cwu5sP06,0*4A
!AIVDO,1,1,,A,B3HvFrP00WuAta6jol<@Cwu5kP06,0*13
!AIVDO,1,1,,,B3HvFrP00ouAtVVjol@@?wu5sP06,0*25
!AIVDO,1,1,,,B3HvFrP00WuAtVVjol<@owu5sP06,0*31
$GPRMC,150825.00,A,4729.97772,N,00222.58436,W,0.037,29.20,220520,,,D*42
$GPGBS,150825.00,4.2,3.0,7.5,,,,*4D
!AIVDO,1,1,,,B3HvFrP007uAtVVjol4BCwu5sP06,0*77
!AIVDO,1,1,,,B3HvFrP007uAtVVjokpDgwu5sP06,0*16
!AIVDO,1,1,,,B3HvFrP007uAtW6jokhG?wu5sP06,0*34
!AIVDO,1,1,,,B3HvFrP007uAtW6jok`Igwu5sP06,0*6A
$GPRMC,150829.00,A,4729.97681,N,00222.58420,W,0.106,44.89,220520,,,D*4F
$GPGBS,150829.00,4.3,3.0,7.6,,,,*43
!AIVDO,1,1,,,B3HvFrP00GuAtW6jokPL3wu5sP06,0*7B
!AIVDM,1,1,,B,B3IFPiP00OuAfp6jmUGQ3wV1nDt:,0*6A
!AIVDM,1,1,,B,B3IFPiP00OuAfp6jmUGQ3wV1nDt:,0*6A
!AIVDO,1,1,,,B3HvFrP007uAtWVjokDJowu5sP06,0*25
!AIVDO,1,1,,,B3HvFrP00GuAtWVjok<Igwu5sP06,0*26
!AIVDO,1,1,,,B3HvFrP00WuAtWVjok4GSwu5sP06,0*04
$GPRMC,150833.00,A,4729.97601,N,00222.58413,W,0.047,36.25,220520,,,D*4B
$GPGBS,150833.00,4.1,3.0,7.6,,,,*4A
!AIVDO,1,1,,,B3HvFrP007uAtWVjok0Fcwu5sP06,0*51
!AIVDO,1,1,,,B3HvFrP00WuAtWVjok0GCwu5sP06,0*10
!AIVDO,1,1,,,B3HvFrP00ouAt`6jok0Howu5sP06,0*5C
!AIVDO,1,1,,,B3HvFrP00WuAta6jojpIkwu5sP06,0*21
$GPRMC,150837.00,A,4729.97583,N,00222.58382,W,0.068,41.06,220520,,,D*45
!AIVDM,1,1,,A,B3HbF8P00?uA@`VjqTcQ3wbUoP06,0*19
!AIVDM,1,1,,A,B3HbF8P00?uA@`VjqTcQ3wbUoP06,0*19
$GPGBS,150837.00,4.0,3.0,7.6,,,,*4F
!AIVDO,1,1,,,B3HvFrP007uAta6jojpIcwu5sP06,0*49
!AIVDO,1,1,,,B3HvFrP00ouAtaVjojlBkwu5sP06,0*6E
!AIVDO,1,1,,,B3HvFrP017uAta6jojl6Kwu5sP06,0*03
!AIVDO,1,1,,,B3HvFrP017uAta6jojl6Kwu5sP06,0*03
$GPRMC,150841.00,A,4729.97584,N,00222.58379,W,0.023,6.52,220520,,,D*7A
$GPGBS,150841.00,4.0,3.0,7.6,,,,*4E
!AIVDO,1,1,,,B3HvFrP007uAtaVjojp47wu5sP06,0*00
!AIVDO,1,1,,,B3HvFrP00GuAtbVjojt3swu5sP06,0*34
!AIVDO,1,1,,,B3HvFrP007uAtc6jok03kwu5sP06,0*78
$GPRMC,150845.00,A,4729.97607,N,00222.58336,W,0.033,6.32,220520,,,D*7A
!AIVDO,1,1,,,B3HvFrP007uAtcVjok03wwu5sP06,0*04
$GPGBS,150845.00,4.0,3.0,7.6,,,,*4A
!AIVDO,1,1,,,B3HvFrP00GuAtd6jok077wu5sP06,0*57
!AIVDO,1,1,,,B3HvFrP00GuAte6jojt:;wu5sP06,0*12
!AIVDO,1,1,,,B3HvFrP00GuAteVjojp=Cwu5sP06,0*09
$GPGBS,150848.00,3.9,3.0,7.6,,,,*49
$GPRMC,150849.00,A,4729.97593,N,00222.58290,W,0.013,,220520,,,D*6E
!AIVDO,1,1,,,B3HvFrP007uAteVjojt03wu5sP06,0*00
$AITXT,01,01,23,AIS: Internal DGNSS in use (beacon)*1B
!AIVDO,1,1,,,B3HvFrP00?uAtf6jok0=?wu5sP06,0*2F
!AIVDO,1,1,,,B3HvFrP00?uAtf6jok0<Gwu5sP06,0*56
!AIVDO,1,1,,,B3HvFrP00?uAtfVjok4<Kwu5sP06,0*3E
$GPGBS,150852.00,3.9,3.0,7.5,,,,*41
!AIVDO,1,1,,B,B3HvFrP00?uAtfVjok4<Kwu5kP06,0*64
$GPRMC,150853.00,A,4729.97619,N,00222.58271,W,0.015,,220520,,,D*6D
!AIVDO,1,1,,,B3HvFrP00?uAtfVjok403wu5sP06,0*4A
!AIVDO,1,1,,,B3HvFrP00?uAtg6jok803wu5sP06,0*27
!AIVDO,1,1,,,B3HvFrP00?uAtg6jok<<;wu5sP06,0*27
!AIVDO,1,1,,,B3HvFrP00?uAtg6jok@03wu5sP06,0*5F
$GPRMC,150839.00,A,4729.97653,N,00222.58273,W,0.026,17.64,220520,,,D*47
!AIVDM,1,1,,B,H3Hw3GP`4pL4@40000000000001,2*5E
!AIVDM,1,1,,B,H3Hw3GP`4pL4@40000000000001,2*5E
$GPGBS,150839.00,3.8,3.0,7.5,,,,*4D
!AIVDO,1,1,,,B3HvFrP00?uAtfVjokD;3wu5sP06,0*31
!AIVDO,1,1,,,B3HvFrP00?uAtfVjokH03wl5sP06,0*2F
!AIVDO,1,1,,,B3HvFrP00?uAtf6jokL:;wlUsP06,0*29
$GPGBS,150842.00,3.9,3.0,7.5,,,,*40
!AIVDO,1,1,,,B3HvFrP00?uAtf6jokP9Kwm5sP06,0*27
$GPRMC,150843.00,A,4729.97690,N,00222.58287,W,0.007,,220520,,,D*67
!AIVDO,1,1,,,B3HvFrP00?uAtf6jokT03wmUsP06,0*32
!AIVDO,1,1,,,B3HvFrP00?uAtf6jokT03wn5sP06,0*51
!AIVDO,1,1,,,B3HvFrP00?uAtf6jokP03wo5sP06,0*54
$GPGBS,150846.00,4.0,3.0,7.5,,,,*4A
$GPRMC,150847.00,A,4729.97674,N,00222.58279,W,0.004,,220520,,,D*6B
!AIVDO,1,1,,,B3HvFrP00?uAtfVjokL03woUsP06,0*48
!AIVDO,1,1,,,B3HvFrP00?uAtg6jok@=owp5sP06,0*0B
!AIVDO,1,1,,,B3HvFrP00?uAtgVjok0?owpUsP06,0*79
!AIVDM,1,1,,B,H3Hw3GTTCBD4HVN671joqq1h1320,0*58
!AIVDM,1,1,,B,H3Hw3GTTCBD4HVN671joqq1h1320,0*58
!AIVDO,1,1,,,B3HvFrP00?uAth6jojp03wq5sP06,0*65
$GPGBS,150850.00,3.9,2.9,7.5,,,,*4B
$GPRMC,150851.00,A,4729.97594,N,00222.58245,W,0.029,24.70,220520,,,D*4E
!AIVDO,1,1,,,B3HvFrP00?uAth6jojt?OwqUsP06,0*72
!AIVDO,1,1,,,B3HvFrP00?uAtgVjok0=owr5sP06,0*19
!AIVDO,1,1,,,B3HvFrP00?uAtgVjok403wrUsP06,0*2C
!AIVDO,1,1,,,B3HvFrP00?uAtgVjok8>;ws5sP06,0*47
$GPGBS,150854.00,3.8,2.9,7.4,,,,*4F
$GPRMC,150855.00,A,4729.97627,N,00222.58252,W,0.048,21.56,220520,,,D*41
!AIVDO,1,1,,,B3HvFrP00?uAtgVjok8=OwsUsP06,0*50
!AIVDO,1,1,,,B3HvFrP00?uAth6jok8<kwt5sP06,0*7D
!AIVDO,1,1,,,B3HvFrP00?uAth6jok4?KwtUsP06,0*32
!AIVDO,1,1,,,B3HvFrP00?uAth6jok0@Swu5sP06,0*30
$GPGBS,150858.00,3.8,2.9,7.4,,,,*43
$GPRMC,150859.00,A,4729.97595,N,00222.58242,W,0.019,,220520,,,D*6C
!AIVDO,1,1,,,B3HvFrP00?uAth6jojt03wuUsP06,0*05
!AIVDO,1,1,,,B3HvFrP00?uAth6jojt?KwP5sP06,0*37
!AIVDO,1,1,,,B3HvFrP00?uAth6jok003wPUsP06,0*65
!AIVDO,1,1,,,B3HvFrP00?uAth6jok0?swQ5sP06,0*4B
$GPGBS,150902.00,3.7,2.9,7.4,,,,*42
$GPRMC,150903.00,A,4729.97608,N,00222.58245,W,0.014,,220520,,,D*6F
!AIVDO,1,1,,,B3HvFrP00?uAth6jok003wQUsP06,0*64
!AIVDO,1,1,,,B3HvFrP00?uAth6jok403wR5sP06,0*03
!AIVDO,1,1,,,B3HvFrP00?uAtgVjok803wRUsP06,0*00
$GPGBS,150906.00,3.7,2.9,7.4,,,,*46
!AIVDO,1,1,,A,B3HvFrP00?uAtgVjok803wS5kP06,0*38
$GPRMC,150907.00,A,4729.97631,N,00222.58260,W,0.018,,220520,,,D*6A
!AIVDO,1,1,,,B3HvFrP00?uAtg6jok<03wSUsP06,0*65
!AIVDO,1,1,,,B3HvFrP00?uAtg6jok<03wT5sP06,0*02
!AIVDO,1,1,,,B3HvFrP00?uAtg6jok@@;wTUsP06,0*66
$GPGBS,150910.00,3.7,2.9,7.3,,,,*46
!AIVDO,1,1,,,B3HvFrP00?uAtg6jok@03wU5sP06,0*7F
$GPRMC,150911.00,A,4729.97648,N,00222.58265,W,0.011,,220520,,,D*6F
!AIVDO,1,1,,,B3HvFrP00?uAtg6jok@03wUUsP06,0*1F
!AIVDO,1,1,,,B3HvFrP00?uAtg6jokD03wV5sP06,0*78
!AIVDO,1,1,,,B3HvFrP00?uAtg6jokD=cwVUsP06,0*45
$GPGBS,150914.00,3.7,2.9,7.3,,,,*42
!AIVDO,1,1,,,B3HvFrP00?uAtgVjokD>wwW5sP06,0*53
$GPRMC,150915.00,A,4729.97655,N,00222.58255,W,0.007,,220520,,,D*63
!AIVDO,1,1,,,B3HvFrP00?uAtgVjokD03wWUsP06,0*79
!AIVDO,1,1,,,B3HvFrP00?uAtgVjokD03w`5sP06,0*2E
!AIVDO,1,1,,,B3HvFrP00?uAtgVjokD03w`UsP06,0*4E
$GPGBS,150918.00,3.7,2.9,7.3,,,,*4E
!AIVDO,1,1,,,B3HvFrP00?uAtgVjokH03wa5sP06,0*23
$GPRMC,150919.00,A,4729.97665,N,00222.58251,W,0.022,26.36,220520,,,D*40
!AIVDO,1,1,,,B3HvFrP00?uAtgVjokH@OwaUsP06,0*4F
!AIVDO,1,1,,,B3HvFrP00?uAth6jokL03wb5sP06,0*4B
!AIVDO,1,1,,,B3HvFrP00?uAth6jokL03wbUsP06,0*2B
$GPGBS,150922.00,3.6,2.9,7.3,,,,*46
!AIVDO,1,1,,,B3HvFrP00?uAth6jokP03wc5sP06,0*56
$GPRMC,150923.00,A,4729.97689,N,00222.58236,W,0.023,28.38,220520,,,D*4B
!AIVDO,1,1,,,B3HvFrP00?uAthVjokT@Owd5sP06,0*39
!AIVDO,1,1,,,B3HvFrP00?uAti6jokT03wdUsP06,0*34
!AIVDO,1,1,,,B3HvFrP00?uAti6jok`03we5sP06,0*61
$GPGBS,150926.00,3.6,2.9,7.3,,,,*42
$GPRMC,150927.00,A,4729.97701,N,00222.58221,W,0.007,,220520,,,D*61
!AIVDO,1,1,,,B3HvFrP00?uAti6jok`03weUsP06,0*01
!AIVDO,1,1,,,B3HvFrP00?uAtiVjok`03wf5sP06,0*02
!AIVDO,1,1,,,B3HvFrP00?uAti6jokT03wfUsP06,0*36
!AIVDO,1,1,,,B3HvFrP00?uAti6jokT03wg5sP06,0*57
$GPGBS,150930.00,3.6,2.9,7.3,,,,*45
$GPRMC,150931.00,A,4729.97696,N,00222.58225,W,0.014,,220520,,,D*6F
!AIVDO,1,1,,,B3HvFrP00?uAti6jokT03wgUsP06,0*37
!AIVDO,1,1,,,B3HvFrP00?uAti6jokT03wh5sP06,0*58
!AIVDO,1,1,,,B3HvFrP00?uAthVjokT03whUsP06,0*59
!AIVDO,1,1,,,B3HvFrP00?uAthVjokT03wi5sP06,0*38
$GPGBS,150934.00,3.6,2.9,7.3,,,,*41
!AIVDM,1,1,,A,B3IJ:wP00?uAwF6joFKQ3whUoP06,0*5C
!AIVDM,1,1,,A,B3IJ:wP00?uAwF6joFKQ3whUoP06,0*5C
!AIVDO,1,1,,B,B3HvFrP00?uAthVjokT03wi5kP06,0*62
$GPRMC,150935.00,A,4729.97692,N,00222.58233,W,0.011,,220520,,,D*6D
!AIVDO,1,1,,,B3HvFrP00?uAthVjokT03wiUsP06,0*58
!AIVDO,1,1,,,B3HvFrP00?uAthVjokT03wj5sP06,0*3B
!AIVDO,1,1,,,B3HvFrP00?uAth6jokP03wk5sP06,0*5E
$GPGBS,150938.00,3.6,2.9,7.3,,,,*4D
$GPRMC,150939.00,A,4729.97685,N,00222.58249,W,0.008,,220520,,,D*62
!AIVDO,1,1,,,B3HvFrP00?uAth6jokP03wkUsP06,0*3E
!AIVDO,1,1,,,B3HvFrP00?uAtgVjokP03wl5sP06,0*36
!AIVDO,1,1,,,B3HvFrP00?uAtgVjokT03wlUsP06,0*52
!AIVDO,1,1,,,B3HvFrP00?uAtgVjokT03wm5sP06,0*33
$GPGBS,150942.00,3.6,2.9,7.3,,,,*40
$GPRMC,150943.00,A,4729.97706,N,00222.58243,W,0.044,24.16,220520,,,A*4D
!AIVDO,1,1,,,B3HvFrP00?uAtgVjokT?7wmUsP06,0*58
!AIVDO,1,1,,,B3HvFrP02guAtgVjokT8gwn5sP06,0*36
!AIVDO,1,1,,,B3HvFrP03?uAtgVjokT2gwnUsP06,0*05
!AIVDO,1,1,,,B3HvFrP03wuAtgVjokWN?wo5sP06,0*0B
$GPGBS,150946.00,3.7,3.0,7.1,,,,*4F
$GPRMC,150947.00,A,4729.97671,N,00222.58357,W,0.116,350.90,220520,,,A*74
!AIVDO,1,1,,,B3HvFrP00OuAtgVjokWKGwoUsP06,0*2D
!AIVDO,1,1,,,B3HvFrP00?uAtgVjokWICwp5sP06,0*24
!AIVDO,1,1,,,B3HvFrP00?uAtgVjokT03wpUsP06,0*4E
!AIVDO,1,1,,,B3HvFrP00?uAtgVjokT03wq5sP06,0*2F
$GPGBS,150950.00,3.6,2.9,7.0,,,,*40
$GPRMC,150951.00,A,4729.97712,N,00222.58362,W,0.017,,220520,,,A*60
!AIVDO,1,1,,,B3HvFrP00?uAtgVjokT03wqUsP06,0*4F
!AIVDM,1,1,,A,H3IFPiPpu9<d400000000000003,2*6A
!AIVDM,1,1,,A,H3IFPiPpu9<d400000000000003,2*6A
!AIVDO,1,1,,,B3HvFrP00?uAtgVjokWHcwr5sP06,0*07
!AIVDO,1,1,,,B3HvFrP00?uAtgVjokT03wrUsP06,0*4C
$GPRMC,150954.00,A,4729.97743,N,00222.58355,W,0.003,,220520,,,A*60
!AIVDO,1,1,,,B3HvFrP00?uAtgVjokT03ws5sP06,0*2D
$GPGBS,150954.00,3.6,2.8,7.0,,,,*45
!AIVDO,1,1,,,B3HvFrP00?uAtgVjokT03wsUsP06,0*4D
!AIVDO,1,1,,,B3HvFrP00?uAtgVjokT03wt5sP06,0*2A
!AIVDO,1,1,,,B3HvFrP00?uAtgVjokT03wtUsP06,0*4A
$GPRMC,150958.00,A,4729.97783,N,00222.58343,W,0.017,,220520,,,A*62
!AIVDO,1,1,,,B3HvFrP00?uAtgVjokT03wu5sP06,0*2B
$GPGBS,150958.00,3.5,2.8,6.9,,,,*42
!AIVDO,1,1,,,B3HvFrP00?uAtgVjokT03wuUsP06,0*4B
!AIVDO,1,1,,,B3HvFrP00?uAtgVjokT03wP5sP06,0*0E
!AIVDM,1,1,,B,B3Ht4qP00ouAhv6jmQwHVe012JGQ,0*3B
!AIVDM,1,1,,B,B3Ht4qP00ouAhv6jmQwHVe012JGQ,0*3B
!AIVDO,1,1,,,B3HvFrP00?uAtgVjokT03wPUsP06,0*6E
$GPRMC,151002.00,A,4729.97816,N,00222.58315,W,0.010,,220520,,,A*62
$GPGBS,151002.00,3.5,2.8,6.9,,,,*45
!AIVDO,1,1,,,B3HvFrP00?uAtgVjokT03wQ5sP06,0*0F
!AIVDO,1,1,,,B3HvFrP00?uAtgVjokT03wQUsP06,0*6F
!AIVDO,1,1,,,B3HvFrP00?uAtgVjokT03wR5sP06,0*0C
!AIVDO,1,1,,A,B3HvFrP00?uAtgVjokT03wRUkP06,0*35
$GPRMC,151006.00,A,4729.97826,N,00222.58286,W,0.019,350.97,220520,,,A*71
!AIVDO,1,1,,,B3HvFrP00?uAtgVjokWKGwS5sP06,0*01
$GPGBS,151006.00,3.5,2.8,6.9,,,,*41
!AIVDO,1,1,,,B3HvFrP00?uAtgVjokT03wSUsP06,0*6D
>>>>>>> 4274cbd1199760fa00dc87b0a020fde283e3a420
