$GPRMC,151108.00,A,4729.97713,N,00222.58395,W,0.018,,220520,,,D*66
$GPVTG,,T,,M,0.018,N,0.033,K,D*2F
$GPGGA,151108.00,4729.97713,N,00222.58395,W,2,12,0.78,7.1,M,48.7,M,,0000*43
$GPGSA,A,3,16,18,20,21,26,27,30,11,08,10,07,40,1.38,0.78,1.14*04
$GPGSV,4,1,15,01,01,236,,07,17,303,34,08,48,296,42,10,48,119,50*77
$GPGSV,4,2,15,11,24,261,48,13,00,010,,15,04,036,47,16,57,178,41*7F
$GPGSV,4,3,15,18,15,056,45,20,43,070,46,21,29,059,41,26,25,164,40*70
$GPTXT,01,01,00,txbuf alloc*7F
$GPRMC,151109.00,A,4729.97711,N,00222.58394,W,0.032,,220520,,,D*6C
$GPVTG,,T,,M,0.032,N,0.059,K,D*2B
$GPGGA,151109.00,4729.97711,N,00222.58394,W,2,12,0.78,7.2,M,48.7,M,,0000*42
$GPGSA,A,3,16,18,20,21,26,27,30,11,08,10,07,40,1.38,0.78,1.14*04
$GPGSV,4,1,15,01,01,236,,07,17,303,34,08,48,296,42,10,48,119,49*7F
$GPGSV,4,2,15,11,24,261,48,13,00,010,,15,04,036,47,16,57,178,42*7C
$GPRMC,151110.00,A,4729.97711,N,00222.58393,W,0.039,,220520,,,D*68
$GPVTG,,T,,M,0.039,N,0.072,K,D*29
$GPGGA,151110.00,4729.97711,N,00222.58393,W,2,12,0.78,7.2,M,48.7,M,,0000*4D
$GPGSA,A,3,16,18,20,21,26,27,30,11,08,10,07,40,1.38,0.78,1.14*04
$GPGSV,4,1,15,01,01,236,,07,17,303,34,08,48,296,42,10,48,119,49*7F
$GPGSV,4,2,15,11,24,261,48,13,00,010,,15,04,036,47,16,57,178,41*7F
$GPGSV,4,3,15,18,15,056,45,20,43,070,45,21,29,059,42,26,25,164,40*70
$GPRMC,151111.00,A,4729.97710,N,00222.58393,W,0.008,,220520,,,D*6A
$GPVTG,,T,,M,0.008,N,0.015,K,D*2A
$GPGGA,151111.00,4729.97710,N,00222.58393,W,2,12,0.78,7.2,M,48.7,M,,0000*4D
$GPGSA,A,3,16,18,20,21,26,27,30,11,08,10,07,40,1.38,0.78,1.14*04
$GPGSV,4,1,15,01,01,236,,07,17,303,33,08,48,296,43,10,48,119,50*71
$GPGSV,4,2,15,11,24,261,47,13,00,010,,15,04,036,46,16,57,178,41*71
$GPGSV,4,3,15,18,15,056,45,20,43,070,47,21,29,059,43,26,25,164,40*73
$GPGSV,4,4,15,27,79,345,48,30,06,331,32,40,13,115,33*4E
$GPRMC,151112.00,A,4729.97709,N,00222.58393,W,0.021,,220520,,,D*6A
$GPVTG,,T,,M,0.021,N,0.040,K,D*21
$GPGGA,151112.00,4729.97709,N,00222.58393,W,2,12,0.78,7.2,M,48.7,M,,0000*46
$GPGSA,A,3,16,18,20,21,26,27,30,11,08,10,07,40,1.38,0.78,1.14*04
$GPGSV,4,1,15,01,01,236,,07,17,303,32,08,48,296,42,10,48,119,50*71
$GPGSV,4,2,15,11,24,261,48,13,00,010,,15,04,036,46,16,57,178,42*7D
$GPGSV,4,3,15,18,15,056,45,20,43,070,47,21,29,059,40,26,25,164,40*70
$GPRMC,151113.00,A,4729.97708,N,00222.58394,W,0.042,,220520,,,D*68
$GPVTG,,T,,M,0.042,N,0.078,K,D*2F
$GPGGA,151113.00,4729.97708,N,00222.58394,W,2,12,0.78,7.3,M,48.7,M,,0000*40
$GPGSA,A,3,16,18,20,21,26,27,30,11,08,10,07,40,1.38,0.78,1.14*04
$GPGSV,4,1,15,01,01,236,,07,17,303,35,08,48,296,41,10,48,119,50*75
$GPGSV,4,2,15,11,24,261,48,13,00,010,,15,04,036,45,16,57,178,42*7E
$GPGSV,4,3,15,18,15,056,45,20,43,070,46,21,29,059,42,26,25,164,39*7D
$GPGSV,4,4,15,27,79,345,48,30,06,331,28,40,13,115,31*47
$GPRMC,151114.00,A,4729.97708,N,00222.58395,W,0.007,,220520,,,D*6F
$GPVTG,,T,,M,0.007,N,0.013,K,D*23
$GPGGA,151114.00,4729.97708,N,00222.58395,W,2,12,0.78,7.3,M,48.7,M,,0000*46
$GPGSA,A,3,16,18,20,21,26,27,30,11,08,10,07,40,1.38,0.78,1.14*04
$GPGSV,4,1,15,01,01,236,,07,17,303,33,08,48,296,42,10,48,119,50*70
$GPGSV,4,2,15,11,24,261,48,13,00,010,,15,04,036,44,16,57,178,41*7C
$GPGSV,4,3,15,18,15,056,45,20,43,070,46,21,29,059,43,26,25,164,40*72
$GPRMC,151115.00,A,4729.97707,N,00222.58396,W,0.006,,220520,,,D*63
$GPVTG,,T,,M,0.006,N,0.012,K,D*23
$GPGGA,151115.00,4729.97707,N,00222.58396,W,2,12,0.78,7.3,M,48.7,M,,0000*4B
$GPGSA,A,3,16,18,20,21,26,27,30,11,08,10,07,40,1.38,0.78,1.14*04
$GPGSV,4,1,15,01,01,236,,07,17,303,33,08,48,296,41,10,48,119,49*7B
$GPGSV,4,2,15,11,24,261,48,13,00,010,,15,04,036,42,16,57,178,41*7A
$GPGSV,4,3,15,18,15,056,45,20,43,070,45,21,29,059,41,26,25,164,40*73
$GPGSV,4,4,15,27,79,345,48,30,06,331,28,40,13,115,30*46
$GPRMC,151116.00,A,4729.97706,N,00222.58396,W,0.005,,220520,,,D*62
$GPVTG,,T,,M,0.005,N,0.010,K,D*22
$GPGGA,151116.00,4729.97706,N,00222.58396,W,2,12,0.78,7.3,M,48.7,M,,0000*49
$GPGSA,A,3,16,18,20,21,26,27,30,11,08,10,07,40,1.38,0.78,1.14*04
$GPGSV,4,1,15,01,01,236,,07,17,303,30,08,48,296,42,10,48,119,50*73
$GPGSV,4,2,15,11,24,261,48,13,00,010,,15,04,036,42,16,57,178,40*7B
$GPGSV,4,3,15,18,15,056,45,20,43,070,46,21,29,059,42,26,25,164,40*73
$GPRMC,151117.00,A,4729.97706,N,00222.58397,W,0.021,,220520,,,D*64
$GPVTG,,T,,M,0.021,N,0.039,K,D*2F
$GPGGA,151117.00,4729.97706,N,00222.58397,W,2,12,0.78,7.3,M,48.7,M,,0000*49
$GPGSA,A,3,16,18,20,21,26,27,30,11,08,10,07,40,1.38,0.78,1.14*04
$GPGSV,4,1,15,01,01,236,,07,17,303,26,08,48,296,41,10,48,119,50*77
$GPGSV,4,2,15,11,24,261,48,13,00,010,,15,04,036,42,16,57,178,42*79
$GPGSV,4,3,15,18,15,056,45,20,43,070,46,21,29,059,41,26,25,164,43*73
$GPGSV,4,4,15,27,79,345,48,30,06,331,29,40,13,115,30*47
$GPGLL,4729.97706,N,00222.58397,W,151117.00,A,D*79
$GPRMC,151118.00,A,4729.97706,N,00222.58398,W,0.039,,220520,,,D*6D
$GPVTG,,T,,M,0.039,N,0.073,K,D*28
$GPGGA,151118.00,4729.97706,N,00222.58398,W,2,12,0.78,7.4,M,48.7,M,,0000*4E
$GPGSA,A,3,16,18,20,21,26,27,30,11,08,10,07,40,1.38,0.78,1.14*04
$GPGSV,4,1,15,01,01,236,,07,17,303,35,08,48,296,43,10,48,119,50*77
$GPGSV,4,2,15,11,24,261,48,13,00,010,,15,04,036,42,16,57,178,41*7A
$GPGSV,4,3,15,18,15,056,44,20,43,070,46,21,29,059,41,26,25,164,40*71
$GPGSV,4,4,15,27,79,345,48,30,06,331,30,40,13,115,32*4D
$GPRMC,151119.00,A,4729.97705,N,00222.58397,W,0.024,,220520,,,D*6C
$GPVTG,,T,,M,0.024,N,0.045,K,D*21
$GPGGA,151119.00,4729.97705,N,00222.58397,W,2,12,0.78,7.4,M,48.7,M,,0000*43
$GPGSA,A,3,16,18,20,21,26,27,30,11,08,10,07,40,1.37,0.78,1.14*0B
$GPGSV,4,1,15,01,01,236,,07,17,303,33,08,48,296,42,10,48,119,50*70
$GPGSV,4,2,15,11,24,261,48,13,00,010,,15,04,036,42,16,57,178,42*79
$GPGSV,4,3,15,18,15,056,45,20,43,070,46,21,29,059,42,26,25,164,40*73
$GPTXT,01,01,00,txbuf alloc*7F
$GPRMC,151120.00,A,4729.97704,N,00222.58396,W,0.014,,220520,,,D*65
$GPVTG,,T,,M,0.014,N,0.025,K,D*24
$GPGGA,151120.00,4729.97704,N,00222.58396,W,2,12,0.78,7.4,M,48.7,M,,0000*49
$GPGSA,A,3,16,18,20,21,26,27,30,11,08,10,07,40,1.37,0.78,1.14*0B
$GPGSV,4,1,15,01,01,236,,07,17,303,32,08,48,296,41,10,48,119,49*7A
$GPGSV,4,2,15,11,24,261,47,13,00,010,,15,04,036,42,16,57,178,41*75
$GPRMC,151121.00,A,4729.97704,N,00222.58395,W,0.031,,220520,,,D*60
$GPVTG,,T,,M,0.031,N,0.057,K,D*26
$GPGGA,151121.00,4729.97704,N,00222.58395,W,2,12,0.78,7.4,M,48.7,M,,0000*4B
$GPGSA,A,3,16,18,20,21,26,27,30,11,08,10,07,40,1.37,0.78,1.14*0B
$GPGSV,4,1,15,01,01,236,,07,17,303,32,08,48,296,41,10,48,119,50*72
$GPGSV,4,2,15,11,24,261,48,13,00,010,,15,04,036,41,16,57,178,41*79
$GPGSV,4,3,15,18,15,056,45,20,43,070,46,21,29,059,42,26,25,164,40*73
$GPGSV,4,4,15,27,79,345,48,30,06,331,32,40,13,115,33*4E
$GPRMC,151122.00,A,4729.97704,N,00222.58395,W,0.055,,220520,,,D*61
$GPVTG,,T,,M,0.055,N,0.101,K,D*26
$GPGGA,151122.00,4729.97704,N,00222.58395,W,2,12,0.78,7.5,M,48.7,M,,0000*49
$GPGSA,A,3,16,18,20,21,26,27,30,11,08,10,07,40,1.37,0.78,1.14*0B
$GPGSV,4,1,15,01,01,236,,07,17,303,35,08,48,296,42,10,48,119,50*76
$GPGSV,4,2,15,11,24,261,48,13,00,010,,15,04,036,42,16,57,178,41*7A
$GPGSV,4,3,15,18,15,056,45,20,43,070,46,21,29,059,43,26,25,164,38*7D
$GPRMC,151123.00,A,4729.97704,N,00222.58396,W,0.015,,220520,,,D*67
$GPVTG,,T,,M,0.015,N,0.028,K,D*28
$GPGGA,151123.00,4729.97704,N,00222.58396,W,2,12,0.78,7.6,M,48.7,M,,0000*48
$GPGSA,A,3,16,18,20,21,26,27,30,11,08,10,07,40,1.37,0.78,1.14*0B
$GPGSV,4,1,15,01,01,236,,07,17,303,31,08,48,296,41,10,48,119,50*71
$GPGSV,4,2,15,11,24,261,48,13,00,010,,15,04,036,41,16,57,178,41*79
$GPGSV,4,3,15,18,15,056,45,20,43,070,45,21,29,059,43,26,25,164,42*73
$GPGSV,4,4,15,27,79,345,48,30,06,331,34,40,13,115,34*4F
$GPRMC,151124.00,A,4729.97704,N,00222.58397,W,0.010,,220520,,,D*64
$GPVTG,,T,,M,0.010,N,0.019,K,D*2F
$GPGGA,151124.00,4729.97704,N,00222.58397,W,2,12,0.78,7.6,M,48.7,M,,0000*4E
$GPGSA,A,3,16,18,20,21,26,27,30,11,08,10,07,40,1.37,0.78,1.14*0B
$GPGSV,4,1,15,01,01,236,,07,17,303,32,08,48,296,42,10,48,119,50*71
$GPGSV,4,2,15,11,24,261,48,13,00,010,,15,04,036,41,16,57,178,41*79
$GPGSV,4,3,15,18,15,056,46,20,43,070,46,21,29,059,43,26,25,164,41*70
$GPRMC,151125.00,A,4729.97702,N,00222.58398,W,0.036,,220520,,,D*68
$GPVTG,,T,,M,0.036,N,0.067,K,D*22
$GPGGA,151125.00,4729.97702,N,00222.58398,W,2,12,0.78,7.7,M,48.7,M,,0000*47
$GPGSA,A,3,16,18,20,21,26,27,30,11,08,10,07,40,1.37,0.78,1.14*0B
$GPGSV,4,1,15,01,01,236,,07,17,303,35,08,48,296,41,10,48,119,50*75
$GPGSV,4,2,15,11,24,261,50,13,00,010,,15,04,036,42,16,57,178,41*73
$GPGSV,4,3,15,18,15,056,46,20,43,070,46,21,29,059,43,26,25,164,40*71
$GPGSV,4,4,15,27,79,345,48,30,06,331,32,40,13,115,33*4E
$GPRMC,151126.00,A,4729.97700,N,00222.58397,W,0.008,,220520,,,D*6B
$GPVTG,,T,,M,0.008,N,0.015,K,D*2A
$GPGGA,151126.00,4729.97700,N,00222.58397,W,2,12,0.78,7.7,M,48.7,M,,0000*49
$GPGSA,A,3,16,18,20,21,26,27,30,11,08,10,07,40,1.37,0.78,1.14*0B
$GPGSV,4,1,15,01,01,236,,07,17,303,34,08,48,296,41,10,48,119,49*7C
$GPGSV,4,2,15,11,24,261,49,13,00,010,,15,04,036,42,16,57,178,41*7B
$GPGSV,4,3,15,18,15,056,46,20,43,070,46,21,29,059,41,26,25,164,40*73
$GPRMC,151127.00,A,4729.97699,N,00222.58398,W,0.037,,220520,,,D*68
$GPVTG,,T,,M,0.037,N,0.069,K,D*2D
$GPGGA,151127.00,4729.97699,N,00222.58398,W,2,12,0.78,7.7,M,48.7,M,,0000*46
$GPGSA,A,3,16,18,20,21,26,27,30,11,08,10,07,40,1.37,0.78,1.14*0B
$GPGSV,4,1,15,01,01,236,,07,17,303,30,08,48,296,41,10,48,119,50*70
$GPGSV,4,2,15,11,24,261,48,13,00,010,,15,04,036,42,16,57,178,40*7B
$GPGSV,4,3,15,18,15,056,46,20,43,070,45,21,29,059,43,26,25,164,41*73
$GPGSV,4,4,15,27,79,345,48,30,06,331,30,40,13,115,33*4C
$GPRMC,151128.00,A,4729.97697,N,00222.58399,W,0.041,,220520,,,D*69
$GPVTG,,T,,M,0.041,N,0.076,K,D*22
$GPGGA,151128.00,4729.97697,N,00222.58399,W,2,12,0.78,7.8,M,48.7,M,,0000*49
$GPGSA,A,3,16,18,20,21,26,27,30,11,08,10,07,40,1.37,0.78,1.14*0B
$GPGSV,4,1,15,01,01,236,,07,17,303,34,08,48,296,39,10,48,119,49*73
$GPGSV,4,2,15,11,24,261,48,13,00,010,,15,04,036,43,16,57,178,41*7B
$GPGSV,4,3,15,18,15,056,46,20,43,070,45,21,29,059,43,26,25,164,38*7D
$GPGSV,4,4,15,27,79,345,48,30,06,331,30,40,13,115,34*4B
$GPGLL,4729.97697,N,00222.58399,W,151128.00,A,D*72
$GPRMC,151129.00,A,4729.97694,N,00222.58401,W,0.020,,220520,,,D*6A
$GPVTG,,T,,M,0.020,N,0.036,K,D*21
$GPGGA,151129.00,4729.97694,N,00222.58401,W,2,12,0.78,7.8,M,48.7,M,,0000*4D
$GPGSA,A,3,16,18,20,21,26,27,30,11,08,10,07,40,1.37,0.78,1.13*0C
$GPGSV,4,1,15,01,01,236,,07,17,303,34,08,48,296,40,10,48,119,49*7D
$GPGSV,4,2,15,11,24,261,47,13,00,010,,15,04,036,44,16,57,178,40*72
$GPGSV,4,3,15,18,15,056,46,20,43,070,46,21,29,059,42,26,25,164,37*70
$GPGSV,4,4,15,27,79,345,48,30,06,331,29,40,13,115,33*44
$GPRMC,151130.00,A,4729.97690,N,00222.58401,W,0.021,,220520,,,D*67
$GPVTG,,T,,M,0.021,N,0.039,K,D*2F
$GPGGA,151130.00,4729.97690,N,00222.58401,W,2,12,0.78,7.8,M,48.7,M,,0000*41
$GPGSA,A,3,16,18,20,21,26,27,30,11,08,10,07,40,1.37,0.78,1.13*0C
$GPGSV,4,1,15,01,01,236,,07,17,303,37,08,48,296,41,10,48,119,49*7F
$GPGSV,4,2,15,11,24,261,48,13,00,010,,15,04,036,43,16,57,178,41*7B
$GPGSV,4,3,15,18,15,056,46,20,43,070,45,21,29,059,43,26,25,164,37*72
$GPTXT,01,01,00,txbuf alloc*7F
$GPRMC,151131.00,A,4729.97687,N,00222.58401,W,0.011,,220520,,,D*63
$GPVTG,,T,,M,0.011,N,0.020,K,D*24
$GPGGA,151131.00,4729.97687,N,00222.58401,W,2,12,0.78,7.9,M,48.7,M,,0000*47
$GPGSA,A,3,16,18,20,21,26,27,30,11,08,10,07,40,1.37,0.78,1.13*0C
$GPGSV,4,1,15,01,01,236,,07,17,303,37,08,48,296,42,10,48,119,49*7C
$GPRMC,151132.00,A,4729.97684,N,00222.58401,W,0.021,,220520,,,D*60
$GPVTG,,T,,M,0.021,N,0.039,K,D*2F
$GPGGA,151132.00,4729.97684,N,00222.58401,W,2,12,0.78,8.0,M,48.7,M,,0000*41
$GPGSA,A,3,16,18,20,21,26,27,30,11,08,10,07,40,1.37,0.78,1.13*0C
$GPGSV,4,1,15,01,01,236,,07,17,303,34,08,48,296,42,10,48,119,49*7F
$GPGSV,4,2,15,11,24,261,48,13,00,010,,15,04,036,43,16,57,178,41*7B
$GPGSV,4,3,15,18,15,056,46,20,43,070,46,21,29,059,43,26,25,164,41*70
$GPGSV,4,4,15,27,79,345,48,30,06,331,33,40,13,115,31*4D
$GPRMC,151133.00,A,4729.97684,N,00222.58401,W,0.013,,220520,,,D*60
$GPVTG,,T,,M,0.013,N,0.024,K,D*22
$GPGGA,151133.00,4729.97684,N,00222.58401,W,2,12,0.78,8.1,M,48.7,M,,0000*41
$GPGSA,A,3,16,18,20,21,26,27,30,11,08,10,07,40,1.37,0.78,1.13*0C
$GPGSV,4,1,15,01,01,236,,07,17,303,35,08,48,296,41,10,48,119,49*7D
$GPGSV,4,2,15,11,24,261,47,13,00,010,,15,04,036,44,16,57,178,41*73
$GPGSV,4,3,15,18,15,056,45,20,43,070,46,21,29,059,42,26,25,164,41*72
$GPRMC,151134.00,A,4729.97686,N,00222.58401,W,0.019,,220520,,,D*6F
$GPVTG,,T,,M,0.019,N,0.035,K,D*28
$GPGGA,151134.00,4729.97686,N,00222.58401,W,2,12,0.82,8.1,M,48.7,M,,0000*41
$GPGSA,A,3,16,18,20,21,26,27,30,11,08,10,07,40,1.49,0.82,1.24*04
$GPGSV,4,1,15,01,01,236,,07,17,303,35,08,48,296,41,10,48,119,50*75
$GPGSV,4,2,15,11,24,261,48,13,00,010,,15,04,036,45,16,57,178,41*7D
$GPGSV,4,3,15,18,15,056,46,20,43,070,46,21,29,060,42,26,25,164,41*7B
$GPGSV,4,4,15,27,79,345,48,30,06,331,36,40,13,115,32*4B
$GPRMC,151135.00,A,4729.97688,N,00222.58399,W,0.023,,220520,,,D*6F
$GPVTG,,T,,M,0.023,N,0.042,K,D*21
$GPGGA,151135.00,4729.97688,N,00222.58399,W,2,12,0.78,8.2,M,48.7,M,,0000*4E
$GPGSA,A,3,16,18,20,21,26,27,30,11,08,10,07,40,1.37,0.78,1.13*0C
$GPGSV,4,1,15,01,01,236,,07,17,303,39,08,48,296,41,10,48,119,49*71
$GPGSV,4,2,15,11,24,261,48,13,00,010,,15,04,036,45,16,57,178,41*7D
$GPGSV,4,3,15,18,15,056,47,20,43,070,45,21,29,060,41,26,25,164,40*7B
$GPRMC,151136.00,A,4729.97689,N,00222.58397,W,0.020,,220520,,,D*60
$GPVTG,,T,,M,0.020,N,0.037,K,D*20
$GPGGA,151136.00,4729.97689,N,00222.58397,W,2,12,0.78,8.2,M,48.7,M,,0000*42
$GPGSA,A,3,16,18,20,21,26,27,30,11,08,10,07,40,1.37,0.78,1.13*0C
$GPGSV,4,1,15,01,01,236,,07,17,303,34,08,48,296,43,10,48,119,49*7E
$GPGSV,4,2,15,11,24,261,48,13,00,010,,15,04,036,45,16,57,178,41*7D
$GPGSV,4,3,15,18,15,056,46,20,43,070,46,21,29,060,40,26,25,164,38*77
$GPGSV,4,4,15,27,79,345,48,30,06,331,36,40,13,115,33*4A
$GPRMC,151137.00,A,4729.97690,N,00222.58395,W,0.002,,220520,,,D*6B
$GPVTG,,T,,M,0.002,N,0.003,K,D*27
$GPGGA,151137.00,4729.97690,N,00222.58395,W,2,12,0.78,8.2,M,48.7,M,,0000*49
$GPGSA,A,3,16,18,20,21,26,27,30,11,08,10,07,40,1.37,0.78,1.13*0C
$GPGSV,4,1,15,01,01,236,,07,17,303,34,08,48,296,41,10,48,119,49*7C
$GPGSV,4,2,15,11,24,261,48,13,00,010,,15,04,036,44,16,57,178,41*7C
$GPGSV,4,3,15,18,15,056,46,20,43,070,46,21,29,060,40,26,25,164,40*78
$GPRMC,151138.00,A,4729.97691,N,00222.58393,W,0.019,,220520,,,D*69
$GPVTG,,T,,M,0.019,N,0.036,K,D*2B
$GPGGA,151138.00,4729.97691,N,00222.58393,W,2,12,0.78,8.2,M,48.7,M,,0000*41
$GPGSA,A,3,16,18,20,21,26,27,30,11,08,10,07,40,1.37,0.78,1.13*0C
$GPGSV,4,1,15,01,01,236,,07,17,303,36,08,48,296,41,10,48,119,49*7E
$GPGSV,4,2,15,11,24,261,48,13,00,010,,15,04,036,45,16,57,178,41*7D
$GPGSV,4,3,15,18,15,056,46,20,43,070,46,21,29,060,40,26,25,164,40*78
$GPGSV,4,4,15,27,79,345,48,30,06,331,36,40,13,115,33*4A
$GPRMC,151139.00,A,4729.97691,N,00222.58392,W,0.012,,220520,,,D*62
$GPVTG,,T,,M,0.012,N,0.022,K,D*25
$GPGGA,151139.00,4729.97691,N,00222.58392,W,2,12,0.78,8.2,M,48.7,M,,0000*41
$GPGSA,A,3,16,18,20,21,26,27,30,11,08,10,07,40,1.37,0.78,1.13*0C
$GPGSV,4,1,15,01,01,236,,07,17,303,36,08,48,296,42,10,48,119,49*7D
$GPGSV,4,2,15,11,24,261,47,13,00,010,,15,04,036,45,16,57,178,41*72
$GPGSV,4,3,15,18,15,056,46,20,43,070,45,21,29,060,40,26,25,164,39*75
$GPGSV,4,4,15,27,80,346,49,30,06,331,37,40,13,115,33*4F
$GPRMC,151141.00,A,4729.97690,N,00222.58385,W,0.003,,220520,,,D*6A
$GPVTG,,T,,M,0.003,N,0.005,K,D*20
$GPGGA,151141.00,4729.97690,N,00222.58385,W,2,12,0.78,8.3,M,48.7,M,,0000*48
$GPGSA,A,3,16,18,20,21,26,27,30,11,08,10,07,40,1.37,0.78,1.13*0C
$GPGSV,4,1,15,01,01,236,,07,17,303,34,08,48,296,38,10,48,119,49*72
$GPGSV,4,2,15,11,24,261,48,13,00,010,,15,04,036,44,16,57,178,41*7C
$GPGSV,4,3,15,18,15,056,46,20,43,070,46,21,29,060,40,26,25,164,39*76
$GPTXT,01,01,00,txbuf alloc*7F
$GPRMC,151142.00,A,4729.97690,N,00222.58383,W,0.031,,220520,,,D*6E
$GPVTG,,T,,M,0.031,N,0.058,K,D*29
$GPGGA,151142.00,4729.97690,N,00222.58383,W,2,12,0.78,8.3,M,48.7,M,,0000*4D
$GPGSA,A,3,16,18,20,21,26,27,30,11,08,10,07,40,1.37,0.78,1.13*0C
$GPGSV,4,1,15,01,01,236,,07,17,303,35,08,48,296,42,10,48,119,49*7E
$GPGSV,4,2,15,11,24,261,47,13,00,010,,15,04,036,43,16,57,178,40*75
$GPRMC,151143.00,A,4729.97689,N,00222.58382,W,0.026,,220520,,,D*60
$GPVTG,,T,,M,0.026,N,0.048,K,D*2E
$GPGGA,151143.00,4729.97689,N,00222.58382,W,2,12,0.78,8.3,M,48.7,M,,0000*45
$GPGSA,A,3,16,18,20,21,26,27,30,11,08,10,07,40,1.37,0.78,1.13*0C
$GPGSV,4,1,15,01,01,236,,07,17,303,31,08,48,296,41,10,48,119,49*79
$GPGSV,4,2,15,11,24,261,48,13,00,010,,15,04,036,43,16,57,178,41*7B
$GPGSV,4,3,15,18,15,056,46,20,43,070,45,21,29,060,42,26,25,164,39*77
$GPRMC,151144.00,A,4729.97687,N,00222.58380,W,0.050,,220520,,,D*6A
$GPVTG,,T,,M,0.050,N,0.093,K,D*29
$GPGGA,151144.00,4729.97687,N,00222.58380,W,2,12,0.78,8.4,M,48.7,M,,0000*49
$GPGSA,A,3,16,18,20,21,26,27,30,11,08,10,07,40,1.37,0.78,1.13*0C
$GPGSV,4,1,15,01,01,236,,07,17,303,35,08,48,296,39,10,48,119,48*73
$GPGSV,4,2,15,11,24,261,48,13,00,010,,15,04,036,43,16,57,178,41*7B
$GPGSV,4,3,15,18,15,056,46,20,43,070,46,21,29,060,41,26,25,164,39*77
$GPGSV,4,4,15,27,80,346,48,30,06,331,37,40,13,115,33*4E
$GPRMC,151145.00,A,4729.97685,N,00222.58379,W,0.037,,220520,,,D*6E
$GPVTG,,T,,M,0.037,N,0.069,K,D*2D
$GPGGA,151145.00,4729.97685,N,00222.58379,W,2,12,0.78,8.4,M,48.7,M,,0000*4C
$GPGSA,A,3,16,18,20,21,26,27,30,11,08,10,07,40,1.37,0.78,1.13*0C
$GPGSV,4,1,15,01,01,236,,07,17,303,37,08,48,296,38,10,48,119,49*71
$GPGSV,4,2,15,11,24,261,47,13,00,010,,15,04,036,43,16,57,178,40*75
$GPGSV,4,3,15,18,15,056,47,20,43,070,46,21,29,060,41,26,25,164,40*78
$GPRMC,151146.00,A,4729.97683,N,00222.58379,W,0.018,,220520,,,D*66
$GPVTG,,T,,M,0.018,N,0.033,K,D*2F
$GPGGA,151146.00,4729.97683,N,00222.58379,W,2,12,0.77,8.5,M,48.7,M,,0000*47
$GPGSA,A,3,16,18,20,21,26,27,30,11,08,10,07,40,1.37,0.77,1.13*03
$GPGSV,4,1,15,01,01,236,,07,17,303,34,08,48,296,40,10,48,119,49*7D
$GPGSV,4,2,15,11,24,261,47,13,00,010,,15,04,036,44,16,57,178,40*72
$GPGSV,4,3,15,18,15,056,47,20,43,070,45,21,29,060,40,26,25,164,40*7A
$GPGSV,4,4,15,27,80,346,48,30,06,331,37,40,13,115,32*4F
$GPRMC,151147.00,A,4729.97683,N,00222.58378,W,0.009,,220520,,,D*66
$GPVTG,,T,,M,0.009,N,0.016,K,D*28
$GPGGA,151147.00,4729.97683,N,00222.58378,W,2,12,0.77,8.5,M,48.7,M,,0000*47
$GPGSA,A,3,16,18,20,21,26,27,30,11,08,10,07,40,1.37,0.77,1.13*03
$GPGSV,4,1,15,01,01,236,,07,17,303,35,08,48,296,41,10,48,119,49*7D
$GPGSV,4,2,15,11,24,261,49,13,00,010,,15,04,036,44,16,57,178,41*7D
$GPGSV,4,3,15,18,15,056,47,20,43,070,45,21,29,060,41,26,25,164,40*7B
$GPRMC,151148.00,A,4729.97683,N,00222.58377,W,0.017,,220520,,,D*69
$GPVTG,,T,,M,0.017,N,0.032,K,D*21
$GPGGA,151148.00,4729.97683,N,00222.58377,W,2,12,0.77,8.6,M,48.7,M,,0000*44
$GPGSA,A,3,16,18,20,21,26,27,30,11,08,10,07,40,1.37,0.77,1.13*03
$GPGSV,4,1,15,01,01,236,,07,17,303,36,08,48,296,40,10,48,119,48*7E
$GPGSV,4,2,15,11,24,261,48,13,00,010,,15,04,036,44,16,57,178,40*7D
$GPGSV,4,3,15,18,15,056,47,20,43,070,46,21,29,060,40,26,25,164,41*78
$GPGSV,4,4,15,27,80,346,48,30,06,331,36,40,13,115,30*4C
$GPRMC,151149.00,A,4729.97684,N,00222.58377,W,0.027,,220520,,,D*6C
$GPVTG,,T,,M,0.027,N,0.050,K,D*26
$GPGGA,151149.00,4729.97684,N,00222.58377,W,2,12,0.77,8.6,M,48.7,M,,0000*42
$GPGSA,A,3,16,18,20,21,26,27,30,11,08,10,07,40,1.37,0.77,1.13*03
$GPGSV,4,1,15,01,01,236,,07,17,303,35,08,48,296,38,10,48,119,49*73
$GPGSV,4,2,15,11,24,261,48,13,00,010,,15,04,036,44,16,57,178,40*7D
$GPGSV,4,3,15,18,15,056,46,20,43,070,46,21,29,060,41,26,25,164,41*78
$GPRMC,151150.00,A,4729.97685,N,00222.58378,W,0.016,,220520,,,D*68
$GPVTG,,T,,M,0.016,N,0.030,K,D*22
$GPGGA,151150.00,4729.97685,N,00222.58378,W,2,12,0.77,8.6,M,48.7,M,,0000*44
$GPGSA,A,3,16,18,20,21,26,27,30,11,08,10,07,40,1.37,0.77,1.13*03
$GPGSV,4,1,15,01,01,236,,07,17,303,33,08,48,296,41,10,48,119,49*7B
$GPGSV,4,2,15,11,24,261,48,13,00,010,,15,04,036,44,16,57,178,40*7D
$GPGSV,4,3,15,18,15,056,47,20,43,070,46,21,29,060,41,26,25,164,39*76
$GPGSV,4,4,15,27,80,346,48,30,06,331,33,40,13,115,32*4B
$GPGLL,4729.97685,N,00222.58378,W,151150.00,A,D*71
$GPRMC,151151.00,A,4729.97686,N,00222.58379,W,0.011,,220520,,,D*6C
$GPVTG,,T,,M,0.011,N,0.021,K,D*25
$GPGGA,151151.00,4729.97686,N,00222.58379,W,2,12,0.77,8.6,M,48.7,M,,0000*47
$GPGSA,A,3,16,18,20,21,26,27,30,11,08,10,07,40,1.37,0.77,1.13*03
$GPGSV,4,1,15,01,01,236,,07,17,303,34,08,48,296,40,10,48,119,49*7D
$GPGSV,4,2,15,11,24,261,48,13,00,010,,15,04,036,44,16,57,178,41*7C
$GPGSV,4,3,15,18,15,056,47,20,43,070,46,21,29,060,42,26,25,164,40*7B
$GPGSV,4,4,15,27,80,346,49,30,06,331,33,40,13,115,33*4B
$GPRMC,151152.00,A,4729.97685,N,00222.58379,W,0.031,,220520,,,D*6E
$GPVTG,,T,,M,0.031,N,0.057,K,D*26
$GPGGA,151152.00,4729.97685,N,00222.58379,W,2,12,0.77,8.6,M,48.7,M,,0000*47
$GPGSA,A,3,16,18,20,21,26,27,30,11,08,10,07,40,1.37,0.77,1.13*03
$GPGSV,4,1,15,01,01,236,,07,17,303,36,08,48,296,42,10,48,119,49*7D
$GPGSV,4,2,15,11,24,261,48,13,00,010,,15,04,036,43,16,57,178,41*7B
$GPGSV,4,3,15,18,15,056,47,20,43,070,46,21,29,060,42,26,25,164,40*7B
$GPTXT,01,01,00,txbuf alloc*7F
$GPRMC,151153.00,A,4729.97684,N,00222.58378,W,0.012,,220520,,,D*6E
$GPVTG,,T,,M,0.012,N,0.023,K,D*24
$GPGGA,151153.00,4729.97684,N,00222.58378,W,2,12,0.77,8.6,M,48.7,M,,0000*46
$GPGSA,A,3,16,18,20,21,26,27,30,11,08,10,07,40,1.37,0.77,1.13*03
$GPGSV,4,1,15,01,01,236,,07,17,303,37,08,48,296,42,10,48,119,48*7D
$GPGSV,4,2,15,11,24,261,49,13,00,010,,15,04,036,43,16,57,178,40*7B
$GPRMC,151154.00,A,4729.97684,N,00222.58377,W,0.052,,220520,,,D*62
$GPVTG,,T,,M,0.052,N,0.096,K,D*2E
$GPGGA,151154.00,4729.97684,N,00222.58377,W,2,12,0.77,8.7,M,48.7,M,,0000*4F
$GPGSA,A,3,16,18,20,21,26,27,30,11,08,10,07,40,1.37,0.77,1.13*03
$GPGSV,4,1,15,01,01,236,,07,17,303,34,08,48,296,41,10,48,119,48*7D
$GPGSV,4,2,15,11,24,261,48,13,00,010,,15,04,036,43,16,57,178,40*7A
$GPGSV,4,3,15,18,15,056,47,20,43,070,47,21,29,060,42,26,25,164,39*74
$GPRMC,151155.00,A,4729.97684,N,00222.58378,W,0.017,,220520,,,D*6D
$GPVTG,,T,,M,0.017,N,0.031,K,D*22
$GPGGA,151155.00,4729.97684,N,00222.58378,W,2,12,0.77,8.7,M,48.7,M,,0000*41
$GPGSA,A,3,16,18,20,21,26,27,30,11,08,10,07,40,1.37,0.77,1.13*03
$GPGSV,4,1,15,01,01,236,,07,17,303,33,08,48,296,41,10,48,119,48*7A
$GPGSV,4,2,15,11,24,261,48,13,00,010,,15,04,036,41,16,57,178,40*78
$GPGSV,4,3,15,18,15,056,47,20,43,070,47,21,29,060,41,26,25,164,40*79
$GPGSV,4,4,15,27,80,346,49,30,06,331,32,40,13,115,32*4B
$GPRMC,151156.00,A,4729.97681,N,00222.58378,W,0.004,,220520,,,D*69
$GPVTG,,T,,M,0.004,N,0.008,K,D*2A
$GPGGA,151156.00,4729.97681,N,00222.58378,W,2,12,0.77,8.7,M,48.7,M,,0000*47
$GPGSA,A,3,16,18,20,21,26,27,30,11,08,10,07,40,1.37,0.77,1.13*03
$GPGSV,4,1,15,01,01,236,,07,17,303,33,08,48,296,41,10,48,119,48*7A
$GPGSV,4,2,15,11,24,261,48,13,00,010,,15,04,036,41,16,57,178,41*79
$GPGSV,4,3,15,18,15,056,47,20,43,070,46,21,29,060,42,26,25,164,37*7B
$GPRMC,151157.00,A,4729.97679,N,00222.58378,W,0.008,,220520,,,D*63
$GPVTG,,T,,M,0.008,N,0.016,K,D*29
$GPGGA,151157.00,4729.97679,N,00222.58378,W,2,12,0.77,8.6,M,48.7,M,,0000*40
$GPGSA,A,3,16,18,20,21,26,27,30,11,08,10,07,40,1.37,0.77,1.13*03
$GPGSV,4,1,15,01,01,236,,07,17,303,27,08,48,296,41,10,48,119,48*7F
$GPGSV,4,2,15,11,24,261,48,13,00,010,,15,04,036,40,16,57,178,40*79
$GPGSV,4,3,15,18,15,056,46,20,43,070,46,21,29,060,42,26,25,164,37*7A
$GPGSV,4,4,15,27,80,346,49,30,06,331,30,40,13,115,33*48
$GPRMC,151158.00,A,4729.97676,N,00222.58377,W,0.044,,220520,,,D*64
$GPVTG,,T,,M,0.044,N,0.082,K,D*2C
$GPGGA,151158.00,4729.97676,N,00222.58377,W,2,12,0.77,8.6,M,48.7,M,,0000*4F
$GPGSA,A,3,16,18,20,21,26,27,30,11,08,10,07,40,1.37,0.77,1.13*03
$GPGSV,4,1,15,01,01,236,,07,17,303,36,08,48,296,41,10,48,119,49*7E
$GPGSV,4,2,15,11,24,261,48,13,00,010,,15,04,036,39,16,57,178,40*77
$GPGSV,4,3,15,18,15,056,47,20,43,070,46,21,29,060,41,26,25,164,38*77
$GPRMC,151159.00,A,4729.97673,N,00222.58376,W,0.011,,220520,,,D*61
$GPVTG,,T,,M,0.011,N,0.021,K,D*25
$GPGGA,151159.00,4729.97673,N,00222.58376,W,2,12,0.77,8.5,M,48.7,M,,0000*49
$GPGSA,A,3,16,18,20,21,26,27,30,11,08,10,07,40,1.37,0.77,1.13*03
$GPGSV,4,1,15,01,01,236,,07,17,303,34,08,48,296,41,10,48,119,48*7D
$GPGSV,4,2,15,11,24,261,48,13,00,010,,15,04,036,39,16,57,178,41*76
$GPGSV,4,3,15,18,15,056,47,20,43,070,46,21,29,060,43,26,25,164,38*75
$GPGSV,4,4,15,27,80,346,49,30,06,331,26,40,13,115,33*4F
$GPRMC,151200.00,A,4729.97670,N,00222.58376,W,0.032,,220520,,,D*6C
$GPVTG,,T,,M,0.032,N,0.060,K,D*21
$GPGGA,151200.00,4729.97670,N,00222.58376,W,2,12,0.77,8.4,M,48.7,M,,0000*44
$GPGSA,A,3,16,18,20,21,26,27,30,11,08,10,07,40,1.37,0.77,1.13*03
$GPGSV,4,1,15,01,01,236,,07,17,303,33,08,48,296,40,10,48,119,48*7B
$GPGSV,4,2,15,11,24,261,48,13,00,010,,15,04,036,39,16,57,178,41*76
$GPGSV,4,3,15,18,15,056,46,20,43,070,47,21,29,060,41,26,25,164,37*78
$GPRMC,151201.00,A,4729.97670,N,00222.58375,W,0.016,,220520,,,D*68
$GPVTG,,T,,M,0.016,N,0.029,K,D*2A
$GPGGA,151201.00,4729.97670,N,00222.58375,W,2,12,0.77,8.4,M,48.7,M,,0000*46
$GPGSA,A,3,16,18,20,21,26,27,30,11,08,10,07,40,1.37,0.77,1.13*03
$GPGSV,4,1,15,01,01,236,,07,17,303,32,08,48,296,42,10,48,119,48*78
$GPGSV,4,2,15,11,24,261,49,13,00,010,,15,04,036,39,16,57,178,41*77
$GPGSV,4,3,15,18,15,056,46,20,43,070,48,21,29,060,40,26,25,164,40*76
$GPGSV,4,4,15,27,80,346,48,30,06,331,28,40,13,115,33*40
$GPGLL,4729.97670,N,00222.58375,W,151201.00,A,D*71
$GPRMC,151202.00,A,4729.97672,N,00222.58375,W,0.028,,220520,,,D*64
$GPVTG,,T,,M,0.028,N,0.051,K,D*28
$GPGGA,151202.00,4729.97672,N,00222.58375,W,2,12,0.77,8.3,M,48.7,M,,0000*40
$GPGSA,A,3,16,18,20,21,26,27,30,11,08,10,07,40,1.37,0.77,1.13*03
$GPGSV,4,1,15,01,01,236,,07,17,303,36,08,48,296,40,10,48,119,47*71
$GPGSV,4,2,15,11,24,261,48,13,00,010,,15,04,036,40,16,57,178,41*78
$GPGSV,4,3,15,18,15,056,47,20,43,070,47,21,29,060,42,26,25,164,40*7A
$GPGSV,4,4,15,27,80,346,49,30,06,331,30,40,13,115,33*48
$GPRMC,151203.00,A,4729.97671,N,00222.58373,W,0.013,,220520,,,D*68
$GPVTG,,T,,M,0.013,N,0.023,K,D*25
$GPGGA,151203.00,4729.97671,N,00222.58373,W,2,12,0.77,8.3,M,48.7,M,,0000*44
$GPGSA,A,3,16,18,20,21,26,27,30,11,08,10,07,40,1.37,0.77,1.13*03
$GPGSV,4,1,15,01,01,236,,07,17,303,37,08,48,296,41,10,48,119,48*7E
$GPGSV,4,2,15,11,24,261,48,13,00,010,,15,04,036,42,16,57,178,41*7A
$GPGSV,4,3,15,18,15,056,46,20,43,070,47,21,29,060,43,26,25,164,39*74
$GPTXT,01,01,00,txbuf alloc*7F
$GPRMC,151204.00,A,4729.97674,N,00222.58374,W,0.016,,220520,,,D*68
$GPVTG,,T,,M,0.016,N,0.029,K,D*2A
$GPGGA,151204.00,4729.97674,N,00222.58374,W,2,12,0.77,8.3,M,48.7,M,,0000*41
$GPGSA,A,3,16,18,20,21,26,27,30,11,08,10,07,40,1.37,0.77,1.13*03
$GPGSV,4,1,15,01,01,236,,07,17,303,35,08,48,296,39,10,48,119,47*7C
$GPGSV,4,2,15,11,24,261,48,13,00,010,,15,04,036,41,16,57,178,41*79
$GPRMC,151205.00,A,4729.97675,N,00222.58375,W,0.020,,220520,,,D*6C
$GPVTG,,T,,M,0.020,N,0.037,K,D*20
$GPGGA,151205.00,4729.97675,N,00222.58375,W,2,12,0.77,8.3,M,48.7,M,,0000*40
$GPGSA,A,3,16,18,20,21,26,27,30,11,08,10,07,40,1.37,0.77,1.13*03
$GPGSV,4,1,15,01,01,236,,07,17,303,38,08,48,296,40,10,48,119,48*70
$GPGSV,4,2,15,11,24,261,48,13,00,010,,15,04,036,42,16,57,178,41*7A
$GPGSV,4,3,15,18,15,056,47,20,43,070,46,21,29,060,44,26,25,164,40*7D
$GPGSV,4,4,15,27,80,346,49,30,06,331,31,40,13,115,33*49
$GPRMC,151206.00,A,4729.97676,N,00222.58376,W,0.024,,220520,,,D*6B
$GPVTG,,T,,M,0.024,N,0.044,K,D*20
$GPGGA,151206.00,4729.97676,N,00222.58376,W,2,12,0.77,8.4,M,48.7,M,,0000*44
$GPGSA,A,3,16,18,20,21,26,27,30,11,08,10,07,40,1.37,0.77,1.13*03
$GPGSV,4,1,15,01,01,236,,07,17,303,38,08,48,296,41,10,48,119,48*71
$GPGSV,4,2,15,11,24,261,48,13,00,010,,15,04,036,43,16,57,178,41*7B
$GPGSV,4,3,15,18,15,056,47,20,43,070,47,21,29,060,43,26,25,164,40*7B
$GPRMC,151207.00,A,4729.97677,N,00222.58376,W,0.017,,220520,,,D*6B
$GPVTG,,T,,M,0.017,N,0.032,K,D*21
$GPGGA,151207.00,4729.97677,N,00222.58376,W,2,12,0.77,8.4,M,48.7,M,,0000*44
$GPGSA,A,3,16,18,20,21,26,27,30,11,08,10,07,40,1.37,0.77,1.13*03
$GPGSV,4,1,15,01,01,236,,07,17,303,40,08,48,296,39,10,48,119,49*70
$GPGSV,4,2,15,11,24,261,48,13,00,010,,15,04,036,43,16,57,178,41*7B
$GPGSV,4,3,15,18,15,056,47,20,43,070,47,21,29,060,43,26,25,164,41*7A
$GPGSV,4,4,15,27,80,346,49,30,06,331,29,40,13,115,34*47
$GPRMC,151208.00,A,4729.97678,N,00222.58376,W,0.022,,220520,,,D*6D
$GPVTG,,T,,M,0.022,N,0.040,K,D*22
$GPGGA,151208.00,4729.97678,N,00222.58376,W,2,12,0.77,8.4,M,48.7,M,,0000*44
$GPGSA,A,3,16,18,20,21,26,27,30,11,08,10,07,40,1.37,0.77,1.13*03
$GPGSV,4,1,15,01,01,236,20,07,17,303,38,08,48,296,39,10,49,119,49*7C
$GPGSV,4,2,15,11,24,261,48,13,00,010,,15,04,036,43,16,57,178,41*7B
$GPGSV,4,3,15,18,15,056,47,20,43,070,47,21,29,060,43,26,25,164,39*75
$GPRMC,151209.00,A,4729.97680,N,00222.58377,W,0.004,,220520,,,D*6E
$GPVTG,,T,,M,0.004,N,0.007,K,D*25
$GPGGA,151209.00,4729.97680,N,00222.58377,W,2,12,0.77,8.5,M,48.7,M,,0000*42
$GPGSA,A,3,16,18,20,21,26,27,30,11,08,10,07,40,1.37,0.77,1.13*03
$GPGSV,4,1,15,01,01,236,,07,17,303,34,08,48,296,39,10,49,119,48*73
$GPGSV,4,2,15,11,24,261,47,13,00,010,,15,04,036,43,16,57,178,42*77
$GPGSV,4,3,15,18,15,056,46,20,43,070,47,21,29,060,43,26,25,164,39*74
$GPGSV,4,4,15,27,80,346,49,30,06,331,27,40,13,115,31*4C
$GPRMC,151210.00,A,4729.97682,N,00222.58378,W,0.012,,220520,,,D*6C
$GPVTG,,T,,M,0.012,N,0.023,K,D*24
$GPGGA,151210.00,4729.97682,N,00222.58378,W,2,12,0.77,8.5,M,48.7,M,,0000*47
$GPGSA,A,3,16,18,20,21,26,27,30,11,08,10,07,40,1.37,0.77,1.13*03
$GPGSV,4,1,15,01,01,236,,07,17,303,37,08,48,296,37,10,49,119,49*7F
$GPGSV,4,2,15,11,24,261,48,13,00,010,,15,04,036,43,16,57,178,42*78
$GPGSV,4,3,15,18,15,056,47,20,43,070,47,21,29,060,43,26,25,164,40*7B
$GPRMC,151211.00,A,4729.97684,N,00222.58380,W,0.010,,220520,,,D*6E
$GPVTG,,T,,M,0.010,N,0.019,K,D*2F
$GPGGA,151211.00,4729.97684,N,00222.58380,W,2,12,0.77,8.6,M,48.7,M,,0000*44
$GPGSA,A,3,16,18,20,21,26,27,30,11,08,10,07,40,1.37,0.77,1.13*03
$GPGSV,4,1,15,01,01,236,,07,17,303,38,08,48,296,38,10,49,119,49*7F
$GPGSV,4,2,15,11,24,261,49,13,00,009,,15,04,036,44,16,57,178,41*75
$GPGSV,4,3,15,18,15,056,46,20,43,070,47,21,29,060,43,26,25,164,40*7A
$GPGSV,4,4,15,27,80,346,49,30,06,331,23,40,13,115,34*4D
$GPRMC,151212.00,A,4729.97685,N,00222.58382,W,0.013,,220520,,,D*6D
$GPVTG,,T,,M,0.013,N,0.024,K,D*22
$GPGGA,151212.00,4729.97685,N,00222.58382,W,2,12,0.77,8.6,M,48.7,M,,0000*44
$GPGSA,A,3,16,18,20,21,26,27,30,11,08,10,07,40,1.37,0.77,1.13*03
$GPGSV,4,1,15,01,01,236,,07,17,303,35,08,48,296,38,10,49,119,49*72
$GPGSV,4,2,15,11,24,261,48,13,00,009,,15,04,036,44,16,57,178,41*74
$GPGSV,4,3,15,18,15,056,47,20,43,070,47,21,29,060,44,26,25,164,38*73
$GPGSV,4,4,15,27,80,346,48,30,06,331,24,40,13,115,35*4A
$GPGLL,4729.97685,N,00222.58382,W,151212.00,A,D*71
$GPRMC,151213.00,A,4729.97686,N,00222.58383,W,0.009,,220520,,,D*65
$GPVTG,,T,,M,0.009,N,0.017,K,D*29
$GPGGA,151213.00,4729.97686,N,00222.58383,W,2,12,0.77,8.6,M,48.7,M,,0000*47
$GPGSA,A,3,16,18,20,21,26,27,30,11,08,10,07,40,1.37,0.77,1.13*03
$GPGSV,4,1,15,01,01,236,,07,17,303,37,08,48,296,41,10,49,119,48*7F
$GPGSV,4,2,15,11,24,261,48,13,00,009,,15,04,035,45,16,57,178,42*75
$GPGSV,4,3,15,18,15,056,47,20,43,070,47,21,29,060,44,26,25,164,40*7C
$GPGSV,4,4,15,27,80,346,48,30,06,331,24,40,13,115,35*4A
$GPRMC,151214.00,A,4729.97688,N,00222.58384,W,0.006,,220520,,,D*64
$GPVTG,,T,,M,0.006,N,0.011,K,D*20
$GPGGA,151214.00,4729.97688,N,00222.58384,W,2,12,0.77,8.6,M,48.7,M,,0000*49
$GPGSA,A,3,16,18,20,21,26,27,30,11,08,10,07,40,1.37,0.77,1.13*03
$GPGSV,4,1,15,01,01,236,,07,17,303,39,08,48,296,42,10,49,119,48*72
$GPGSV,4,2,15,11,24,261,48,13,00,009,,15,04,035,44,16,57,178,42*74
$GPGSV,4,3,15,18,15,056,47,20,43,070,46,21,29,060,41,26,25,164,40*78
$GPTXT,01,01,00,txbuf alloc*7F
$GPRMC,151215.00,A,4729.97690,N,00222.58386,W,0.010,,220520,,,D*69
$GPVTG,,T,,M,0.010,N,0.018,K,D*2E
$GPGGA,151215.00,4729.97690,N,00222.58386,W,2,12,0.77,8.6,M,48.7,M,,0000*43
$GPGSA,A,3,16,18,20,21,26,27,30,11,08,10,07,40,1.37,0.77,1.13*03
$GPGSV,4,1,15,01,01,236,21,07,17,303,37,08,48,296,42,10,49,119,47*70
$GPRMC,151216.00,A,4729.97693,N,00222.58388,W,0.033,,220520,,,D*66
$GPVTG,,T,,M,0.033,N,0.062,K,D*22
$GPGGA,151216.00,4729.97693,N,00222.58388,W,2,12,0.77,8.7,M,48.7,M,,0000*4C
$GPGSA,A,3,16,18,20,21,26,27,30,11,08,10,07,40,1.37,0.77,1.13*03
$GPGSV,4,1,15,01,01,236,21,07,17,303,36,08,48,296,41,10,49,119,48*7D
$GPGSV,4,2,15,11,24,261,47,13,00,009,,15,04,035,43,16,57,178,41*7F
$GPGSV,4,3,15,18,14,056,47,20,43,070,46,21,29,060,42,26,25,164,40*7A
$GPGSV,4,4,15,27,80,346,48,30,06,331,23,40,13,115,34*4C
$GPRMC,151217.00,A,4729.97696,N,00222.58390,W,0.018,,220520,,,D*62
$GPVTG,,T,,M,0.018,N,0.034,K,D*28
$GPGGA,151217.00,4729.97696,N,00222.58390,W,2,12,0.77,8.7,M,48.7,M,,0000*41
$GPGSA,A,3,16,18,20,21,26,27,30,11,08,10,07,40,1.37,0.77,1.13*03
$GPGSV,4,1,15,01,01,236,20,07,17,303,36,08,48,296,39,10,49,119,47*7C
$GPGSV,4,2,15,11,24,261,48,13,00,009,,15,04,035,43,16,57,178,41*70
$GPGSV,4,3,15,18,14,056,48,20,43,070,47,21,29,060,42,26,25,164,40*74
$GPRMC,151218.00,A,4729.97698,N,00222.58392,W,0.025,,220520,,,D*6F
$GPVTG,,T,,M,0.025,N,0.047,K,D*22
$GPGGA,151218.00,4729.97698,N,00222.58392,W,2,12,0.77,8.7,M,48.7,M,,0000*42
$GPGSA,A,3,16,18,20,21,26,27,30,11,08,10,07,40,1.37,0.77,1.13*03
$GPGSV,4,1,15,01,01,236,18,07,17,303,36,08,48,296,38,10,49,119,47*76
$GPGSV,4,2,15,11,24,261,48,13,00,009,,15,04,035,43,16,57,178,41*70
$GPGSV,4,3,15,18,14,056,48,20,43,070,46,21,29,060,42,26,25,164,42*77
$GPGSV,4,4,15,27,80,346,48,30,06,331,28,40,13,115,33*40
$GPRMC,151219.00,A,4729.97698,N,00222.58394,W,0.023,,220520,,,D*6E
$GPVTG,,T,,M,0.023,N,0.043,K,D*20
$GPGGA,151219.00,4729.97698,N,00222.58394,W,2,12,0.77,8.8,M,48.7,M,,0000*4A
$GPGSA,A,3,16,18,20,21,26,27,30,11,08,10,07,40,1.37,0.77,1.13*03
$GPGSV,4,1,15,01,01,236,17,07,17,303,37,08,48,296,40,10,49,119,47*77
$GPGSV,4,2,15,11,24,261,48,13,00,009,,15,04,035,43,16,57,178,40*71
$GPGSV,4,3,15,18,14,056,47,20,43,070,46,21,28,060,43,26,25,164,42*78
$GPRMC,151220.00,A,4729.97697,N,00222.58395,W,0.019,,220520,,,D*63
$GPVTG,,T,,M,0.019,N,0.036,K,D*2B
$GPGGA,151220.00,4729.97697,N,00222.58395,W,2,12,0.77,8.8,M,48.7,M,,0000*4E
$GPGSA,A,3,16,18,20,21,26,27,30,11,08,10,07,40,1.37,0.77,1.13*03
$GPGSV,4,1,15,01,01,236,,07,17,303,37,08,48,296,41,10,49,119,46*71
$GPGSV,4,2,15,11,24,261,48,13,00,009,,15,04,035,44,16,57,178,40*76
$GPGSV,4,3,15,18,14,056,47,20,43,070,46,21,28,060,44,26,25,164,41*7C
$GPGSV,4,4,15,27,80,346,49,30,06,331,30,40,13,115,35*4E
$GPRMC,151221.00,A,4729.97697,N,00222.58396,W,0.023,,220520,,,D*68
$GPVTG,,T,,M,0.023,N,0.043,K,D*20
$GPGGA,151221.00,4729.97697,N,00222.58396,W,2,12,0.77,8.8,M,48.7,M,,0000*4C
$GPGSA,A,3,16,18,20,21,26,27,30,11,08,10,07,40,1.37,0.77,1.13*03
$GPGSV,4,1,15,01,01,236,,07,17,303,37,08,48,296,38,10,49,119,46*7F
$GPGSV,4,2,15,11,24,261,47,13,00,009,,15,04,035,44,16,57,178,41*78
$GPGSV,4,3,15,18,14,056,48,20,43,070,45,21,28,060,44,26,25,164,41*70
$GPRMC,151222.00,A,4729.97696,N,00222.58397,W,0.034,,220520,,,D*6D
$GPVTG,,T,,M,0.034,N,0.063,K,D*24
$GPGGA,151222.00,4729.97696,N,00222.58397,W,2,12,0.77,8.9,M,48.7,M,,0000*4E
$GPGSA,A,3,16,18,20,21,26,27,30,11,08,10,07,40,1.37,0.77,1.13*03
$GPGSV,4,1,15,01,01,236,,07,17,303,37,08,48,296,38,10,49,119,45*7C
$GPGSV,4,2,15,11,24,261,48,13,00,009,,15,04,035,44,16,57,178,41*77
$GPGSV,4,3,15,18,14,056,47,20,43,070,46,21,28,060,43,26,25,164,41*7B
$GPGSV,4,4,15,27,80,346,49,30,06,331,30,40,13,115,35*4E
$GPRMC,151223.00,A,4729.97695,N,00222.58398,W,0.011,,220520,,,D*67
$GPVTG,,T,,M,0.011,N,0.021,K,D*25
$GPGGA,151223.00,4729.97695,N,00222.58398,W,2,12,0.77,8.9,M,48.7,M,,0000*43
$GPGSA,A,3,16,18,20,21,26,27,30,11,08,10,07,40,1.37,0.77,1.13*03
$GPGSV,4,1,15,01,01,236,,07,17,303,39,08,48,296,38,10,49,119,46*71
$GPGSV,4,2,15,11,24,261,48,13,00,009,,15,04,035,45,16,57,178,41*76
$GPGSV,4,3,15,18,14,056,47,20,43,070,46,21,28,060,43,26,24,164,39*75
$GPGSV,4,4,15,27,80,346,49,30,06,331,29,40,13,115,35*46
$GPGLL,4729.97695,N,00222.58398,W,151223.00,A,D*79
$GPRMC,151224.00,A,4729.97695,N,00222.58399,W,0.006,,220520,,,D*67
$GPVTG,,T,,M,0.006,N,0.010,K,D*21
$GPGGA,151224.00,4729.97695,N,00222.58399,W,2,12,0.77,8.9,M,48.7,M,,0000*45
$GPGSA,A,3,16,18,20,21,26,27,30,11,08,10,07,40,1.37,0.77,1.13*03
$GPGSV,4,1,15,01,01,236,,07,17,303,37,08,48,296,38,10,49,119,46*7F
$GPGSV,4,2,15,11,24,261,48,13,00,009,,15,04,035,45,16,57,178,43*74
$GPGSV,4,3,15,18,14,056,47,20,43,070,46,21,28,060,44,26,24,164,39*72
$GPGSV,4,4,15,27,80,348,48,30,06,331,28,40,13,115,33*4E
$GPRMC,151225.00,A,4729.97697,N,00222.58401,W,0.015,,220520,,,D*60
$GPVTG,,T,,M,0.015,N,0.028,K,D*28
$GPGGA,151225.00,4729.97697,N,00222.58401,W,2,12,0.77,8.9,M,48.7,M,,0000*40
$GPGSA,A,3,16,18,20,21,26,27,30,11,08,10,07,40,1.37,0.77,1.13*03
$GPGSV,4,1,15,01,01,236,,07,17,303,36,08,48,296,39,10,49,119,46*7F
$GPGSV,4,2,15,11,24,261,48,13,00,009,,15,04,035,44,16,57,178,41*77
$GPGSV,4,3,15,18,14,056,47,20,43,070,46,21,28,060,44,26,24,164,41*7D
$GPTXT,01,01,00,txbuf alloc*7F
$GPRMC,151226.00,A,4729.97699,N,00222.58403,W,0.021,,220520,,,D*68
$GPVTG,,T,,M,0.021,N,0.039,K,D*2F
$GPGGA,151226.00,4729.97699,N,00222.58403,W,2,12,0.77,9.0,M,48.7,M,,0000*47
$GPGSA,A,3,16,18,20,21,26,27,30,11,08,10,07,40,1.37,0.77,1.13*03
$GPGSV,4,1,15,01,01,236,,07,17,303,36,08,48,296,39,10,49,119,47*7E
$GPGSV,4,2,15,11,24,261,48,13,00,009,,15,04,035,44,16,57,178,42*74
$GPRMC,151227.00,A,4729.97701,N,00222.58406,W,0.017,,220520,,,D*69
$GPVTG,,T,,M,0.017,N,0.032,K,D*21
$GPGGA,151227.00,4729.97701,N,00222.58406,W,2,12,0.77,9.0,M,48.7,M,,0000*43
$GPGSA,A,3,16,18,20,21,26,27,30,11,08,10,07,40,1.37,0.77,1.13*03
$GPGSV,4,1,15,01,01,236,,07,17,303,36,08,48,296,36,10,49,119,46*70
$GPGSV,4,2,15,11,24,261,48,13,00,009,,15,04,035,44,16,57,178,42*74
$GPGSV,4,3,15,18,14,056,47,20,43,070,45,21,28,060,44,26,24,164,40*7F
$GPRMC,151228.00,A,4729.97704,N,00222.58409,W,0.019,,220520,,,D*62
$GPVTG,,T,,M,0.019,N,0.035,K,D*28
$GPGGA,151228.00,4729.97704,N,00222.58409,W,2,12,0.77,9.1,M,48.7,M,,0000*47
$GPGSA,A,3,16,18,20,21,26,27,30,11,08,10,07,40,1.37,0.77,1.13*03
$GPGSV,4,1,15,01,01,236,,07,17,303,37,08,48,296,39,10,49,119,47*7F
$GPGSV,4,2,15,11,24,261,48,13,00,009,,15,04,035,44,16,57,178,42*74
$GPGSV,4,3,15,18,14,056,46,20,43,070,46,21,28,060,42,26,24,164,40*7B
$GPGSV,4,4,15,27,80,348,48,30,06,331,30,40,13,115,32*46
$GPRMC,151229.00,A,4729.97708,N,00222.58412,W,0.017,,220520,,,D*6B
$GPVTG,,T,,M,0.017,N,0.031,K,D*22
$GPGGA,151229.00,4729.97708,N,00222.58412,W,2,12,0.77,9.1,M,48.7,M,,0000*40
$GPGSA,A,3,16,18,20,21,26,27,30,11,08,10,07,40,1.37,0.77,1.13*03
$GPGSV,4,1,15,01,01,236,,07,17,303,37,08,48,296,39,10,49,119,46*7E
$GPGSV,4,2,15,11,24,261,49,13,00,009,,15,04,035,44,16,57,178,42*75
$GPGSV,4,3,15,18,14,056,46,20,43,070,46,21,28,060,43,26,24,164,41*7B
$GPRMC,151230.00,A,4729.97711,N,00222.58414,W,0.015,,220520,,,D*6F
$GPVTG,,T,,M,0.015,N,0.027,K,D*27
$GPGGA,151230.00,4729.97711,N,00222.58414,W,2,12,0.77,9.1,M,48.7,M,,0000*46
$GPGSA,A,3,16,18,20,21,26,27,30,11,08,10,07,40,1.37,0.77,1.13*03
$GPGSV,4,1,15,01,01,236,,07,17,303,38,08,48,296,38,10,49,119,45*73
$GPGSV,4,2,15,11,24,261,48,13,00,009,,15,04,035,44,16,57,178,42*74
$GPGSV,4,3,15,18,14,056,47,20,43,070,46,21,28,060,43,26,24,164,41*7A
$GPGSV,4,4,15,27,80,348,48,30,06,331,29,40,13,115,33*4F
$GPRMC,151231.00,A,4729.97713,N,00222.58416,W,0.002,,220520,,,D*68
$GPVTG,,T,,M,0.002,N,0.003,K,D*27
$GPGGA,151231.00,4729.97713,N,00222.58416,W,2,12,0.77,9.2,M,48.7,M,,0000*44
$GPGSA,A,3,16,18,20,21,26,27,30,11,08,10,07,40,1.37,0.77,1.13*03
$GPGSV,4,1,15,01,01,236,,07,17,303,37,08,48,296,38,10,49,119,46*7F
$GPGSV,4,2,15,11,24,261,48,13,00,009,,15,04,035,44,16,57,178,41*77
$GPGSV,4,3,15,18,14,056,47,20,43,070,45,21,28,060,43,26,24,164,41*79
$GPRMC,151232.00,A,4729.97717,N,00222.58419,W,0.008,,220520,,,D*6A
$GPVTG,,T,,M,0.008,N,0.014,K,D*2B
$GPGGA,151232.00,4729.97717,N,00222.58419,W,2,12,0.77,9.2,M,48.7,M,,0000*4C
$GPGSA,A,3,16,18,20,21,26,27,30,11,08,10,07,40,1.37,0.77,1.13*03
$GPGSV,4,1,15,01,01,236,,07,17,303,38,08,48,296,40,10,49,119,44*7D
$GPGSV,4,2,15,11,24,261,48,13,00,009,,15,04,035,45,16,57,178,41*76
$GPGSV,4,3,15,18,14,056,46,20,43,070,45,21,28,060,43,26,24,164,41*78
$GPGSV,4,4,15,27,80,348,48,30,06,331,32,40,13,115,34*42
$GPRMC,151233.00,A,4729.97721,N,00222.58422,W,0.019,,220520,,,D*66
$GPVTG,,T,,M,0.019,N,0.036,K,D*2B
$GPGGA,151233.00,4729.97721,N,00222.58422,W,2,12,0.77,9.2,M,48.7,M,,0000*40
$GPGSA,A,3,16,18,20,21,26,27,30,11,08,10,07,40,1.37,0.77,1.13*03
$GPGSV,4,1,15,01,01,236,,07,17,303,38,08,48,296,37,10,49,119,46*7F
$GPGSV,4,2,15,11,24,261,48,13,00,009,,15,04,035,46,16,57,178,42*76
$GPGSV,4,3,15,18,14,056,46,20,43,070,46,21,28,060,43,26,24,164,42*78
$GPRMC,151234.00,A,4729.97724,N,00222.58425,W,0.042,,220520,,,D*6D
$GPVTG,,T,,M,0.042,N,0.078,K,D*2F
$GPGGA,151234.00,4729.97724,N,00222.58425,W,2,12,0.77,9.3,M,48.7,M,,0000*44
$GPGSA,A,3,16,18,20,21,26,27,30,11,08,10,07,40,1.37,0.77,1.13*03
$GPGSV,4,1,15,01,01,236,,07,17,303,39,08,48,296,38,10,49,119,46*71
$GPGSV,4,2,15,11,24,261,49,13,00,009,,15,04,035,45,16,57,178,43*75
$GPGSV,4,3,15,18,14,056,47,20,43,070,46,21,28,060,42,26,24,164,40*7A
$GPGSV,4,4,15,27,80,348,48,30,06,331,34,40,13,115,32*42
$GPGLL,4729.97724,N,00222.58425,W,151234.00,A,D*75
$GPRMC,151235.00,A,4729.97727,N,00222.58428,W,0.011,,220520,,,D*64
$GPVTG,,T,,M,0.011,N,0.021,K,D*25
$GPGGA,151235.00,4729.97727,N,00222.58428,W,2,12,0.77,9.3,M,48.7,M,,0000*4B
$GPGSA,A,3,16,18,20,21,26,27,30,11,08,10,07,40,1.37,0.77,1.13*03
$GPGSV,4,1,15,01,01,236,,07,17,303,37,08,48,296,38,10,49,119,46*7F
$GPGSV,4,2,15,11,24,261,49,13,00,009,,15,04,035,45,16,57,178,42*74
$GPGSV,4,3,15,18,14,056,47,20,43,070,46,21,28,060,44,26,24,164,39*72
$GPGSV,4,4,15,27,80,348,49,30,06,331,32,40,13,115,33*44
$GPRMC,151236.00,A,4729.97729,N,00222.58432,W,0.012,,220520,,,D*61
$GPVTG,,T,,M,0.012,N,0.023,K,D*24
$GPGGA,151236.00,4729.97729,N,00222.58432,W,2,12,0.77,9.3,M,48.7,M,,0000*4D
$GPGSA,A,3,16,18,20,21,26,27,30,11,08,10,07,40,1.37,0.77,1.13*03
$GPGSV,4,1,15,01,01,236,,07,17,303,36,08,48,296,39,10,49,119,46*7F
$GPGSV,4,2,15,11,24,261,49,13,00,009,,15,04,035,47,16,57,178,42*76
$GPGSV,4,3,15,18,14,056,46,20,43,070,46,21,28,060,43,26,24,164,41*7B
$GPTXT,01,01,00,txbuf alloc*7F
$GPRMC,151237.00,A,4729.97731,N,00222.58435,W,0.006,,220520,,,D*6B
$GPVTG,,T,,M,0.006,N,0.010,K,D*21
$GPGGA,151237.00,4729.97731,N,00222.58435,W,2,12,0.77,9.3,M,48.7,M,,0000*42
$GPGSA,A,3,16,18,20,21,26,27,30,11,08,10,07,40,1.37,0.77,1.13*03
$GPGSV,4,1,15,01,01,236,,07,17,303,36,08,48,296,37,10,49,119,46*71
$GPGSV,4,2,15,11,24,261,49,13,00,009,,15,04,035,47,16,57,178,44*70
$GPRMC,151238.00,A,4729.97732,N,00222.58438,W,0.032,,220520,,,D*6D
$GPVTG,,T,,M,0.032,N,0.059,K,D*2B
$GPGGA,151238.00,4729.97732,N,00222.58438,W,2,12,0.77,9.4,M,48.7,M,,0000*44
$GPGSA,A,3,16,18,20,21,26,27,30,11,08,10,07,40,1.37,0.77,1.13*03
$GPGSV,4,1,15,01,01,236,,07,17,303,35,08,48,296,36,10,49,119,45*70
$GPGSV,4,2,15,11,24,261,49,13,00,009,,15,04,035,47,16,57,178,43*77
$GPGSV,4,3,15,18,14,056,47,20,43,070,46,21,28,060,44,26,24,164,38*73
$GPRMC,151239.00,A,4729.97734,N,00222.58442,W,0.017,,220520,,,D*60
$GPVTG,,T,,M,0.017,N,0.031,K,D*22
$GPGGA,151239.00,4729.97734,N,00222.58442,W,2,12,0.77,9.4,M,48.7,M,,0000*4E
$GPGSA,A,3,16,18,20,21,26,27,30,11,08,10,07,40,1.37,0.77,1.13*03
$GPGSV,4,1,15,01,01,236,,07,17,303,33,08,48,296,39,10,49,119,46*7A
$GPGSV,4,2,15,11,24,261,48,13,00,009,,15,04,035,46,16,57,178,43*77
$GPGSV,4,3,15,18,14,056,46,20,43,070,46,21,28,060,44,26,24,164,38*72
$GPGSV,4,4,15,27,80,348,48,30,06,331,30,40,13,115,32*46
$GPRMC,151240.00,A,4729.97735,N,00222.58447,W,0.013,,220520,,,D*6E
$GPVTG,,T,,M,0.013,N,0.025,K,D*23
$GPGGA,151240.00,4729.97735,N,00222.58447,W,2,12,0.77,9.4,M,48.7,M,,0000*44
$GPGSA,A,3,16,18,20,21,26,27,30,11,08,10,07,40,1.37,0.77,1.13*03
$GPGSV,4,1,15,01,01,236,,07,17,303,38,08,48,296,40,10,49,119,45*7C
$GPGSV,4,2,15,11,24,261,48,13,00,009,,15,04,035,46,16,57,178,43*77
$GPGSV,4,3,15,18,14,056,46,20,43,070,46,21,28,060,44,26,24,164,38*72
$GPRMC,151241.00,A,4729.97735,N,00222.58449,W,0.031,,220520,,,D*61
$GPVTG,,T,,M,0.031,N,0.058,K,D*29
$GPGGA,151241.00,4729.97735,N,00222.58449,W,2,12,0.77,9.4,M,48.7,M,,0000*4B
$GPGSA,A,3,16,18,20,21,26,27,30,11,08,10,07,40,1.37,0.77,1.13*03
$GPGSV,4,1,15,01,01,236,,07,17,303,32,08,48,296,38,10,49,119,46*7A
$GPGSV,4,2,15,11,24,261,48,13,00,009,,15,04,035,45,16,57,178,43*74
$GPGSV,4,3,15,18,14,056,46,20,43,070,46,21,28,060,44,26,24,164,38*72
$GPGSV,4,4,15,27,80,348,48,30,06,331,29,40,13,115,31*4D
$GPRMC,151242.00,A,4729.97738,N,00222.58454,W,0.014,,220520,,,D*64
$GPVTG,,T,,M,0.014,N,0.027,K,D*26
$GPGGA,151242.00,4729.97738,N,00222.58454,W,2,12,0.77,9.5,M,48.7,M,,0000*48
$GPGSA,A,3,16,18,20,21,26,27,30,11,08,10,07,40,1.37,0.77,1.13*03
$GPGSV,4,1,15,01,01,236,,07,17,303,33,08,48,296,39,10,49,119,46*7A
$GPGSV,4,2,15,11,24,261,48,13,00,009,,15,04,035,45,16,57,178,43*74
$GPGSV,4,3,15,18,14,056,46,20,43,070,46,21,28,060,44,26,24,164,37*7D
$GPRMC,151243.00,A,4729.97740,N,00222.58457,W,0.004,,220520,,,D*68
$GPVTG,,T,,M,0.004,N,0.007,K,D*25
$GPGGA,151243.00,4729.97740,N,00222.58457,W,2,12,0.77,9.6,M,48.7,M,,0000*46
$GPGSA,A,3,16,18,20,21,26,27,30,11,08,10,07,40,1.37,0.77,1.13*03
$GPGSV,4,1,15,01,01,236,,07,17,303,32,08,48,296,40,10,49,119,45*76
$GPGSV,4,2,15,11,24,261,49,13,00,009,,15,04,035,45,16,57,178,43*75
$GPGSV,4,3,15,18,14,056,46,20,43,070,46,21,28,060,43,26,24,164,37*7A
$GPGSV,4,4,15,27,80,348,48,30,06,331,29,40,13,115,31*4D
$GPRMC,151244.00,A,4729.97743,N,00222.58461,W,0.014,,220520,,,D*68
$GPVTG,,T,,M,0.014,N,0.026,K,D*27
$GPGGA,151244.00,4729.97743,N,00222.58461,W,2,12,0.77,9.6,M,48.7,M,,0000*47
$GPGSA,A,3,16,18,20,21,26,27,30,11,08,10,07,40,1.37,0.77,1.13*03
