\c:1597506463975*6A\$IIMWV,179,T,3.3,N,A*2A
\c:1597506463975*6A\$IIVWT,179,R,3.3,N,1.7,M,6.1,K*5F
\c:1597506463975*6A\$IIMWD,,T,58,M,3.3,N,1.7,M*4F
\c:1597506464114*62\$GPRMC,154847.00,A,4729.97731,N,00222.58417,W,0.026,,150820,,,A*6D
\c:1597506464135*61\$IIZDA,154847,15,08,2020,,*58
\c:1597506464151*63\$IIMWV,177,R,3.3,N,A*22
\c:1597506464151*63\$IIVWR,177,R,3.3,N,1.7,M,6.1,K*57
\c:1597506464187*68\$GPVTG,,T,,M,0.026,N,0.048,K,A*2B
\c:1597506464199*67\$IIVTG,,T,,M,0.0,N,0.1,K,A*35
\c:1597506464311*65\$IIDPT,4.7,,*41
\c:1597506464326*61\$IIDBT,15.4,f,4.7,M,,*4A
\c:1597506464339*6F\$GPGGA,154847.00,4729.97731,N,00222.58417,W,1,10,0.89,2.8,M,48.7,M,,*4A
\c:1597506464367*64\$IIGLL,4729.9773,N,00222.5842,W,154847,A,A*42
\c:1597506464367*64\$IIRMC,154847,A,4729.9773,N,00222.5842,W,,150820,,,A*57
\c:1597506464452*65\$GPGSA,A,3,03,04,17,19,22,31,09,01,06,02,,,1.64,0.89
\c:1597506464494*6F\$GPGSA,A,3,03,04,17,19,22,31,09,01,06,02,,,1.64,0.89,1.38*0D
\c:1597506464614*65\$GPGSV,3,1,11,01,18,135,42,02,08,312,29,03,48,073,48,04,74,120,46*72
\c:1597506464643*67\$IIMWV,176,R,3.3,N,A*23
\c:1597506464643*67\$IIVWR,176,R,3.3,N,1.7,M,6.1,K*56
\c:1597506464643*67\$GPGSV,3,1,11,01,18,135,42,02,08,312,29,03,48,073,48,04,74,120,46*72
\c:1597506464761*66\$GPGSV,3,2,11,06,45,306,40,09,50,203,48,12,01,323,07,17,39,236,45*72
\c:1597506464786*6F\$GPGSV,3,2,11,06,45,306,40,09,50,203,48,12,01,323,07,17,39,236,45*72
\c:1597506464866*6E\$IIMWV,176,T,3.3,N,A*25
\c:1597506464887*61\$IIVWT,176,R,3.3,N,1.7,M,6.1,K*50
\c:1597506464887*61\$IIMWD,,T,55,M,3.3,N,1.7,M*42
\c:1597506464888*6E\$GPGSV,3,3,11,19,44,262,48,22,28,085,44,31,11,035,35*4E
\c:1597506464899*6E\$GPGSV,3,3,11,19,44,262,48,22,28,085,44,31,11,035,35*4E
\c:1597506464987*60\$GPGLL,4729.97731,N,00222.58417,W,154847.00,A,A*7E
\c:1597506465004*63\$IIVHW,,T,239,M,0.00,N,0.00,K*6D
\c:1597506465004*63\$IIHDG,239,,,,*5F
\c:1597506465005*62\$IIHDM,239,M*34
\c:1597506465129*6D\$GPRMC,154848.00,A,4729.97738,N,00222.58420,W,0.052,,150820,,,A*6C
\c:1597506465148*6A\$IIZDA,154848,15,08,2020,,*57
\c:1597506465201*64\$GPVTG,,T,,M,0.052,N,0.097,K,A*2A
\c:1597506465212*66\$IIVTG,,T,,M,0.1,N,0.1,K,A*34
\c:1597506465354*65\$GPGGA,154848.00,4729.97738,N,00222.58420,W,1,10,0.89,2.6,M,48.7,M,,*46
\c:1597506465382*6E\$IIGLL,4729.9774,N,00222.5842,W,154848,A,A*4A
\c:1597506465383*6F\$IIRMC,154848,A,4729.9774,N,00222.5842,W,,150820,,,A*5F
\c:1597506465482*69\$GPGSA,A,3,03,04,17,19,22,31,09,01,06,02,,,1.64,0.89,1.38*0D
\c:1597506465508*6A\$GPGSA,A,3,03,04,17,19,22,31,09,01,06,02,,,1.64,0.89,1.38*0D
\c:1597506465629*6A\$GPGSV,3,1,11,01,18,135,40,02,08,312,28,03,48,073,48,04,74,120,46*71
\c:1597506465652*66\$GPGSV,3,1,11,01,18,135,40,02,08,312,28,03,48,073,48,04,74,120,46*71
\c:1597506465774*63\$GPGSV,3,2,11,06,45,306,41,09,50,203,48,12,01,323,07,17,39,236,46*70
\c:1597506465796*6F\$GPGSV,3,2,11,06,45,306,41,09,50,203,48,12,01,323,07,17,39,236,46*70
\c:1597506465892*64\$GPGSV,3,3,11,19,44,262,48,22,28,085,44,31,11,035,37*4C
\c:1597506465908*66\$GPGSV,3,3,11,19,44,262,48,22,28,085,44,31,11,035,37*4C
\c:1597506465972*6B\$IIMWV,177,R,3.3,N,A*22
\c:1597506465972*6B\$IIVWR,177,R,3.3,N,1.7,M,6.1,K*57
\c:1597506466002*66\$GPGLL,4729.97738,N,00222.58420,W,154848.00,A,A*7C
\c:1597506466143*62\$GPRMC,154849.00,A,4729.97742,N,00222.58421,W,0.027,,150820,,,A*63
\c:1597506466164*67\$IIZDA,154849,15,08,2020,,*56
\c:1597506466216*61\$GPVTG,,T,,M,0.027,N,0.051,K,A*22
\c:1597506466228*6C\$IIXDR,C,31.4,C,AirTemp*20
\c:1597506466228*6C\$IIVTG,,T,,M,0.0,N,0.1,K,A*35
\c:1597506466368*69\$GPGGA,154849.00,4729.97742,N,00222.58421,W,1,10,0.89,2.6,M,48.7,M,,*4B
\c:1597506466496*6F\$GPGSA,A,3,03,04,17,19,22,31,09,01,06,02,,,1.64,0.89,1.38*0D
\c:1597506466515*65\$GPGSA,A,3,03,04,17,19,22,31,09,01,06,02,,,1.64,0.89,1.38*0D
\c:1597506466643*65\$GPGSV,3,1,11,01,18,135,42,02,08,312,26,03,48,073,48,04,74,120,46*7D
\c:1597506466669*6D\$GPGSV,3,1,11,01,18,135,42,02,08,312,26,03,48,073,48,04,74,120,46*7D
\c:1597506466717*65\$IIVLW,37.00,N,0.00,N*79
\c:1597506466742*65\$IIMWV,177,T,3.3,N,A*24
\c:1597506466742*65\$IIVWT,177,R,3.3,N,1.7,M,6.1,K*51
\c:1597506466742*65\$IIMWD,,T,56,M,3.3,N,1.7,M*41
\c:1597506466789*62\$GPGSV,3,2,11,06,45,306,42,09,50,203,47,12,01,323,07,17,39,236,45*7F
\c:1597506466814*69\$GPGSV,3,2,11,06,45,306,42,09,50,203,47,12,01,323,07,17,39,236,45*7F
\c:1597506466907*6A\$GPGSV,3,3,11,19,44,262,47,22,28,085,44,31,11,035,34*40
\c:1597506466925*6A\$GPGSV,3,3,11,19,44,262,47,22,28,085,44,31,11,035,34*40
\c:1597506467015*61\$GPGLL,4729.97742,N,00222.58421,W,154849.00,A,A*71
\c:1597506467157*66\$GPRMC,154850.00,A,4729.97745,N,00222.58421,W,0.025,,150820,,,A*6E
\c:1597506467165*67\$IIZDA,154850,15,08,2020,,*5E
\c:1597506467229*6C\$GPVTG,,T,,M,0.025,N,0.046,K,A*26
\c:1597506467341*63\$IIMWV,179,R,3.3,N,A*2C
\c:1597506467357*64\$IIVWR,179,R,3.3,N,1.7,M,6.1,K*59
\c:1597506467382*6C\$GPGGA,154850.00,4729.97745,N,00222.58421,W,1,10,0.89,2.5,M,48.7,M,,*47
\c:1597506467412*62\$IIGLL,4729.9775,N,00222.5842,W,154850,A,A*42
\c:1597506467413*63\$IIRMC,154850,A,4729.9775,N,00222.5842,W,,150820,,,A*57
\c:1597506467460*67\$IIRSA,-37.0,A,,V*60
\c:1597506467504*64\$IIVHW,,T,239,M,0.00,N,0.00,K*6D
\c:1597506467505*65\$IIHDG,239,,,,*5F
\c:1597506467505*65\$IIHDM,239,M*34
\c:1597506467511*60\$GPGSA,A,3,03,04,17,19,22,31,09,01,06,02,,,1.64,0.89,1.38*0D
\c:1597506467536*65\$GPGSA,A,3,03,04,17,19,22,31,09,01,06,02,,,1.64,0.89,1.38*0D
\c:1597506467658*6E\$GPGSV,3,1,11,01,18,135,41,02,08,312,31,03,48,073,48,04,74,120,46*78
\c:1597506467680*6B\$GPGSV,3,1,11,01,18,135,41,02,08,312,31,03,48,073,48,04,74,120,46*78
\c:1597506467729*69\$IIMTW,28.6,C*1F
\c:1597506467802*6F\$GPGSV,3,2,11,06,45,306,38,09,50,203,48,12,01,323,06,17,39,236,46*7F
\c:1597506467835*6B\$GPGSV,3,2,11,06,45,306,38,09,50,203,48,12,01,323,06,17,39,236,46*7F
\c:1597506467835*6B\$IIVHW,,T,240,M,0.00,N,0.00,K*63
\c:1597506467835*6B\$IIHDG,240,,,,*51
\c:1597506467835*6B\$IIHDM,240,M*3A
\c:1597506467921*6F\$GPGSV,3,3,11,19,44,262,47,22,28,085,45,31,11,035,35*40
\c:1597506467930*6F\$GPGSV,3,3,11,19,44,262,47,22,28,085,45,31,11,035,35*40
\c:1597506468029*61\$GPGLL,4729.97745,N,00222.58421,W,154850.00,A,A*7E
\c:1597506468075*68\$IIMWV,179,T,3.3,N,A*2A
\c:1597506468075*68\$IIVWT,179,R,3.3,N,1.7,M,6.1,K*5F
\c:1597506468123*6A\$IIMWD,,T,58,M,3.3,N,1.7,M*4F
\c:1597506468171*6D\$GPRMC,154851.00,A,4729.97749,N,00222.58423,W,0.020,,150820,,,A*64
\c:1597506468187*64\$IIZDA,154851,15,08,2020,,*5F
\c:1597506468244*68\$GPVTG,,T,,M,0.020,N,0.038,K,A*2A
\c:1597506468250*6D\$IIMWV,181,R,3.3,N,A*2B
\c:1597506468267*69\$IIVWR,179,L,3.3,N,1.7,M,6.1,K*47
\c:1597506468267*69\$IIVTG,,T,,M,0.0,N,0.0,K,A*34
\c:1597506468300*69\$IIVHW,,T,239,M,0.00,N,0.00,K*6D
\c:1597506468300*69\$IIHDG,239,,,,*5F
\c:1597506468315*6D\$IIHDM,239,M*34
\c:1597506468396*66\$GPGGA,154851.00,4729.97749,N,00222.58423,W,1,10,0.89,2.4,M,48.7,M,,*49
\c:1597506468525*68\$GPGSA,A,3,03,04,17,19,22,31,09,01,06,02,,,1.64,0.89,1.38*0D
\c:1597506468549*62\$GPGSA,A,3,03,04,17,19,22,31,09,01,06,02,,,1.64,0.89,1.38*0D
\c:1597506468670*6B\$GPGSV,3,1,11,01,18,135,40,02,08,312,31,03,48,073,48,04,74,120,46*79
\c:1597506468694*61\$GPGSV,3,1,11,01,18,135,40,02,08,312,31,03,48,073,48,04,74,120,46*79
\c:1597506468817*64\$GPGSV,3,2,11,06,45,306,43,09,50,203,47,12,01,323,06,17,39,236,44*7E
\c:1597506468838*69\$GPGSV,3,2,11,06,45,306,43,09,50,203,47,12,01,323,06,17,39,236,44*7E
\c:1597506468935*65\$GPGSV,3,3,11,19,44,262,47,22,28,085,44,31,11,035,37*43
\c:1597506468950*66\$GPGSV,3,3,11,19,44,262,47,22,28,085,44,31,11,035,37*43
\c:1597506469037*6F\$IIMWV,181,T,3.3,N,A*2D
\c:1597506469037*6F\$IIVWT,179,L,3.3,N,1.7,M,6.1,K*41
\c:1597506469037*6F\$IIMWD,,T,60,M,3.3,N,1.7,M*44
\c:1597506469044*6B\$GPGLL,4729.97749,N,00222.58423,W,154851.00,A,A*71
\c:1597506469185*67\$GPRMC,154852.00,A,4729.97752,N,00222.58425,W,0.041,,150820,,,A*6C
\c:1597506469197*64\$IIZDA,154852,15,08,2020,,*5C
\c:1597506469213*6B\$IIMWV,183,R,3.3,N,A*29
\c:1597506469213*6B\$IIVWR,177,L,3.3,N,1.7,M,6.1,K*49
\c:1597506469258*64\$GPVTG,,T,,M,0.041,N,0.076,K,A*27
\c:1597506469278*66\$IIVTG,,T,,M,0.0,N,0.1,K,A*35
\c:1597506469410*6E\$GPGGA,154852.00,4729.97752,N,00222.58425,W,1,10,0.89,2.4,M,48.7,M,,*46
\c:1597506469421*6C\$IIGLL,4729.9775,N,00222.5843,W,154852,A,A*41
\c:1597506469438*64\$IIRMC,154852,A,4729.9775,N,00222.5843,W,,150820,,,A*54
\c:1597506469539*64\$GPGSA,A,3,03,04,17,19,22,31,09,01,06,02,,,1.64,0.89,1.38*0D
\c:1597506469564*6C\$GPGSA,A,3,03,04,17,19,22,31,09,01,06,02,,,1.64,0.89,1.38*0D
\c:1597506469644*6D\$IIMWV,184,R,3.3,N,A*2E
\c:1597506469644*6D\$IIVWR,176,L,3.3,N,1.7,M,6.1,K*48
\c:1597506469685*60\$GPGSV,3,1,11,01,18,135,40,02,08,312,32,03,48,073,48,04,74,120,47*7B
\c:1597506469708*64\$GPGSV,3,1,11,01,18,135,40,02,08,312,32,03,48,073,48,04,74,120,47*7B
\c:1597506469826*67\$GPGSV,3,2,11,06,45,306,43,09,50,203,47,12,01,323,,17,39,236,45*79
\c:1597506469851*67\$GPGSV,3,2,11,06,45,306,43,09,50,203,47,12,01,323,,17,39,236,45*79
\c:1597506469931*60\$IIMWV,184,T,3.3,N,A*28
\c:1597506469945*63\$GPGSV,3,3,11,19,44,262,46,22,28,085,45,31,11,035,36*42
\c:1597506469947*61\$IIVWT,176,L,3.3,N,1.7,M,6.1,K*4E
\c:1597506469947*61\$IIMWD,,T,63,M,3.3,N,1.7,M*47
\c:1597506469962*66\$GPGSV,3,3,11,19,44,262,46,22,28,085,45,31,11,035,36*42
\c:1597506470053*65\$GPGLL,4729.97752,N,00222.58425,W,154852.00,A,A*7E
\c:1597506470195*6E\$GPRMC,154853.00,A,4729.97753,N,00222.58427,W,0.036,,150820,,,A*6E
\c:1597506470218*68\$IIZDA,154853,15,08,2020,,*5D
\c:1597506470268*6F\$GPVTG,,T,,M,0.036,N,0.066,K,A*26
\c:1597506470282*6B\$IIVTG,,T,,M,0.0,N,0.1,K,A*35
\c:1597506470420*65\$GPGGA,154853.00,4729.97753,N,00222.58427,W,1,10,0.89,2.3,M,48.7,M,,*43
\c:1597506470549*6B\$GPGSA,A,3,03,04,17,19,22,31,09,01,06,02,,,1.64,0.89,1.38*0D
\c:1597506470569*69\$GPGSA,A,3,03,04,17,19,22,31,09,01,06,02,,,1.64,0.89,1.38*0D
\c:1597506470695*69\$GPGSV,3,1,11,01,18,135,40,02,08,312,33,03,48,073,48,04,74,120,46*7B
\c:1597506470714*61\$GPGSV,3,1,11,01,18,135,40,02,08,312,33,03,48,073,48,04,74,120,46*7B
\c:1597506470752*63\$IIVHW,,T,239,M,0.00,N,0.00,K*6D
\c:1597506470752*63\$IIHDG,239,,,,*5F
\c:1597506470752*63\$IIHDM,239,M*34
\c:1597506470836*6E\$GPGSV,3,2,11,06,45,306,42,09,50,203,47,12,01,323,,17,39,236,46*7B
\c:1597506470862*6F\$GPGSV,3,2,11,06,45,306,42,09,50,203,47,12,01,323,,17,39,236,46*7B
\c:1597506470955*6A\$GPGSV,3,3,11,19,44,262,46,22,28,085,45,31,11,035,37*43
\c:1597506470974*69\$GPGSV,3,3,11,19,44,262,46,22,28,085,45,31,11,035,37*43
\c:1597506471037*66\$IIMWV,185,R,3.3,N,A*2F
\c:1597506471037*66\$IIVWR,175,L,3.3,N,1.7,M,6.1,K*4B
\c:1597506471063*67\$GPGLL,4729.97753,N,00222.58427,W,154853.00,A,A*7C
\c:1597506471101*62\$IIXDR,U,12.035,V,BatWiFi*10
\c:1597506471205*65\$GPRMC,154854.00,A,4729.97751,N,00222.58428,W,0.025,,150820,,,A*66
\c:1597506471213*62\$IIZDA,154854,15,08,2020,,*5A
\c:1597506471278*6F\$GPVTG,,T,,M,0.025,N,0.047,K,A*27
\c:1597506471293*6A\$IIVTG,,T,,M,0.0,N,0.1,K,A*35
\c:1597506471389*60\$IIXDR,C,31.5,C,AirTemp*21
\c:1597506471430*65\$GPGGA,154854.00,4729.97751,N,00222.58428,W,1,10,0.89,2.1,M,48.7,M,,*4B
\c:1597506471559*6B\$GPGSA,A,3,03,04,17,19,22,31,09,01,06,02,,,1.64,0.89,1.38*0D
\c:1597506471581*6E\$GPGSA,A,3,03,04,17,19,22,31,09,01,06,02,,,1.64,0.89,1.38*0D
\c:1597506471704*61\$GPGSV,3,1,11,01,18,135,39,02,08,312,32,03,48,073,49,04,74,120,47*74
\c:1597506471708*6D\$IIDPT,4.7,,*41
\c:1597506471709*6C\$IIDBT,15.4,f,4.7,M,,*4A
\c:1597506471725*62\$GPGSV,3,1,11,01,18,135,39,02,08,312,32,03,48,073,49,04,74,120,47*74
\c:1597506471765*66\$IIMWV,185,T,3.3,N,A*29
\c:1597506471765*66\$IIVWT,175,L,3.3,N,1.7,M,6.1,K*4D
\c:1597506471765*66\$IIMWD,,T,64,M,3.3,N,1.7,M*40
\c:1597506471846*68\$GPGSV,3,2,11,06,45,306,43,09,50,203,47,12,01,323,,17,39,236,46*7A
\c:1597506471871*6C\$GPGSV,3,2,11,06,45,306,43,09,50,203,47,12,01,323,,17,39,236,46*7A
\c:1597506471964*69\$GPGSV,3,3,11,19,44,262,47,22,28,085,45,31,11,035,38*4D
\c:1597506471982*61\$GPGSV,3,3,11,19,44,262,47,22,28,085,45,31,11,035,38*4D
\c:1597506472073*65\$GPGLL,4729.97751,N,00222.58428,W,154854.00,A,A*76
\c:1597506472215*67\$GPRMC,154855.00,A,4729.97749,N,00222.58429,W,0.036,,150820,,,A*6D
\c:1597506472238*68\$IIZDA,154855,15,08,2020,,*5B
\c:1597506472287*6C\$GPVTG,,T,,M,0.036,N,0.067,K,A*27
\c:1597506472302*60\$IIVTG,,T,,M,0.0,N,0.1,K,A*35
\c:1597506472335*64\$IIRSA,-37.3,A,,V*63
\c:1597506472440*61\$GPGGA,154855.00,4729.97749,N,00222.58429,W,1,10,0.89,2.0,M,48.7,M,,*43
\c:1597506472462*61\$IIRSA,-37.0,A,,V*60
\c:1597506472569*6B\$GPGSA,A,3,03,04,17,19,22,31,09,01,06,02,,,1.64,0.89,1.38*0D
\c:1597506472591*6C\$GPGSA,A,3,03,04,17,19,22,31,09,01,06,02,,,1.64,0.89,1.38*0D
\c:1597506472714*63\$GPGSV,3,1,11,01,18,135,40,02,08,312,32,03,48,073,49,04,74,120,46*7B
\c:1597506472734*61\$GPGSV,3,1,11,01,18,135,40,02,08,312,32,03,48,073,49,04,74,120,46*7B
\c:1597506472856*6A\$GPGSV,3,2,11,06,45,306,43,09,50,203,47,12,01,323,,17,39,236,46*7A
\c:1597506472878*66\$GPGSV,3,2,11,06,45,306,43,09,50,203,47,12,01,323,,17,39,236,46*7A
\c:1597506472974*6B\$GPGSV,3,3,11,19,44,262,46,22,28,085,46,31,11,035,38*4F
\c:1597506472990*61\$GPGSV,3,3,11,19,44,262,46,22,28,085,46,31,11,035,38*4F
\c:1597506473083*6B\$GPGLL,4729.97749,N,00222.58429,W,154855.00,A,A*7F
\c:1597506473224*64\$GPRMC,154856.00,A,4729.97749,N,00222.58432,W,0.026,,150820,,,A*65
\c:1597506473254*63\$IIHDG,239,,,,*5F
\c:1597506473254*63\$IIHDM,239,M*34
\c:1597506473254*63\$IIZDA,154856,15,08,2020,,*58
\c:1597506473297*6C\$GPVTG,,T,,M,0.026,N,0.049,K,A*2A
\c:1597506473318*6A\$IIVTG,,T,,M,0.0,N,0.1,K,A*35
\c:1597506473318*6A\$IIMWV,186,R,3.3,N,A*2C
\c:1597506473333*63\$IIVWR,174,L,3.3,N,1.7,M,6.1,K*4A
\c:1597506473449*69\$GPGGA,154856.00,4729.97749,N,00222.58432,W,1,10,0.89,1.9,M,48.7,M,,*40
\c:1597506473578*6A\$GPGSA,A,3,03,04,17,19,22,31,09,01,06,02,,,1.64,0.89,1.38*0D
\c:1597506473604*62\$GPGSA,A,3,03,04,17,19,22,31,09,01,06,02,,,1.64,0.89,1.38*0D
\c:1597506473724*61\$GPGSV,3,1,11,01,18,135,40,02,08,312,33,03,48,073,47,04,74,120,46*74
\c:1597506473747*64\$GPGSV,3,1,11,01,18,135,40,02,08,312,33,03,48,073,47,04,74,120,46*74
\c:1597506473866*68\$GPGSV,3,2,11,06,45,306,40,09,50,203,47,12,01,323,,17,39,236,46*79
\c:1597506473890*61\$GPGSV,3,2,11,06,45,306,40,09,50,203,47,12,01,323,,17,39,236,46*79
\c:1597506473954*68\$IIVLW,37.00,N,0.00,N*79
\c:1597506473985*64\$GPGSV,3,3,11,19,44,262,46,22,28,085,45,31,11,035,36*42
\c:1597506474002*65\$GPGSV,3,3,11,19,44,262,46,22,28,085,45,31,11,035,36*42
\c:1597506474063*62\$IIMWV,186,T,3.3,N,A*2A
\c:1597506474063*62\$IIVWT,174,L,3.3,N,1.7,M,6.1,K*4C
\c:1597506474063*62\$IIMWD,,T,65,M,3.3,N,1.7,M*41
\c:1597506474093*6D\$GPGLL,4729.97749,N,00222.58432,W,154856.00,A,A*76
\c:1597506474223*64\$IIMWV,186,R,3.4,N,A*2B
\c:1597506474234*62\$GPRMC,154857.00,A,4729.97753,N,00222.58437,W,0.005,,150820,,,A*6B
\c:1597506474247*66\$IIVWR,174,L,3.4,N,1.7,M,6.3,K*4F
\c:1597506474247*66\$IIMWV,187,R,3.4,N,A*2A
\c:1597506474247*66\$IIVWR,173,L,3.4,N,1.7,M,6.3,K*48
\c:1597506474247*66\$IIZDA,154857,15,08,2020,,*59
\c:1597506474307*63\$GPVTG,,T,,M,0.005,N,0.009,K,A*2F
\c:1597506474326*60\$IIVTG,,T,,M,0.0,N,0.0,K,A*34
\c:1597506474459*6F\$GPGGA,154857.00,4729.97753,N,00222.58437,W,1,10,0.89,1.8,M,48.7,M,,*4E
\c:1597506474485*6E\$IIGLL,4729.9775,N,00222.5844,W,154857,A,A*43
\c:1597506474486*6D\$IIRMC,154857,A,4729.9775,N,00222.5844,W,,150820,,,A*56
\c:1597506474589*63\$GPGSA,A,3,03,04,17,19,22,31,09,01,06,02,,,1.64,0.89,1.38*0D
\c:1597506474613*63\$GPGSA,A,3,03,04,17,19,22,31,09,01,06,02,,,1.64,0.89,1.38*0D
\c:1597506474708*68\$IIMWV,188,R,3.4,N,A*25
\c:1597506474709*69\$IIVWR,172,L,3.4,N,1.7,M,6.3,K*49
\c:1597506474734*67\$GPGSV,3,1,11,01,18,135,38,02,08,312,34,03,48,073,48,04,74,120,45*70
\c:1597506474757*62\$GPGSV,3,1,11,01,18,135,38,02,08,312,34,03,48,073,48,04,74,120,45*70
\c:1597506474875*6D\$GPGSV,3,2,11,06,45,306,40,09,50,203,47,12,01,323,,17,39,236,46*79
\c:1597506474901*6F\$GPGSV,3,2,11,06,45,306,40,09,50,203,47,12,01,323,,17,39,236,46*79
\c:1597506474972*6B\$IIMWV,186,T,3.4,N,A*2D
\c:1597506474972*6B\$IIVWT,174,L,3.4,N,1.7,M,6.3,K*49
\c:1597506474972*6B\$IIMWD,,T,65,M,3.4,N,1.7,M*46
\c:1597506474972*6B\$IIMWV,188,T,3.4,N,A*23
\c:1597506474972*6B\$IIVWT,172,L,3.4,N,1.7,M,6.3,K*4F
\c:1597506474995*62\$GPGSV,3,3,11,19,44,262,46,22,28,085,45,31,11,035,39*4D
\c:1597506475017*60\$IIMWD,,T,67,M,3.4,N,1.7,M*44
\c:1597506475018*6F\$GPGSV,3,3,11,19,44,262,46,22,28,085,45,31,11,035,39*4D
\c:1597506475103*64\$GPGLL,4729.97753,N,00222.58437,W,154857.00,A,A*79
\c:1597506475226*60\$IIMTW,28.7,C*1E
\c:1597506475244*64\$GPRMC,154858.00,A,4729.97755,N,00222.58440,W,0.014,,150820,,,A*62
\c:1597506475257*66\$IIZDA,154858,15,08,2020,,*56
\c:1597506475317*63\$GPVTG,,T,,M,0.014,N,0.026,K,A*22
\c:1597506475338*6E\$IIVTG,,T,,M,0.0,N,0.0,K,A*34
\c:1597506475469*6D\$GPGGA,154858.00,4729.97755,N,00222.58440,W,1,10,0.89,1.9,M,48.7,M,,*46
\c:1597506475497*6C\$IIGLL,4729.9776,N,00222.5844,W,154858,A,A*4F
\c:1597506475497*6C\$IIRMC,154858,A,4729.9776,N,00222.5844,W,,150820,,,A*5A
\c:1597506475598*62\$GPGSA,A,3,03,04,17,19,22,31,09,01,06,02,,,1.64,0.89,1.38*0D
\c:1597506475623*61\$GPGSA,A,3,03,04,17,19,22,31,09,01,06,02,,,1.64,0.89,1.38*0D
\c:1597506475623*61\$IIMWV,189,R,3.4,N,A*24
\c:1597506475623*61\$IIVWR,171,L,3.4,N,1.7,M,6.3,K*4A
\c:1597506475735*67\$IIVHW,,T,239,M,0.00,N,0.00,K*6D
\c:1597506475744*61\$GPGSV,3,1,11,01,18,135,40,02,08,312,34,03,48,073,48,04,74,120,46*7C
\c:1597506475765*62\$IIHDG,239,,,,*5F
\c:1597506475765*62\$IIHDM,239,M*34
\c:1597506475765*62\$GPGSV,3,1,11,01,18,135,40,02,08,312,34,03,48,073,48,04,74,120,46*7C
\c:1597506475886*60\$GPGSV,3,2,11,06,45,306,41,09,50,203,47,12,01,323,,17,39,236,45*7B
\c:1597506475920*6D\$GPGSV,3,2,11,06,45,306,41,09,50,203,47,12,01,323,,17,39,236,45*7B
\c:1597506475920*6D\$IIMWV,189,T,3.4,N,A*22
\c:1597506475920*6D\$IIVWT,171,L,3.4,N,1.7,M,6.3,K*4C
\c:1597506475920*6D\$IIMWD,,T,68,M,3.4,N,1.7,M*4B
\c:1597506476004*61\$GPGSV,3,3,11,19,44,262,46,22,28,085,46,31,11,035,38*4F
\c:1597506476016*62\$GPGSV,3,3,11,19,44,262,46,22,28,085,46,31,11,035,38*4F
\c:1597506476095*69\$IIMWV,191,R,3.4,N,A*2D
\c:1597506476095*69\$IIVWR,169,L,3.4,N,1.7,M,6.3,K*43
\c:1597506476112*67\$GPGLL,4729.97755,N,00222.58440,W,154858.00,A,A*70
\c:1597506476254*66\$GPRMC,154859.00,A,4729.97756,N,00222.58443,W,0.016,,150820,,,A*61
\c:1597506476272*62\$IIZDA,154859,15,08,2020,,*57
\c:1597506476326*62\$GPVTG,,T,,M,0.016,N,0.030,K,A*27
\c:1597506476479*6F\$GPGGA,154859.00,4729.97756,N,00222.58443,W,1,10,0.89,1.9,M,48.7,M,,*47
\c:1597506476608*6B\$GPGSA,A,3,03,04,17,19,22,31,09,01,06,02,,,1.64,0.89,1.38*0D
\c:1597506476633*63\$GPGSA,A,3,03,04,17,19,22,31,09,01,06,02,,,1.64,0.89,1.38*0D
\c:1597506476753*64\$GPGSV,3,1,11,01,18,135,39,02,08,312,35,03,48,073,48,04,74,120,46*73
\c:1597506476777*62\$GPGSV,3,1,11,01,18,135,39,02,08,312,35,03,48,073,48,04,74,120,46*73
\c:1597506476808*65\$IIMWV,191,T,3.4,N,A*2B
\c:1597506476820*6F\$GPTXT,01,01,00,txbuf alloc*7F
\c:1597506476839*67\$IIVWT,169,L,3.4,N,1.7,M,6.3,K*45
\c:1597506476839*67\$IIMWD,,T,70,M,3.4,N,1.7,M*42
\c:1597506476839*67\$GPTXT,01,01,00,txbuf alloc*7F
\c:1597506476962*68\$GPRMC,154900.00,A,4729.97753,N,00222.58444,W,0.036,,150820,,,A*6C
\c:1597506476982*66\$IIZDA,154900,15,08,2020,,*5A
\c:1597506477019*6C\$IIMWV,191,R,3.5,N,A*2C
\c:1597506477019*6C\$IIVWR,169,L,3.5,N,1.8,M,6.5,K*4B
\c:1597506477019*6C\$IIMWV,192,R,3.5,N,A*2F
\c:1597506477019*6C\$IIVWR,168,L,3.5,N,1.8,M,6.5,K*4A
\c:1597506477019*6C\$IIHDG,238,,,,*5E
\c:1597506477019*6C\$IIHDM,238,M*35
\c:1597506477034*63\$GPVTG,,T,,M,0.036,N,0.066,K,A*26
\c:1597506477050*61\$IIVTG,,T,,M,0.0,N,0.1,K,A*35
\c:1597506477187*6A\$GPGGA,154900.00,4729.97753,N,00222.58444,W,1,10,0.89,1.9,M,48.7,M,,*48
\c:1597506477216*61\$IIGLL,4729.9775,N,00222.5844,W,154900,A,A*40
\c:1597506477216*61\$IIRMC,154900,A,4729.9775,N,00222.5844,W,,150820,,,A*55
\c:1597506477316*60\$GPGSA,A,3,03,04,17,19,22,31,09,01,06,02,,,1.64,0.89,1.38*0D
\c:1597506477342*61\$GPGSA,A,3,03,04,17,19,22,31,09,01,06,02,,,1.64,0.89,1.38*0D
\c:1597506477437*64\$IIMWV,194,R,3.5,N,A*29
\c:1597506477438*6B\$IIVWR,166,L,3.5,N,1.8,M,6.5,K*44
\c:1597506477461*67\$GPGSV,3,1,11,01,18,135,41,02,08,312,36,03,48,073,49,04,74,120,46*7E
\c:1597506477485*6D\$GPGSV,3,1,11,01,18,135,41,02,08,312,36,03,48,073,49,04,74,120,46*7E
\c:1597506477485*6D\$IIHDG,239,,,,*5F
\c:1597506477485*6D\$IIHDM,239,M*34
\c:1597506477604*66\$GPGSV,3,2,11,06,45,306,42,09,50,203,47,12,01,323,,17,39,236,46*7B
\c:1597506477628*68\$GPGSV,3,2,11,06,45,306,42,09,50,203,47,12,01,323,,17,39,236,46*7B
\c:1597506477722*63\$GPGSV,3,3,11,19,44,262,46,22,28,085,45,31,11,035,39*4D
\c:1597506477746*61\$IIMWV,191,T,3.5,N,A*2A
\c:1597506477747*60\$IIVWT,169,L,3.5,N,1.8,M,6.5,K*4D
\c:1597506477747*60\$IIMWD,,T,70,M,3.5,N,1.8,M*4C
\c:1597506477747*60\$IIMWV,194,T,3.5,N,A*2F
\c:1597506477747*60\$IIVWT,166,L,3.5,N,1.8,M,6.5,K*42
\c:1597506477747*60\$IIMWD,,T,73,M,3.5,N,1.8,M*4F
\c:1597506477747*60\$GPGSV,3,3,11,19,44,262,46,22,28,085,45,31,11,035,39*4D
\c:1597506477827*69\$IIDPT,4.8,,*4E
\c:1597506477827*69\$IIDBT,15.7,f,4.8,M,,*46
\c:1597506477830*6F\$GPGLL,4729.97753,N,00222.58444,W,154900.00,A,A*7E
\c:1597506477972*68\$GPRMC,154901.00,A,4729.97752,N,00222.58447,W,0.023,,150820,,,A*6B
\c:1597506477987*62\$IIZDA,154901,15,08,2020,,*5B
\c:1597506478044*6B\$GPVTG,,T,,M,0.023,N,0.042,K,A*24
\c:1597506478066*6B\$IIVTG,,T,,M,0.0,N,0.0,K,A*34
\c:1597506478197*64\$GPGGA,154901.00,4729.97752,N,00222.58447,W,1,10,0.89,2.0,M,48.7,M,,*41
\c:1597506478224*6F\$IIGLL,4729.9775,N,00222.5845,W,154901,A,A*40
\c:1597506478224*6F\$IIRMC,154901,A,4729.9775,N,00222.5845,W,,150820,,,A*55
\c:1597506478326*6C\$GPGSA,A,3,03,04,17,19,22,31,09,01,06,02,,,1.64,0.89,1.38*0D
\c:1597506478350*6D\$GPGSA,A,3,03,04,17,19,22,31,09,01,06,02,,,1.64,0.89,1.38*0D
\c:1597506478350*6D\$IIMWV,194,R,3.6,N,A*2A
\c:1597506478350*6D\$IIVWR,166,L,3.6,N,1.9,M,6.7,K*44
\c:1597506478471*69\$GPGSV,3,1,11,01,18,135,39,02,08,312,35,03,48,073,48,04,74,120,46*73
\c:1597506478495*63\$GPGSV,3,1,11,01,18,135,39,02,08,312,35,03,48,073,48,04,74,120,46*73
\c:1597506478613*6F\$GPGSV,3,2,11,06,45,306,41,09,50,203,47,12,01,323,,17,39,236,47*79
\c:1597506478638*66\$GPGSV,3,2,11,06,45,306,41,09,50,203,47,12,01,323,,17,39,236,47*79
\c:1597506478732*6D\$GPGSV,3,3,11,19,44,262,46,22,28,085,44,31,11,035,39*4C
\c:1597506478734*6B\$IIXDR,C,31.5,C,AirTemp*21
\c:1597506478750*69\$GPGSV,3,3,11,19,44,262,46,22,28,085,44,31,11,035,39*4C
\c:1597506478798*6D\$IIDPT,4.7,,*41
\c:1597506478798*6D\$IIDBT,15.4,f,4.7,M,,*4A
\c:1597506478830*60\$IIVHW,,T,238,M,0.00,N,0.00,K*6C
\c:1597506478830*60\$IIHDG,238,,,,*5E
\c:1597506478830*60\$IIHDM,238,M*35
\c:1597506478840*67\$GPGLL,4729.97752,N,00222.58447,W,154901.00,A,A*7D
\c:1597506478982*68\$GPRMC,154902.00,A,4729.97747,N,00222.58448,W,0.024,,150820,,,A*64
\c:1597506479006*6C\$IIZDA,154902,15,08,2020,,*58
\c:1597506479054*6B\$GPVTG,,T,,M,0.024,N,0.044,K,A*25
\c:1597506479117*6D\$IIMWV,194,T,3.6,N,A*2C
\c:1597506479117*6D\$IIVWT,166,L,3.6,N,1.9,M,6.7,K*42
\c:1597506479117*6D\$IIMWD,,T,73,M,3.6,N,1.9,M*4D
\c:1597506479207*6F\$GPGGA,154902.00,4729.97747,N,00222.58448,W,1,10,0.89,2.0,M,48.7,M,,*49
\c:1597506479310*68\$IIVHW,,T,239,M,0.00,N,0.00,K*6D
\c:1597506479310*68\$IIHDG,239,,,,*5F
\c:1597506479310*68\$IIHDM,239,M*34
\c:1597506479336*6C\$GPGSA,A,3,03,04,17,19,22,31,09,01,06,02,,,1.64,0.89,1.38*0D
\c:1597506479358*64\$GPGSA,A,3,03,04,17,19,22,31,09,01,06,02,,,1.64,0.89,1.38*0D
\c:1597506479481*67\$GPGSV,3,1,11,01,18,135,38,02,08,312,35,03,48,073,49,04,74,120,46*73
\c:1597506479501*6E\$GPGSV,3,1,11,01,18,135,38,02,08,312,35,03,48,073,49,04,74,120,46*73
\c:1597506479623*6D\$GPGSV,3,2,11,06,45,306,43,09,50,203,47,12,01,323,,17,39,236,45*79
\c:1597506479645*6D\$GPGSV,3,2,11,06,45,306,43,09,50,203,47,12,01,323,,17,39,236,45*79
\c:1597506479734*6A\$IIMWV,194,R,3.7,N,A*2B
\c:1597506479735*6B\$IIVWR,166,L,3.7,N,1.9,M,6.9,K*4B
\c:1597506479735*6B\$IIMWV,196,R,3.7,N,A*29
\c:1597506479735*6B\$IIVWR,164,L,3.7,N,1.9,M,6.9,K*49
\c:1597506479742*6B\$GPGSV,3,3,11,19,44,262,47,22,28,085,44,31,11,035,39*4D
\c:1597506479751*69\$GPGSV,3,3,11,19,44,262,47,22,28,085,44,31,11,035,39*4D
\c:1597506479849*6F\$GPGLL,4729.97747,N,00222.58448,W,154902.00,A,A*75
\c:1597506479959*6F\$IIRSA,-37.0,A,,V*60
\c:1597506479992*68\$GPRMC,154903.00,A,4729.97743,N,00222.58449,W,0.021,,150820,,,A*65
\c:1597506480006*6A\$IIZDA,154903,15,08,2020,,*59
\c:1597506480065*6F\$GPVTG,,T,,M,0.021,N,0.038,K,A*2B
\c:1597506480216*69\$GPGGA,154903.00,4729.97743,N,00222.58449,W,1,10,0.89,2.0,M,48.7,M,,*4D
\c:1597506480242*68\$IIGLL,4729.9774,N,00222.5845,W,154903,A,A*43
\c:1597506480242*68\$IIRMC,154903,A,4729.9774,N,00222.5845,W,,150820,,,A*56
\c:1597506480345*6E\$GPGSA,A,3,03,04,17,19,22,31,09,01,06,02,,,1.64,0.89,1.38*0D
\c:1597506480371*69\$GPGSA,A,3,03,04,17,19,22,31,09,01,06,02,,,1.64,0.89,1.38*0D
\c:1597506480483*63\$IIRSA,-37.3,A,,V*63
\c:1597506480492*63\$GPGSV,3,1,11,01,18,135,40,02,08,312,34,03,48,073,47,04,74,120,46*73
\c:1597506480514*6C\$GPGSV,3,1,11,01,18,135,40,02,08,312,34,03,48,073,47,04,74,120,46*73
\c:1597506480610*6B\$IIRSA,-37.0,A,,V*60
\c:1597506480633*6A\$GPGSV,3,2,11,06,45,306,43,09,50,203,47,12,01,323,,17,39,236,46*7A
\c:1597506480658*67\$GPGSV,3,2,11,06,45,306,43,09,50,203,47,12,01,323,,17,39,236,46*7A
\c:1597506480689*6B\$IIMWV,195,R,3.7,N,A*2A
\c:1597506480689*6B\$IIVWR,165,L,3.7,N,1.9,M,6.9,K*48
\c:1597506480689*6B\$IIHDG,238,,,,*5E
\c:1597506480690*63\$IIHDM,238,M*35
\c:1597506480751*6F\$GPGSV,3,3,11,19,44,262,46,22,28,085,45,31,11,035,39*4D
\c:1597506480769*64\$GPGSV,3,3,11,19,44,262,46,22,28,085,45,31,11,035,39*4D
\c:1597506480860*62\$GPGLL,4729.97743,N,00222.58449,W,154903.00,A,A*71
\c:1597506480942*63\$IIMWV,194,T,3.7,N,A*2D
\c:1597506480942*63\$IIVWT,166,L,3.7,N,1.9,M,6.9,K*4D
\c:1597506480942*63\$IIMWD,,T,73,M,3.7,N,1.9,M*4C
\c:1597506480942*63\$IIMWV,195,T,3.7,N,A*2C
\c:1597506480942*63\$IIVWT,165,L,3.7,N,1.9,M,6.9,K*4E
\c:1597506481001*6C\$GPRMC,154904.00,A,4729.97737,N,00222.58450,W,0.012,,150820,,,A*69
\c:1597506481023*6C\$IIZDA,154904,15,08,2020,,*5E
\c:1597506481075*6F\$GPVTG,,T,,M,0.012,N,0.022,K,A*20
\c:1597506481087*62\$IIVTG,,T,,M,0.0,N,0.0,K,A*34
\c:1597506481102*6E\$IIMWV,196,R,3.7,N,A*29
\c:1597506481119*64\$IIVWR,164,L,3.7,N,1.9,M,6.9,K*49
\c:1597506481226*6B\$GPGGA,154904.00,4729.97737,N,00222.58450,W,1,10,0.89,2.1,M,48.7,M,,*40
\c:1597506481355*6E\$GPGSA,A,3,03,04,17,19,22,31,09,01,06,02,,,1.64,0.89,1.38*0D
\c:1597506481373*6A\$GPGSA,A,3,03,04,17,19,22,31,09,01,06,02,,,1.64,0.89,1.38*0D
\c:1597506481454*68\$IIVLW,37.00,N,0.00,N*79
\c:1597506481501*69\$GPGSV,3,1,11,01,18,135,39,02,08,312,35,03,48,073,50,04,74,120,46*7A
\c:1597506481527*6D\$GPGSV,3,1,11,01,18,135,39,02,08,312,35,03,48,073,50,04,74,120,46*7A
\c:1597506481592*63\$IIHDG,239,,,,*5F
\c:1597506481592*63\$IIHDM,239,M*34
\c:1597506481643*6C\$GPGSV,3,2,11,06,45,306,42,09,50,203,47,12,01,323,,17,39,236,45*78
\c:1597506481668*65\$GPGSV,3,2,11,06,45,306,42,09,50,203,47,12,01,323,,17,39,236,45*78
\c:1597506481761*6D\$GPGSV,3,3,11,19,44,262,46,22,28,085,45,31,11,035,39*4D
\c:1597506481781*63\$GPGSV,3,3,11,19,44,262,46,22,28,085,45,31,11,035,39*4D
\c:1597506481828*6F\$IIMWV,196,T,3.7,N,A*2F
\c:1597506481845*64\$IIVWT,164,L,3.7,N,1.9,M,6.9,K*4F
\c:1597506481870*62\$GPGLL,4729.97737,N,00222.58450,W,154904.00,A,A*7D
\c:1597506481876*64\$IIMWD,,T,75,M,3.7,N,1.9,M*4A
\c:1597506482011*6E\$GPRMC,154905.00,A,4729.97733,N,00222.58451,W,0.010,,150820,,,A*6F
\c:1597506482033*6E\$IIMWV,197,R,3.7,N,A*28
\c:1597506482034*69\$IIVWR,163,L,3.7,N,1.9,M,6.9,K*4E
\c:1597506482034*69\$IIZDA,154905,15,08,2020,,*5F
\c:1597506482077*6E\$IIVHW,,T,238,M,0.00,N,0.00,K*6C
\c:1597506482077*6E\$IIHDG,238,,,,*5E
\c:1597506482077*6E\$IIHDM,238,M*35
\c:1597506482085*63\$GPVTG,,T,,M,0.010,N,0.019,K,A*2A
\c:1597506482236*69\$GPGGA,154905.00,4729.97733,N,00222.58451,W,1,10,0.89,2.1,M,48.7,M,,*44
\c:1597506482264*6E\$IIGLL,4729.9773,N,00222.5845,W,154905,A,A*42
\c:1597506482264*6E\$IIRMC,154905,A,4729.9773,N,00222.5845,W,,150820,,,A*57
\c:1597506482365*6E\$GPGSA,A,3,03,04,17,19,22,31,09,01,06,02,,,1.64,0.89,1.38*0D
\c:1597506482390*64\$GPGSA,A,3,03,04,17,19,22,31,09,01,06,02,,,1.64,0.89,1.38*0D
\c:1597506482486*64\$IIMWV,197,R,3.8,N,A*27
\c:1597506482508*63\$IIVWR,163,L,3.8,N,2.0,M,7.0,K*43
\c:1597506482509*62\$IIMWV,198,R,3.8,N,A*28
\c:1597506482509*62\$IIVWR,162,L,3.8,N,2.0,M,7.0,K*42
\c:1597506482510*6A\$GPGSV,3,1,11,01,18,135,39,02,08,312,34,03,48,073,47,04,74,120,46*7D
\c:1597506482537*6F\$GPGSV,3,1,11,01,18,135,39,02,08,312,34,03,48,073,47,04,74,120,46*7D
\c:1597506482601*69\$IIDPT,4.8,,*4E
\c:1597506482601*69\$IIDBT,15.7,f,4.8,M,,*46
\c:1597506482653*6E\$GPGSV,3,2,11,06,45,306,42,09,50,203,48,12,01,323,,17,39,236,46*74
\c:1597506482678*67\$GPGSV,3,2,11,06,45,306,42,09,50,203,48,12,01,323,,17,39,236,46*74
\c:1597506482726*6D\$IIMTW,28.7,C*1E
\c:1597506482759*65\$IIMWV,196,T,3.8,N,A*20
\c:1597506482759*65\$IIVWT,164,L,3.8,N,2.0,M,7.0,K*42
\c:1597506482759*65\$IIMWD,,T,75,M,3.8,N,2.0,M*4F
\c:1597506482771*6F\$GPGSV,3,3,11,19,44,262,46,22,28,085,45,31,11,035,39*4D
\c:1597506482804*62\$GPGSV,3,3,11,19,44,262,46,22,28,085,45,31,11,035,39*4D
\c:1597506482805*63\$IIMWV,198,T,3.8,N,A*2E
\c:1597506482805*63\$IIVWT,162,L,3.8,N,2.0,M,7.0,K*44
\c:1597506482805*63\$IIMWD,,T,76,M,3.8,N,2.0,M*4C
\c:1597506482879*68\$GPGLL,4729.97733,N,00222.58451,W,154905.00,A,A*79
\c:1597506483021*6C\$GPRMC,154906.00,A,4729.97732,N,00222.58454,W,0.032,,150820,,,A*68
\c:1597506483029*64\$IIZDA,154906,15,08,2020,,*5C
\c:1597506483094*62\$GPVTG,,T,,M,0.032,N,0.059,K,A*2E
\c:1597506483109*67\$IIVTG,,T,,M,0.0,N,0.1,K,A*35
\c:1597506483246*6F\$GPGGA,154906.00,4729.97732,N,00222.58454,W,1,10,0.89,2.2,M,48.7,M,,*40
\c:1597506483375*6E\$GPGSA,A,3,03,04,17,19,22,31,09,01,06,02,,,1.64,0.89,1.38*0D
\c:1597506483411*6B\$GPGSA,A,3,03,04,17,19,22,31,09,01,06,02,,,1.64,0.89,1.38*0D
\c:1597506483412*68\$IIMWV,200,R,3.8,N,A*2A
\c:1597506483412*68\$IIVWR,160,L,3.8,N,2.0,M,7.0,K*40
\c:1597506483520*68\$GPGSV,3,1,11,01,18,135,39,02,08,312,36,03,48,073,49,04,74,120,46*71
\c:1597506483546*68\$GPGSV,3,1,11,01,18,135,39,02,08,312,36,03,48,073,49,04,74,120,46*71
\c:1597506483663*6C\$GPGSV,3,2,11,06,45,306,40,09,50,203,47,12,01,323,,17,39,236,45*7A
\c:1597506483687*66\$GPGSV,3,2,11,06,45,306,40,09,50,203,47,12,01,323,,17,39,236,45*7A
\c:1597506483782*62\$GPGSV,3,3,11,19,44,262,46,22,28,085,46,31,11,035,38*4F
\c:1597506483799*68\$GPGSV,3,3,11,19,44,262,46,22,28,085,46,31,11,035,38*4F
\c:1597506483889*66\$GPGLL,4729.97732,N,00222.58454,W,154906.00,A,A*7E
\c:1597506484030*6B\$GPRMC,154907.00,A,4729.97732,N,00222.58457,W,0.029,,150820,,,A*60
\c:1597506484054*69\$IIZDA,154907,15,08,2020,,*5D
\c:1597506484103*6A\$GPVTG,,T,,M,0.029,N,0.053,K,A*2E
\c:1597506484118*60\$IIVTG,,T,,M,0.0,N,0.1,K,A*35
\c:1597506484134*6E\$IIMWV,200,T,3.8,N,A*2C
\c:1597506484134*6E\$IIVWT,160,L,3.8,N,2.0,M,7.0,K*46
\c:1597506484182*63\$IIMWD,,T,78,M,3.8,N,2.0,M*42
\c:1597506484255*6A\$GPGGA,154907.00,4729.97732,N,00222.58457,W,1,10,0.89,2.3,M,48.7,M,,*43
\c:1597506484286*64\$IIGLL,4729.9773,N,00222.5846,W,154907,A,A*43
\c:1597506484287*65\$IIRMC,154907,A,4729.9773,N,00222.5846,W,,150820,,,A*56
\c:1597506484303*68\$IIMWV,200,R,3.9,N,A*2B
\c:1597506484319*63\$IIVWR,160,L,3.9,N,2.0,M,7.2,K*43
\c:1597506484385*66\$GPGSA,A,3,03,04,17,19,22,31,09,01,06,02,,,1.64,0.89,1.38*0D
\c:1597506484410*6D\$GPGSA,A,3,03,04,17,19,22,31,09,01,06,02,,,1.64,0.89,1.38*0D
\c:1597506484490*65\$IIHDG,238,,,,*5E
\c:1597506484491*64\$IIHDM,238,M*35
\c:1597506484531*6F\$GPGSV,3,1,11,01,18,135,39,02,08,312,36,03,48,073,50,04,74,120,45*7A
\c:1597506484550*68\$IIDPT,4.9,,*4F
\c:1597506484551*69\$IIDBT,16.1,f,4.9,M,,*42
\c:1597506484551*69\$GPGSV,3,1,11,01,18,135,39,02,08,312,36,03,48,073,50,04,74,120,45*7A
\c:1597506484672*6B\$GPGSV,3,2,11,06,45,306,40,09,50,203,47,12,01,323,,17,39,236,46*79
\c:1597506484695*62\$GPGSV,3,2,11,06,45,306,40,09,50,203,47,12,01,323,,17,39,236,46*79
\c:1597506484790*66\$GPGSV,3,3,11,19,44,262,47,22,28,085,45,31,11,035,38*4D
\c:1597506484791*67\$IIMWV,202,R,3.9,N,A*29
\c:1597506484792*64\$IIVWR,158,L,3.9,N,2.0,M,7.2,K*48
\c:1597506484806*66\$GPGSV,3,3,11,19,44,262,47,22,28,085,45,31,11,035,38*4D
\c:1597506484899*60\$GPGLL,4729.97732,N,00222.58457,W,154907.00,A,A*7C
\c:1597506485040*6D\$GPRMC,154908.00,A,4729.97732,N,00222.58458,W,0.053,,150820,,,A*6D
\c:1597506485055*69\$IIMWV,200,T,3.9,N,A*2D
\c:1597506485055*69\$IIVWT,160,L,3.9,N,2.0,M,7.2,K*45
\c:1597506485055*69\$IIMWD,,T,78,M,3.9,N,2.0,M*43
\c:1597506485056*6A\$IIZDA,154908,15,08,2020,,*52
\c:1597506485114*6D\$GPVTG,,T,,M,0.053,N,0.098,K,A*24
\c:1597506485134*6F\$IIVTG,,T,,M,0.1,N,0.1,K,A*34
\c:1597506485265*68\$GPGGA,154908.00,4729.97732,N,00222.58458,W,1,10,0.89,2.3,M,48.7,M,,*43
\c:1597506485278*64\$IIVHW,,T,237,M,0.00,N,0.00,K*63
\c:1597506485278*64\$IIHDG,237,,,,*51
\c:1597506485278*64\$IIHDM,237,M*3A
\c:1597506485395*66\$GPGSA,A,3,03,04,17,19,22,31,09,01,06,02,,,1.64,0.89,1.38*0D
\c:1597506485419*65\$GPGSA,A,3,03,04,17,19,22,31,09,01,06,02,,,1.64,0.89,1.38*0D
\c:1597506485419*65\$IIDPT,4.8,,*4E
\c:1597506485435*6B\$IIDBT,15.7,f,4.8,M,,*46
\c:1597506485540*68\$GPGSV,3,1,11,01,18,135,39,02,08,312,36,03,48,073,47,04,74,120,47*7E
\c:1597506485563*69\$GPGSV,3,1,11,01,18,135,39,02,08,312,36,03,48,073,47,04,74,120,47*7E
\c:1597506485682*65\$GPGSV,3,2,11,06,45,306,42,09,50,203,47,12,01,323,,17,39,236,45*78
\c:1597506485712*6D\$IIMWV,203,R,3.9,N,A*28
\c:1597506485712*6D\$GPGSV,3,2,11,06,45,306,42,09,50,203,47,12,01,323,,17,39,236,45*78
\c:1597506485713*6C\$IIVWR,157,L,3.9,N,2.0,M,7.2,K*47
\c:1597506485801*60\$GPGSV,3,3,11,19,44,262,47,22,28,085,44,31,11,035,37*43
\c:1597506485824*67\$GPGSV,3,3,11,19,44,262,47,22,28,085,44,31,11,035,37*43
\c:1597506485909*69\$GPGLL,4729.97732,N,00222.58458,W,154908.00,A,A*7C
\c:1597506485999*60\$IIMWV,203,T,3.9,N,A*2E
\c:1597506486000*6A\$IIVWT,157,L,3.9,N,2.0,M,7.2,K*41
\c:1597506486000*6A\$IIMWD,,T,80,M,3.9,N,2.0,M*44
\c:1597506486050*6F\$GPRMC,154909.00,A,4729.97734,N,00222.58461,W,0.069,,150820,,,A*69
\c:1597506486064*68\$IIZDA,154909,15,08,2020,,*53
\c:1597506486123*6A\$GPVTG,,T,,M,0.069,N,0.128,K,A*27
\c:1597506486143*6C\$IIVTG,,T,,M,0.1,N,0.1,K,A*34
\c:1597506486175*69\$IIHDG,238,,,,*5E
\c:1597506486175*69\$IIHDM,238,M*35
\c:1597506486223*69\$IIXDR,C,31.5,C,AirTemp*21
\c:1597506486276*69\$GPGGA,154909.00,4729.97734,N,00222.58461,W,1,10,0.89,2.2,M,48.7,M,,*4F
\c:1597506486383*62\$IIDPT,4.7,,*41
\c:1597506486383*62\$IIDBT,15.4,f,4.7,M,,*4A
\c:1597506486404*6A\$GPGSA,A,3,03,04,17,19,22,31,09,01,06,02,,,1.64,0.89,1.38*0D
\c:1597506486429*65\$GPGSA,A,3,03,04,17,19,22,31,09,01,06,02,,,1.64,0.89,1.38*0D
\c:1597506486550*6A\$GPGSV,3,1,11,01,18,135,38,02,08,312,33,03,48,073,49,04,74,120,45*76
\c:1597506486574*6C\$GPGSV,3,1,11,01,18,135,38,02,08,312,33,03,48,073,49,04,74,120,45*76
\c:1597506486662*68\$IIVHW,,T,237,M,0.00,N,0.00,K*63
\c:1597506486662*68\$IIHDG,237,,,,*51
\c:1597506486662*68\$IIHDM,237,M*3A
\c:1597506486692*67\$GPGSV,3,2,11,06,45,306,39,09,50,203,48,12,01,323,,17,39,236,45*7B
\c:1597506486717*6B\$GPGSV,3,2,11,06,45,306,39,09,50,203,48,12,01,323,,17,39,236,45*7B
\c:1597506486810*63\$GPGSV,3,3,11,19,44,262,48,22,28,085,45,31,11,035,37*4D
\c:1597506486828*68\$GPGSV,3,3,11,19,44,262,48,22,28,085,45,31,11,035,37*4D
\c:1597506486918*6A\$GPGLL,4729.97734,N,00222.58461,W,154909.00,A,A*71
\c:1597506487060*6D\$GPRMC,154910.00,A,4729.97736,N,00222.58463,W,0.019,,150820,,,A*66
\c:1597506487091*63\$IIZDA,154910,15,08,2020,,*5B
\c:1597506487092*60\$IIMWV,203,R,4.0,N,A*26
\c:1597506487092*60\$IIVWR,156,L,4.0,N,2.1,M,7.4,K*4F
\c:1597506487134*6D\$GPVTG,,T,,M,0.019,N,0.036,K,A*2E
\c:1597506487156*69\$IIVTG,,T,,M,0.0,N,0.0,K,A*34
\c:1597506487285*64\$GPGGA,154910.00,4729.97736,N,00222.58463,W,1,10,0.89,2.2,M,48.7,M,,*47
\c:1597506487313*6A\$IIGLL,4729.9774,N,00222.5846,W,154910,A,A*42
\c:1597506487314*6D\$IIRMC,154910,A,4729.9774,N,00222.5846,W,,150820,,,A*57
\c:1597506487360*6E\$IIDPT,4.9,,*4F
\c:1597506487360*6E\$IIDBT,16.1,f,4.9,M,,*42
\c:1597506487414*6A\$GPGSA,A,3,03,04,17,19,22,31,09,01,06,02,,,1.64,0.89,1.38*0D
\c:1597506487439*65\$GPGSA,A,3,03,04,17,19,22,31,09,01,06,02,,,1.64,0.89,1.38*0D
\c:1597506487552*69\$IIMWV,205,R,4.0,N,A*20
\c:1597506487552*69\$IIVWR,155,L,4.0,N,2.1,M,7.4,K*4C
\c:1597506487560*68\$GPGSV,3,1,11,01,18,135,38,02,08,312,35,03,48,073,48,04,74,120,45*71
\c:1597506487583*65\$GPGSV,3,1,11,01,18,135,38,02,08,312,35,03,48,073,48,04,74,120,45*71
\c:1597506487701*6D\$GPGSV,3,2,11,06,45,306,41,09,50,203,47,12,01,323,,17,39,236,44*7A
\c:1597506487725*6B\$GPGSV,3,2,11,06,45,306,41,09,50,203,47,12,01,323,,17,39,236,44*7A
\c:1597506487819*6B\$IIMWV,203,T,4.0,N,A*20
\c:1597506487819*6B\$IIVWT,157,L,4.0,N,2.1,M,7.4,K*48
\c:1597506487819*6B\$IIMWD,,T,80,M,4.0,N,2.1,M*4B
\c:1597506487819*6B\$IIMWV,205,T,4.0,N,A*26
\c:1597506487819*6B\$IIVWT,155,L,4.0,N,2.1,M,7.4,K*4A
\c:1597506487819*6B\$IIMWD,,T,82,M,4.0,N,2.1,M*49
\c:1597506487821*60\$GPGSV,3,3,11,19,44,262,47,22,28,085,44,31,11,035,36*42
\c:1597506487835*65\$GPGSV,3,3,11,19,44,262,47,22,28,085,44,31,11,035,36*42
\c:1597506487928*68\$GPGLL,4729.97736,N,00222.58463,W,154910.00,A,A*79
\c:1597506487963*67\$IIRSA,-37.0,A,,V*60
\c:1597506488070*63\$GPRMC,154911.00,A,4729.97738,N,00222.58462,W,0.020,,150820,,,A*62
\c:1597506488091*6C\$IIZDA,154911,15,08,2020,,*5A
\c:1597506488143*62\$GPVTG,,T,,M,0.020,N,0.038,K,A*2A
\c:1597506488295*6A\$GPGGA,154911.00,4729.97738,N,00222.58462,W,1,10,0.89,2.2,M,48.7,M,,*49
\c:1597506488331*65\$IIDPT,4.8,,*4E
\c:1597506488332*66\$IIDBT,15.7,f,4.8,M,,*46
\c:1597506488424*66\$GPGSA,A,3,03,04,17,19,22,31,09,01,06,02,,,1.64,0.89,1.38*0D
\c:1597506488449*6D\$GPGSA,A,3,03,04,17,19,22,31,09,01,06,02,,,1.64,0.89,1.38*0D
\c:1597506488473*64\$IIMWV,205,R,4.1,N,A*21
\c:1597506488474*63\$IIVWR,155,L,4.1,N,2.1,M,7.6,K*4F
\c:1597506488474*63\$IIMWV,206,R,4.1,N,A*22
\c:1597506488474*63\$IIVWR,154,L,4.1,N,2.1,M,7.6,K*4E
\c:1597506488569*6E\$GPGSV,3,1,11,01,18,135,38,02,08,312,36,03,48,073,47,04,74,120,46*7E
\c:1597506488594*6C\$GPGSV,3,1,11,01,18,135,38,02,08,312,36,03,48,073,47,04,74,120,46*7E
\c:1597506488712*60\$GPGSV,3,2,11,06,45,306,40,09,50,203,49,12,01,323,,17,39,236,44*75
\c:1597506488737*67\$GPGSV,3,2,11,06,45,306,40,09,50,203,49,12,01,323,,17,39,236,44*75
\c:1597506488752*64\$IIMWD,,T,83,M,4.0,N,2.1,M*48
\c:1597506488830*6F\$GPGSV,3,3,11,19,44,262,48,22,28,085,44,31,11,035,37*4C
\c:1597506488848*60\$GPGSV,3,3,11,19,44,262,48,22,28,085,44,31,11,035,37*4C
\c:1597506488939*67\$GPGLL,4729.97738,N,00222.58462,W,154911.00,A,A*77
\c:1597506488960*6B\$IIVLW,37.00,N,0.00,N*79
\c:1597506489003*66\$IIVHW,,T,237,M,0.00,N,0.00,K*63
\c:1597506489004*61\$IIHDG,237,,,,*51
\c:1597506489004*61\$IIHDM,237,M*3A
\c:1597506489080*6D\$GPRMC,154912.00,A,4729.97739,N,00222.58462,W,0.012,,150820,,,A*61
\c:1597506489099*65\$IIZDA,154912,15,08,2020,,*59
\c:1597506489153*62\$GPVTG,,T,,M,0.012,N,0.023,K,A*21
\c:1597506489164*66\$IIVTG,,T,,M,0.0,N,0.0,K,A*34
\c:1597506489179*6A\$IIMWV,205,T,4.1,N,A*27
\c:1597506489179*6A\$IIVWT,155,L,4.1,N,2.1,M,7.6,K*49
\c:1597506489202*65\$IIMWD,,T,83,M,4.1,N,2.1,M*49
\c:1597506489202*65\$IIMWV,206,T,4.1,N,A*24
\c:1597506489202*65\$IIVWT,154,L,4.1,N,2.1,M,7.6,K*48
\c:1597506489305*63\$GPGGA,154912.00,4729.97739,N,00222.58462,W,1,10,0.89,2.1,M,48.7,M,,*48
\c:1597506489377*66\$IIMWV,207,R,4.1,N,A*23
\c:1597506489378*69\$IIVWR,153,L,4.1,N,2.1,M,7.6,K*49
\c:1597506489433*61\$GPGSA,A,3,03,04,17,19,22,31,09,01,06,02,,,1.64,0.89,1.38*0D
\c:1597506489457*63\$GPGSA,A,3,03,04,17,19,22,31,09,01,06,02,,,1.64,0.89,1.38*0D
\c:1597506489580*68\$GPGSV,3,1,11,01,18,135,38,02,08,312,36,03,48,073,48,04,74,120,46*71
\c:1597506489601*62\$GPGSV,3,1,11,01,18,135,38,02,08,312,36,03,48,073,48,04,74,120,46*71
\c:1597506489722*62\$GPGSV,3,2,11,06,45,306,41,09,50,203,49,12,01,323,,17,39,236,44*74
\c:1597506489744*62\$GPGSV,3,2,11,06,45,306,41,09,50,203,49,12,01,323,,17,39,236,44*74
\c:1597506489840*69\$GPGSV,3,3,11,19,44,262,47,22,28,085,44,31,11,035,37*43
\c:1597506489856*6E\$GPGSV,3,3,11,19,44,262,47,22,28,085,44,31,11,035,37*43
\c:1597506489948*60\$GPGLL,4729.97739,N,00222.58462,W,154912.00,A,A*75
\c:1597506490090*64\$GPRMC,154913.00,A,4729.97737,N,00222.58463,W,0.043,,150820,,,A*6B
\c:1597506490109*65\$IIMWV,207,T,4.1,N,A*25
\c:1597506490109*65\$IIVWT,153,L,4.1,N,2.1,M,7.6,K*4F
\c:1597506490109*65\$IIMWD,,T,84,M,4.1,N,2.1,M*4E
\c:1597506490109*65\$IIZDA,154913,15,08,2020,,*58
\c:1597506490162*68\$GPVTG,,T,,M,0.043,N,0.080,K,A*2C
\c:1597506490172*69\$IIVTG,,T,,M,0.0,N,0.1,K,A*35
\c:1597506490236*6A\$IIMTW,28.7,C*1E
\c:1597506490314*6B\$GPGGA,154913.00,4729.97737,N,00222.58463,W,1,10,0.89,2.0,M,48.7,M,,*47
\c:1597506490316*69\$IIDPT,4.7,,*41
\c:1597506490316*69\$IIDBT,15.4,f,4.7,M,,*4A
\c:1597506490443*6E\$GPGSA,A,3,03,04,17,19,22,31,09,01,06,02,,,1.64,0.89,1.38*0D
\c:1597506490470*6E\$GPGSA,A,3,03,04,17,19,22,31,09,01,06,02,,,1.64,0.89,1.38*0D
\c:1597506490589*69\$GPGSV,3,1,11,01,18,136,40,02,08,312,36,03,48,073,48,04,74,120,45*7E
\c:1597506490613*69\$GPGSV,3,1,11,01,18,136,40,02,08,312,36,03,48,073,48,04,74,120,45*7E
\c:1597506490730*69\$GPGSV,3,2,11,06,45,306,39,09,50,203,48,12,01,323,,17,39,236,44*7A
\c:1597506490763*6F\$GPGSV,3,2,11,06,45,306,39,09,50,203,48,12,01,323,,17,39,236,44*7A
\c:1597506490763*6F\$IIMWV,207,R,4.2,N,A*20
\c:1597506490763*6F\$IIVWR,153,L,4.2,N,2.2,M,7.8,K*47
\c:1597506490850*60\$GPGSV,3,3,11,19,44,262,48,22,28,085,44,31,11,035,37*4C
\c:1597506490860*63\$GPGSV,3,3,11,19,44,262,48,22,28,085,44,31,11,035,37*4C
\c:1597506490958*69\$GPGLL,4729.97737,N,00222.58463,W,154913.00,A,A*7B
\c:1597506491099*6C\$GPRMC,154914.00,A,4729.97737,N,00222.58465,W,0.028,,150820,,,A*67
\c:1597506491115*69\$IIZDA,154914,15,08,2020,,*5F
\c:1597506491172*68\$GPVTG,,T,,M,0.028,N,0.052,K,A*2E
\c:1597506491195*61\$IIVTG,,T,,M,0.0,N,0.1,K,A*35
\c:1597506491227*6B\$IIRSA,-37.3,A,,V*63
\c:1597506491275*6C\$IIDPT,4.8,,*4E
\c:1597506491275*6C\$IIDBT,15.7,f,4.8,M,,*46
\c:1597506491324*69\$GPGGA,154914.00,4729.97737,N,00222.58465,W,1,10,0.89,1.9,M,48.7,M,,*4C
\c:1597506491357*6D\$IIGLL,4729.9774,N,00222.5847,W,154914,A,A*47
\c:1597506491357*6D\$IIRMC,154914,A,4729.9774,N,00222.5847,W,,150820,,,A*52
\c:1597506491357*6D\$IIRSA,-37.0,A,,V*60
\c:1597506491453*6E\$GPGSA,A,3,03,04,17,19,22,31,09,01,06,02,,,1.64,0.89,1.38*0D
\c:1597506491478*67\$GPGSA,A,3,03,04,17,19,22,31,09,01,06,02,,,1.64,0.89,1.38*0D
\c:1597506491502*6B\$IIVHW,,T,237,M,0.00,N,0.00,K*63
\c:1597506491502*6B\$IIHDG,237,,,,*51
\c:1597506491502*6B\$IIHDM,237,M*3A
\c:1597506491600*6A\$GPGSV,3,1,11,01,18,136,40,02,08,312,36,03,48,073,47,04,74,120,45*71
\c:1597506491624*6C\$GPGSV,3,1,11,01,18,136,40,02,08,312,36,03,48,073,47,04,74,120,45*71
\c:1597506491741*6E\$GPGSV,3,2,11,06,45,306,41,09,50,203,49,12,01,323,,17,39,236,44*74
\c:1597506491767*6A\$GPGSV,3,2,11,06,45,306,41,09,50,203,49,12,01,323,,17,39,236,44*74
\c:1597506491859*68\$GPGSV,3,3,11,19,44,262,48,22,28,085,43,31,11,035,36*4A
\c:1597506491879*6A\$GPGSV,3,3,11,19,44,262,48,22,28,085,43,31,11,035,36*4A
\c:1597506491910*64\$IIMWV,207,T,4.2,N,A*26
\c:1597506491927*60\$IIVWT,153,L,4.2,N,2.2,M,7.8,K*41
\c:1597506491927*60\$IIMWD,,T,84,M,4.2,N,2.2,M*4E
\c:1597506491968*6B\$GPGLL,4729.97737,N,00222.58465,W,154914.00,A,A*7A
\c:1597506492109*67\$GPRMC,154915.00,A,4729.97734,N,00222.58466,W,0.006,,150820,,,A*6A
\c:1597506492118*67\$IIZDA,154915,15,08,2020,,*5E
\c:1597506492182*64\$GPVTG,,T,,M,0.006,N,0.011,K,A*25
\c:1597506492198*6F\$IIVTG,,T,,M,0.0,N,0.0,K,A*34
\c:1597506492334*6B\$GPGGA,154915.00,4729.97734,N,00222.58466,W,1,10,0.89,1.8,M,48.7,M,,*4C
\c:1597506492364*6E\$IIGLL,4729.9773,N,00222.5847,W,154915,A,A*41
\c:1597506492364*6E\$IIRMC,154915,A,4729.9773,N,00222.5847,W,,150820,,,A*54
\c:1597506492463*6E\$GPGSA,A,3,03,04,17,19,22,31,09,01,06,02,,,1.64,0.89,1.38*0D
\c:1597506492489*6A\$GPGSA,A,3,03,04,17,19,22,31,09,01,06,02,,,1.64,0.89,1.38*0D
\c:1597506492579*64\$IIMWV,207,R,4.3,N,A*21
\c:1597506492580*62\$IIVWR,153,L,4.3,N,2.2,M,8.0,K*41
\c:1597506492580*62\$IIMWV,208,R,4.3,N,A*2E
\c:1597506492580*62\$IIVWR,152,L,4.3,N,2.2,M,8.0,K*40
\c:1597506492608*61\$GPGSV,3,1,11,01,18,136,38,02,08,312,36,03,48,074,48,04,74,120,46*75
\c:1597506492635*6F\$GPGSV,3,1,11,01,18,136,38,02,08,312,36,03,48,074,48,04,74,120,46*75
\c:1597506492751*6C\$GPGSV,3,2,11,06,45,306,43,09,50,203,48,12,01,323,,17,39,236,42*71
\c:1597506492775*6A\$GPGSV,3,2,11,06,45,306,43,09,50,203,48,12,01,323,,17,39,236,42*71
\c:1597506492855*67\$IIMWV,207,T,4.3,N,A*27
\c:1597506492869*68\$GPGSV,3,3,11,19,44,262,49,22,28,085,45,31,11,035,34*4F
\c:1597506492886*69\$IIVWT,153,L,4.3,N,2.2,M,8.0,K*47
\c:1597506492886*69\$IIMWD,,T,84,M,4.3,N,2.2,M*4F
\c:1597506492886*69\$IIMWV,208,T,4.3,N,A*28
\c:1597506492886*69\$IIVWT,152,L,4.3,N,2.2,M,8.0,K*46
\c:1597506492886*69\$IIMWD,,T,85,M,4.3,N,2.2,M*4E
\c:1597506492886*69\$GPGSV,3,3,11,19,44,262,49,22,28,085,45,31,11,035,34*4F
\c:1597506492978*69\$GPGLL,4729.97734,N,00222.58466,W,154915.00,A,A*7B
\c:1597506493119*67\$GPRMC,154916.00,A,4729.97730,N,00222.58469,W,0.069,,150820,,,A*6B
\c:1597506493140*6B\$IIZDA,154916,15,08,2020,,*5D
\c:1597506493193*65\$GPVTG,,T,,M,0.069,N,0.128,K,A*27
\c:1597506493205*69\$IIVTG,,T,,M,0.1,N,0.1,K,A*34
\c:1597506493344*6D\$GPGGA,154916.00,4729.97730,N,00222.58469,W,1,10,0.89,1.6,M,48.7,M,,*4A
\c:1597506493474*69\$GPGSA,A,3,03,04,17,19,22,31,09,01,06,02,,,1.64,0.89,1.38*0D
\c:1597506493492*61\$IIMWV,208,R,4.4,N,A*29
\c:1597506493493*60\$IIVWR,152,L,4.4,N,2.3,M,8.1,K*47
\c:1597506493493*60\$GPGSA,A,3,03,04,17,19,22,31,09,01,06,02,,,1.64,0.89,1.38*0D
\c:1597506493619*60\$GPGSV,3,1,11,01,18,136,40,02,08,312,36,03,48,074,47,04,74,118,46*7E
\c:1597506493645*69\$GPGSV,3,1,11,01,18,136,40,02,08,312,36,03,48,074,47,04,74,118,46*7E
\c:1597506493724*6F\$IIXDR,C,31.5,C,AirTemp*21
\c:1597506493760*6F\$GPGSV,3,2,11,06,45,306,42,09,50,203,49,12,01,323,,17,39,236,43*70
\c:1597506493786*67\$IIMWV,208,T,4.4,N,A*2F
\c:1597506493786*67\$IIVWT,152,L,4.4,N,2.3,M,8.1,K*41
\c:1597506493786*67\$IIMWD,,T,85,M,4.4,N,2.3,M*48
\c:1597506493786*67\$GPGSV,3,2,11,06,45,306,42,09,50,203,49,12,01,323,,17,39,236,43*70
\c:1597506493879*68\$GPGSV,3,3,11,19,44,262,48,22,28,085,45,31,11,035,34*4E
\c:1597506493898*67\$GPGSV,3,3,11,19,44,262,48,22,28,085,45,31,11,035,34*4E
\c:1597506493987*68\$GPGLL,4729.97730,N,00222.58469,W,154916.00,A,A*73
\c:1597506493994*6A\$IIHDG,237,,,,*51
\c:1597506493994*6A\$IIHDM,237,M*3A
\c:1597506494129*63\$GPRMC,154917.00,A,4729.97723,N,00222.58470,W,0.015,,150820,,,A*6B
\c:1597506494138*63\$IIZDA,154917,15,08,2020,,*5C
\c:1597506494203*68\$GPVTG,,T,,M,0.015,N,0.028,K,A*2D
\c:1597506494217*6D\$IIVTG,,T,,M,0.0,N,0.0,K,A*34
\c:1597506494354*6B\$GPGGA,154917.00,4729.97723,N,00222.58470,W,1,10,0.89,1.4,M,48.7,M,,*43
\c:1597506494385*67\$IIGLL,4729.9772,N,00222.5847,W,154917,A,A*42
\c:1597506494385*67\$IIRMC,154917,A,4729.9772,N,00222.5847,W,,150820,,,A*57
\c:1597506494433*6D\$IIMWV,209,R,4.4,N,A*28
\c:1597506494433*6D\$IIVWR,151,L,4.4,N,2.3,M,8.1,K*44
\c:1597506494483*66\$GPGSA,A,3,03,04,17,19,22,31,09,01,06,02,,,1.64,0.89,1.38*0D
\c:1597506494509*65\$GPGSA,A,3,03,04,17,19,22,31,09,01,06,02,,,1.64,0.89,1.38*0D
\c:1597506494629*64\$GPGSV,3,1,11,01,18,136,40,02,08,312,37,03,48,074,47,04,74,118,45*7C
\c:1597506494652*68\$GPGSV,3,1,11,01,18,136,40,02,08,312,37,03,48,074,47,04,74,118,45*7C
\c:1597506494771*68\$GPGSV,3,2,11,06,45,306,45,09,50,203,49,12,01,323,,17,39,236,43*77
\c:1597506494797*60\$GPGSV,3,2,11,06,45,306,45,09,50,203,49,12,01,323,,17,39,236,43*77
\c:1597506494812*62\$ECRMB,A,0.000,L,001,002,4730.086,N,00233.745,W,7.541,270.828,0.000,V,A*61
\c:1597506494814*64\$ECRMC,154814,A,4729.977,N,00222.585,W,0.000,0.000,150820,0.238,W,A*0B
\c:1597506494816*66\$ECAPB,A,A,0.000,L,N,V,V,270.825,T,002,270.828,T,270.828,T*3B
\c:1597506494817*67\$ECXTE,A,A,0.000,L,N*4F
\c:1597506494860*67\$IIMWV,209,R,4.5,N,A*29
\c:1597506494860*67\$IIVWR,151,L,4.5,N,2.3,M,8.3,K*47
\c:1597506494890*68\$GPGSV,3,3,11,19,44,262,48,22,28,085,45,31,11,035,31*4B
\c:1597506494908*68\$GPGSV,3,3,11,19,44,262,48,22,28,085,45,31,11,035,31*4B
\c:1597506494998*61\$GPGLL,4729.97723,N,00222.58470,W,154917.00,A,A*78
\c:1597506495138*62\$GPRMC,154918.00,A,4729.97715,N,00222.58468,W,0.042,,150820,,,A*6A
\c:1597506495172*6C\$IIMWV,209,T,4.4,N,A*2E
\c:1597506495172*6C\$IIVWT,151,L,4.4,N,2.3,M,8.1,K*42
\c:1597506495172*6C\$IIMWD,,T,86,M,4.4,N,2.3,M*4B
\c:1597506495172*6C\$IIZDA,154918,15,08,2020,,*53
\c:1597506495211*6A\$GPVTG,,T,,M,0.042,N,0.078,K,A*2A
\c:1597506495236*6F\$IIVTG,,T,,M,0.0,N,0.1,K,A*35
\c:1597506495363*6E\$GPGGA,154918.00,4729.97715,N,00222.58468,W,1,10,0.89,1.2,M,48.7,M,,*46
\c:1597506495492*67\$GPGSA,A,3,03,04,17,19,22,31,09,01,06,02,,,1.64,0.89,1.38*0D
\c:1597506495519*65\$GPGSA,A,3,03,04,17,19,22,31,09,01,06,02,,,1.64,0.89,1.38*0D
\c:1597506495639*64\$GPGSV,3,1,11,01,18,136,40,02,08,312,34,03,48,074,47,04,74,118,45*7F
\c:1597506495663*6B\$GPGSV,3,1,11,01,18,136,40,02,08,312,34,03,48,074,47,04,74,118,45*7F
\c:1597506495775*6D\$IIMWV,210,R,4.5,N,A*21
\c:1597506495775*6D\$IIVWR,150,L,4.5,N,2.3,M,8.3,K*46
\c:1597506495781*66\$GPGSV,3,2,11,06,45,306,45,09,50,203,50,12,01,323,,17,39,236,42*7E
\c:1597506495805*65\$GPGSV,3,2,11,06,45,306,45,09,50,203,50,12,01,323,,17,39,236,42*7E
\c:1597506495837*64\$ECRMB,A,0.000,R,001,002,4730.086,N,00233.745,W,7.541,270.828,0.000,V,A*7F
\c:1597506495838*6B\$ECRMC,154815,A,4729.977,N,00222.585,W,0.000,0.000,150820,0.238,W,A*0A
\c:1597506495839*6A\$ECAPB,A,A,0.000,R,N,V,V,270.825,T,002,270.828,T,270.828,T*25
\c:1597506495840*64\$ECXTE,A,A,0.000,R,N*51
\c:1597506495898*61\$GPGSV,3,3,11,19,44,262,48,22,28,085,44,31,11,035,30*4B
\c:1597506495918*68\$GPGSV,3,3,11,19,44,262,48,22,28,085,44,31,11,035,30*4B
\c:1597506496007*6C\$GPGLL,4729.97715,N,00222.58468,W,154918.00,A,A*7B
\c:1597506496045*6A\$IIDPT,4.7,,*41
\c:1597506496045*6A\$IIDBT,15.4,f,4.7,M,,*4A
\c:1597506496073*6F\$IIMWV,209,T,4.5,N,A*2F
\c:1597506496073*6F\$IIVWT,151,L,4.5,N,2.3,M,8.3,K*41
\c:1597506496073*6F\$IIMWD,,T,86,M,4.5,N,2.3,M*4A
\c:1597506496148*66\$GPRMC,154919.00,A,4729.97710,N,00222.58467,W,0.049,,150820,,,A*6A
\c:1597506496170*6D\$IIZDA,154919,15,08,2020,,*52
\c:1597506496217*6F\$IIVLW,37.00,N,0.00,N*79
\c:1597506496221*6A\$GPVTG,,T,,M,0.049,N,0.090,K,A*27
\c:1597506496233*69\$IIVTG,,T,,M,0.0,N,0.1,K,A*35
\c:1597506496258*64\$IIMWV,210,R,4.6,N,A*22
\c:1597506496258*64\$IIVWR,150,L,4.6,N,2.4,M,8.5,K*44
\c:1597506496258*64\$IIMWV,209,R,4.6,N,A*2A
\c:1597506496258*64\$IIVWR,151,L,4.6,N,2.4,M,8.5,K*45
\c:1597506496373*6C\$GPGGA,154919.00,4729.97710,N,00222.58467,W,1,10,0.89,1.1,M,48.7,M,,*4E
\c:1597506496400*6F\$IIGLL,4729.9771,N,00222.5847,W,154919,A,A*4F
\c:1597506496400*6F\$IIRMC,154919,A,4729.9771,N,00222.5847,W,,150820,,,A*5A
\c:1597506496496*60\$IIVHW,,T,237,M,0.00,N,0.00,K*63
\c:1597506496496*60\$IIHDG,237,,,,*51
\c:1597506496497*61\$IIHDM,237,M*3A
\c:1597506496503*6D\$GPGSA,A,3,03,04,17,19,22,31,09,01,06,02,,,1.64,0.89,1.38*0D
\c:1597506496528*64\$GPGSA,A,3,03,04,17,19,22,31,09,01,06,02,,,1.64,0.89,1.38*0D
\c:1597506496649*60\$GPGSV,3,1,11,01,18,136,39,02,08,312,35,03,48,074,45,04,74,118,45*72
\c:1597506496671*6B\$GPGSV,3,1,11,01,18,136,39,02,08,312,35,03,48,074,45,04,74,118,45*72
\c:1597506496719*64\$IIHDG,238,,,,*5E
\c:1597506496735*6A\$IIHDM,238,M*35
\c:1597506496790*65\$GPGSV,3,2,11,06,45,306,45,09,50,203,50,12,01,323,,17,39,236,42*7E
\c:1597506496815*67\$GPGSV,3,2,11,06,45,306,45,09,50,203,50,12,01,323,,17,39,236,42*7E
\c:1597506496853*65\$ECRMB,A,0.000,R,001,002,4730.086,N,00233.745,W,7.541,270.829,0.000,V,A*7E
\c:1597506496854*62\$ECRMC,154816,A,4729.977,N,00222.585,W,0.000,0.000,150820,0.238,W,A*09
\c:1597506496856*60\$ECAPB,A,A,0.000,R,N,V,V,270.825,T,002,270.829,T,270.829,T*25
\c:1597506496856*60\$ECXTE,A,A,0.000,R,N*51
\c:1597506496908*6A\$GPGSV,3,3,11,19,44,262,48,22,28,085,46,31,11,035,31*48
\c:1597506496928*68\$GPGSV,3,3,11,19,44,262,48,22,28,085,46,31,11,035,31*48
\c:1597506496983*69\$IIMWV,209,T,4.6,N,A*2C
\c:1597506496983*69\$IIVWT,151,L,4.6,N,2.4,M,8.5,K*43
\c:1597506496983*69\$IIMWD,,T,86,M,4.6,N,2.4,M*4E
\c:1597506497017*6C\$GPGLL,4729.97710,N,00222.58467,W,154919.00,A,A*70
\c:1597506497158*66\$IIMWV,210,R,4.6,N,A*22
\c:1597506497158*66\$IIVWR,150,L,4.6,N,2.4,M,8.5,K*44
\c:1597506497158*66\$GPRMC,154920.00,A,4729.97708,N,00222.58463,W,0.046,,150820,,,A*62
\c:1597506497174*68\$IIZDA,154920,15,08,2020,,*58
\c:1597506497231*6A\$GPVTG,,T,,M,0.046,N,0.085,K,A*2C
\c:1597506497383*62\$GPGGA,154920.00,4729.97708,N,00222.58463,W,1,10,0.89,1.1,M,48.7,M,,*49
\c:1597506497411*6E\$IIGLL,4729.9771,N,00222.5846,W,154920,A,A*44
\c:1597506497412*6D\$IIRMC,154920,A,4729.9771,N,00222.5846,W,,150820,,,A*51
\c:1597506497512*6C\$GPGSA,A,3,03,04,17,19,22,31,09,01,06,02,,,1.64,0.89,1.38*0D
\c:1597506497539*65\$GPGSA,A,3,03,04,17,19,22,31,09,01,06,02,,,1.64,0.89,1.38*0D
\c:1597506497642*6A\$IIMWV,210,R,4.7,N,A*23
\c:1597506497642*6A\$IIVWR,150,L,4.7,N,2.4,M,8.7,K*47
\c:1597506497642*6A\$IIMWV,208,R,4.7,N,A*2A
\c:1597506497642*6A\$IIVWR,152,L,4.7,N,2.4,M,8.7,K*45
\c:1597506497658*61\$GPGSV,3,1,11,01,18,136,39,02,08,312,35,03,48,074,48,04,74,118,44*7E
\c:1597506497684*60\$GPGSV,3,1,11,01,18,136,39,02,08,312,35,03,48,074,48,04,74,118,44*7E
\c:1597506497731*6F\$IIMTW,28.7,C*1E
\c:1597506497799*6D\$GPGSV,3,2,11,06,45,306,44,09,50,203,50,12,01,323,,17,39,236,43*7E
\c:1597506497826*66\$GPGSV,3,2,11,06,45,306,44,09,50,203,50,12,01,323,,17,39,236,43*7E
\c:1597506497869*6D\$ECRMB,A,0.000,R,001,002,4730.086,N,00233.745,W,7.541,270.829,0.001,V,A*7F
\c:1597506497870*65\$ECRMC,154817,A,4729.977,N,00222.585,W,0.046,0.000,150820,0.238,W,A*0A
\c:1597506497872*67\$ECAPB,A,A,0.000,R,N,V,V,270.825,T,002,270.829,T,270.829,T*25
\c:1597506497872*67\$ECXTE,A,A,0.000,R,N*51
\c:1597506497897*6C\$IIMWV,209,T,4.7,N,A*2D
\c:1597506497897*6C\$IIVWT,151,L,4.7,N,2.4,M,8.7,K*40
\c:1597506497897*6C\$IIMWD,,T,86,M,4.7,N,2.4,M*4F
\c:1597506497897*6C\$IIMWV,208,T,4.7,N,A*2C
\c:1597506497897*6C\$IIVWT,152,L,4.7,N,2.4,M,8.7,K*43
\c:1597506497918*6A\$GPGSV,3,3,11,19,44,262,47,22,28,085,44,31,11,035,31*45
\c:1597506497928*69\$GPGSV,3,3,11,19,44,262,47,22,28,085,44,31,11,035,31*45
\c:1597506498027*60\$GPGLL,4729.97708,N,00222.58463,W,154920.00,A,A*77
\c:1597506498120*66\$IIVHW,,T,237,M,0.00,N,0.00,K*63
\c:1597506498120*66\$IIHDG,237,,,,*51
\c:1597506498120*66\$IIHDM,237,M*3A
\c:1597506498168*6A\$GPRMC,154921.00,A,4729.97705,N,00222.58459,W,0.016,,150820,,,A*62
\c:1597506498184*68\$IIZDA,154921,15,08,2020,,*59
\c:1597506498241*62\$GPVTG,,T,,M,0.016,N,0.029,K,A*2F
\c:1597506498265*64\$IIVTG,,T,,M,0.0,N,0.0,K,A*34
\c:1597506498393*6C\$GPGGA,154921.00,4729.97705,N,00222.58459,W,1,10,0.89,1.2,M,48.7,M,,*4F
\c:1597506498523*61\$GPGSA,A,3,03,04,17,19,22,31,09,01,06,02,,,1.64,0.89,1.38*0D
\c:1597506498554*61\$GPGSA,A,3,03,04,17,19,22,31,09,01,06,02,,,1.64,0.89,1.38*0D
\c:1597506498555*60\$IIMWV,208,R,4.9,N,A*24
\c:1597506498555*60\$IIVWR,152,L,4.9,N,2.5,M,9.1,K*4D
\c:1597506498555*60\$IIMWV,207,R,4.9,N,A*2B
\c:1597506498555*60\$IIVWR,153,L,4.9,N,2.5,M,9.1,K*4C
\c:1597506498668*6D\$GPGSV,3,1,11,01,18,136,40,02,08,312,34,03,48,074,47,04,74,118,44*7E
\c:1597506498694*6E\$GPGSV,3,1,11,01,18,136,40,02,08,312,34,03,48,074,47,04,74,118,44*7E
\c:1597506498709*6B\$IIRSA,-37.0,A,,V*60
\c:1597506498790*6B\$IIMWV,208,T,4.9,N,A*22
\c:1597506498805*68\$IIVWT,152,L,4.9,N,2.5,M,9.1,K*4B
\c:1597506498805*68\$IIMWD,,T,86,M,4.9,N,2.5,M*40
\c:1597506498810*6C\$GPGSV,3,2,11,06,45,306,45,09,50,203,51,12,01,323,,17,39,236,45*78
\c:1597506498846*6F\$GPGSV,3,2,11,06,45,306,45,09,50,203,51,12,01,323,,17,39,236,45*78
\c:1597506498846*6F\$IIMWV,207,T,4.9,N,A*2D
\c:1597506498846*6F\$IIVWT,153,L,4.9,N,2.5,M,9.1,K*4A
\c:1597506498846*6F\$IIMWD,,T,84,M,4.9,N,2.5,M*42
\c:1597506498884*61\$ECRMB,A,0.000,R,001,002,4730.086,N,00233.745,W,7.541,270.829,0.000,V,A*7E
\c:1597506498885*60\$ECRMC,154818,A,4729.977,N,00222.585,W,0.000,0.000,150820,0.238,W,A*07
\c:1597506498887*62\$ECAPB,A,A,0.000,R,N,V,V,270.825,T,002,270.829,T,270.829,T*25
\c:1597506498887*62\$ECXTE,A,A,0.000,R,N*51
\c:1597506498929*67\$GPGSV,3,3,11,19,44,262,46,22,28,085,45,31,11,035,32*46
\c:1597506498941*69\$GPGSV,3,3,11,19,44,262,46,22,28,085,45,31,11,035,32*46
\c:1597506499021*67\$IIHDG,238,,,,*5E
\c:1597506499021*67\$IIHDM,238,M*35
\c:1597506499036*61\$GPGLL,4729.97705,N,00222.58459,W,154921.00,A,A*72
\c:1597506499179*6B\$GPRMC,154922.00,A,4729.97703,N,00222.58454,W,0.032,,150820,,,A*6C
\c:1597506499197*6B\$IIZDA,154922,15,08,2020,,*5A
\c:1597506499251*62\$GPVTG,,T,,M,0.032,N,0.059,K,A*2E
\c:1597506499261*61\$IIVTG,,T,,M,0.0,N,0.1,K,A*35
\c:1597506499403*63\$GPGGA,154922.00,4729.97703,N,00222.58454,W,1,10,0.89,1.4,M,48.7,M,,*41
\c:1597506499429*6B\$IIGLL,4729.9770,N,00222.5845,W,154922,A,A*44
\c:1597506499429*6B\$IIRMC,154922,A,4729.9770,N,00222.5845,W,,150820,,,A*51
\c:1597506499446*62\$IIMWV,207,R,5.1,N,A*22
\c:1597506499446*62\$IIVWR,153,L,5.1,N,2.6,M,9.4,K*43
\c:1597506499532*60\$GPGSA,A,3,03,04,17,19,22,31,09,01,06,02,,,1.64,0.89,1.38*0D
\c:1597506499556*62\$GPGSA,A,3,03,04,17,19,22,31,09,01,06,02,,,1.64,0.89,1.38*0D
\c:1597506499677*62\$GPGSV,3,1,11,01,18,136,39,02,08,312,30,03,48,074,46,04,74,118,44*75
\c:1597506499700*63\$GPGSV,3,1,11,01,18,136,39,02,08,312,30,03,48,074,46,04,74,118,44*75
\c:1597506499744*63\$GPTXT,01,01,00,txbuf alloc*7F
\c:1597506499762*67\$IIMWV,207,T,5.1,N,A*24
\c:1597506499762*67\$IIVWT,153,L,5.1,N,2.6,M,9.4,K*45
\c:1597506499762*67\$IIMWD,,T,84,M,5.1,N,2.6,M*48
\c:1597506499762*67\$IIMWD,,T,85,M,5.1,N,2.6,M*49
\c:1597506499762*67\$GPTXT,01,01,00,txbuf alloc*7F
\c:1597506499886*62\$GPRMC,154923.00,A,4729.97701,N,00222.58448,W,0.035,,150820,,,A*65
\c:1597506499904*69\$ECRMB,A,0.000,R,001,002,4730.086,N,00233.745,W,7.541,270.829,0.001,V,A*7F
\c:1597506499905*68\$ECRMC,154819,A,4729.977,N,00222.584,W,0.035,0.000,150820,0.238,W,A*01
\c:1597506499906*6B\$IIZDA,154923,15,08,2020,,*5B
\c:1597506499907*6A\$ECAPB,A,A,0.000,R,N,V,V,270.825,T,002,270.829,T,270.829,T*25
\c:1597506499907*6A\$ECXTE,A,A,0.000,R,N*51
\c:1597506499922*6D\$IIMWV,207,R,5.2,N,A*21
\c:1597506499938*66\$IIVWR,153,L,5.2,N,2.7,M,9.6,K*43
\c:1597506499939*67\$IIHDG,237,,,,*51
\c:1597506499939*67\$IIHDM,237,M*3A
\c:1597506499959*61\$GPVTG,,T,,M,0.035,N,0.065,K,A*26
\c:1597506500111*64\$GPGGA,154923.00,4729.97701,N,00222.58448,W,1,10,0.89,1.6,M,48.7,M,,*4D
\c:1597506500240*63\$GPGSA,A,3,03,04,17,19,22,31,09,01,06,02,,,1.64,0.89,1.38*0D
\c:1597506500265*64\$GPGSA,A,3,03,04,17,19,22,31,09,01,06,02,,,1.64,0.89,1.38*0D
\c:1597506500386*68\$GPGSV,3,1,11,01,18,136,40,02,08,312,31,03,48,074,46,04,74,118,44*7A
\c:1597506500416*66\$GPGSV,3,1,11,01,18,136,40,02,08,312,31,03,48,074,46,04,74,118,44*7A
\c:1597506500416*66\$IIVHW,,T,238,M,0.00,N,0.00,K*6C
\c:1597506500416*66\$IIHDG,238,,,,*5E
\c:1597506500416*66\$IIHDM,238,M*35
\c:1597506500528*6A\$GPGSV,3,2,11,06,45,306,44,09,50,203,51,12,01,323,,17,39,236,45*79
\c:1597506500552*67\$GPGSV,3,2,11,06,45,306,44,09,50,203,51,12,01,323,,17,39,236,45*79
\c:1597506500646*61\$GPGSV,3,3,11,19,44,262,47,22,28,085,45,31,11,035,34*41
\c:1597506500664*61\$GPGSV,3,3,11,19,44,262,47,22,28,085,45,31,11,035,34*41
\c:1597506500755*62\$GPGLL,4729.97701,N,00222.58448,W,154923.00,A,A*74
\c:1597506500824*6B\$IIMWV,207,R,5.3,N,A*20
\c:1597506500841*68\$IIVWR,153,L,5.3,N,2.7,M,9.8,K*4C
\c:1597506500896*62\$GPRMC,154924.00,A,4729.97700,N,00222.58443,W,0.023,,150820,,,A*6F
\c:1597506500904*68\$IIZDA,154924,15,08,2020,,*5C
