\c:1597506132093*6A\$IIMWV,213,R,2.1,N,A*20
\c:1597506132109*68\$IIVWR,147,L,2.1,N,1.1,M,3.9,K*42
\c:1597506132149*6C\$GPGSV,3,1,11,01,21,134,39,02,06,312,,03,50,071,48,04,73,129,46*75
\c:1597506132261*65\$IIDPT,3.1,,*40
\c:1597506132261*65\$IIDBT,10.2,f,3.1,M,,*48
\c:1597506132265*61\$GPGSV,3,2,11,06,42,306,44,09,47,203,49,12,02,325,,17,41,239,46*77
\c:1597506132290*6B\$GPGSV,3,2,11,06,42,306,44,09,47,203,49,12,02,325,,17,41,239,46*77
\c:1597506132322*63\$IIRSA,-37.3,A,,V*63
\c:1597506132382*69\$GPGSV,3,3,11,19,44,265,46,22,30,083,43,31,12,037,39*4
\c:1597506132403*67\$GPGSV,3,3,11,19,44,265,46,22,30,083,43,31,12,037,39*42
\c:1597506132492*6F\$GPGLL,4729.97679,N,00222.58412,W,154317.00,A,A*78
\c:1597506132633*66\$GPRMC,154318.00,A,4729.97678,N,00222.58411,W,0.010,,150820,,,A*63
\c:1597506132658*6B\$IIZDA,154318,15,08,2020,,*59
\c:1597506132673*62\$IIRSA,-37.0,A,,V*60
\c:1597506132707*60\$GPVTG,,T,,M,0.010,N,0.019,K,A*2A
\c:1597506132721*64\$IIVTG,,T,,M,0.0,N,0.0,K,A*34
\c:1597506132858*65\$GPGGA,154318.00,4729.97678,N,00222.58411,W,1,10,0.99,3.6,M,48.7,M,,*4F
\c:1597506132987*66\$GPGSA,A,3,03,04,17,19,22,31,09,01,06,02,,,2.03,0.99,1.78*0A
\c:1597506133010*60\$GPGSA,A,3,03,04,17,19,22,31,09,01,06,02,,,2.03,0.99,1.78*0A
\c:1597506133106*66\$IIRSA,-37.3,A,,V*63
\c:1597506133133*60\$GPGSV,3,1,11,01,21,134,38,02,06,312,32,03,50,071,47,04,73,129,46*7A
\c:1597506133153*66\$GPGSV,3,1,11,01,21,134,38,02,06,312,32,03,50,071,47,04,73,129,46*7A
\c:1597506133218*6A\$IIRSA,-37.0,A,,V*60
\c:1597506133274*60\$GPGSV,3,2,11,06,42,306,45,09,47,203,49,12,02,325,,17,41,239,46*76
\c:1597506133311*62\$GPGSV,3,2,11,06,42,306,45,09,47,203,49,12,02,325,,17,41,239,46*76
\c:1597506133311*62\$IIMWV,213,T,2.1,N,A*26
\c:1597506133311*62\$IIVWT,147,L,2.1,N,1.1,M,3.9,K*44
\c:1597506133311*62\$IIMWD,,T,91,M,2.1,N,1.1,M*4F
\c:1597506133394*6F\$GPGSV,3,3,11,19,44,265,46,22,30,083,43,31,12,037,39*42
\c:1597506133407*62\$GPGSV,3,3,11,19,44,265,46,22,30,083,43,31,12,037,39*42
\c:1597506133499*65\$IIVLW,37.00,N,0.00,N*79
\c:1597506133499*65\$IIMWV,214,R,2.1,N,A*27
\c:1597506133499*65\$IIVWR,146,L,2.1,N,1.1,M,3.9,K*43
\c:1597506133502*66\$GPGLL,4729.97678,N,00222.58411,W,154318.00,A,A*75
\c:1597506133644*67\$GPRMC,154319.00,A,4729.97676,N,00222.58412,W,0.031,,150820,,,A*6C
\c:1597506133659*6B\$IIZDA,154319,15,08,2020,,*58
\c:1597506133716*61\$GPVTG,,T,,M,0.031,N,0.058,K,A*2C
\c:1597506133738*6D\$IIVTG,,T,,M,0.0,N,0.1,K,A*35
\c:1597506133771*60\$IIMWV,214,T,2.1,N,A*21
\c:1597506133795*6A\$IIVWT,146,L,2.1,N,1.1,M,3.9,K*45
\c:1597506133795*6A\$IIMWD,,T,92,M,2.1,N,1.1,M*4C
\c:1597506133869*66\$GPGGA,154319.00,4729.97676,N,00222.58412,W,1,10,0.99,3.6,M,48.7,M,,*43
\c:1597506133998*69\$GPGSA,A,3,03,04,17,19,22,31,09,01,06,02,,,2.03,0.99,1.78*0A
\c:1597506134018*6F\$GPGSA,A,3,03,04,17,19,22,31,09,01,06,02,,,2.03,0.99,1.78*0A
\c:1597506134143*60\$GPGSV,3,1,11,01,21,134,39,02,06,312,31,03,50,071,48,04,73,129,46*77
\c:1597506134170*60\$GPGSV,3,1,11,01,21,134,39,02,06,312,31,03,50,071,48,04,73,129,46*77
\c:1597506134185*6A\$IIRSA,-37.3,A,,V*63
\c:1597506134250*61\$IIXDR,C,30.3,C,AirTemp*26
\c:1597506134279*6A\$IIVHW,,T,238,M,0.00,N,0.00,K*6C
\c:1597506134279*6A\$IIHDG,238,,,,*5E
\c:1597506134279*6A\$IIHDM,238,M*35
\c:1597506134285*69\$GPGSV,3,2,11,06,42,306,45,09,47,203,49,12,02,325,,17,41,239,45*75
\c:1597506134309*6C\$GPGSV,3,2,11,06,42,306,45,09,47,203,49,12,02,325,,17,41,239,45*75
\c:1597506134403*61\$GPGSV,3,3,11,19,44,265,46,22,30,083,44,31,12,037,40*4B
\c:1597506134421*61\$GPGSV,3,3,11,19,44,265,46,22,30,083,44,31,12,037,40*4B
\c:1597506134502*61\$IIRSA,-37.0,A,,V*60
\c:1597506134512*60\$GPGLL,4729.97676,N,00222.58412,W,154319.00,A,A*79
\c:1597506134614*65\$IIRSA,-37.3,A,,V*63
\c:1597506134653*66\$GPRMC,154320.00,A,4729.97674,N,00222.58411,W,0.026,,150820,,,A*61
\c:1597506134677*60\$IIZDA,154320,15,08,2020,,*52
\c:1597506134727*64\$GPVTG,,T,,M,0.026,N,0.049,K,A*2A
\c:1597506134741*64\$IIRSA,-37.0,A,,V*60
\c:1597506134741*64\$IIVTG,,T,,M,0.0,N,0.1,K,A*35
\c:1597506134868*60\$IIMWV,214,R,2.2,N,A*24
\c:1597506134869*61\$IIVWR,146,L,2.2,N,1.1,M,4.1,K*4F
\c:1597506134878*61\$GPGGA,154320.00,4729.97674,N,00222.58411,W,1,10,0.99,3.5,M,48.7,M,,*4B
\c:1597506134908*67\$IIGLL,4729.9767,N,00222.5841,W,154320,A,A*4E
\c:1597506134908*67\$IIRMC,154320,A,4729.9767,N,00222.5841,W,,150820,,,A*5B
\c:1597506135007*60\$GPGSA,A,3,03,04,17,19,22,31,09,01,06,02,,,2.03,0.99,1.78*0A
\c:1597506135032*66\$GPGSA,A,3,03,04,17,19,22,31,09,01,06,02,,,2.03,0.99,1.78*0A
\c:1597506135153*60\$GPGSV,3,1,11,01,21,134,38,02,06,312,31,03,50,071,48,04,73,129,46*76
\c:1597506135177*66\$IIRSA,-37.3,A,,V*63
\c:1597506135177*66\$GPGSV,3,1,11,01,21,134,38,02,06,312,31,03,50,071,48,04,73,129,46*76
\c:1597506135294*68\$GPGSV,3,2,11,06,42,306,45,09,47,203,49,12,02,325,,17,41,239,45*75
\c:1597506135320*66\$GPGSV,3,2,11,06,42,306,45,09,47,203,49,12,02,325,,17,41,239,45*75
\c:1597506135413*61\$GPGSV,3,3,11,19,44,265,46,22,30,083,42,31,12,037,38*42
\c:1597506135432*62\$GPGSV,3,3,11,19,44,265,46,22,30,083,42,31,12,037,38*42
\c:1597506135511*62\$IIRSA,-37.0,A,,V*60
\c:1597506135522*62\$GPGLL,4729.97674,N,00222.58411,W,154320.00,A,A*72
\c:1597506135592*69\$IIRSA,-37.3,A,,V*63
\c:1597506135663*64\$GPRMC,154321.00,A,4729.97673,N,00222.58411,W,0.043,,150820,,,A*64
\c:1597506135687*6E\$IIZDA,154321,15,08,2020,,*53
\c:1597506135704*64\$IIRSA,-37.0,A,,V*60
\c:1597506135736*65\$GPVTG,,T,,M,0.043,N,0.079,K,A*2A
\c:1597506135751*64\$IIVTG,,T,,M,0.0,N,0.1,K,A*35
\c:1597506135888*6F\$GPGGA,154321.00,4729.97673,N,00222.58411,W,1,10,0.91,3.4,M,48.7,M,,*44
\c:1597506136018*6D\$GPGSA,A,3,03,04,17,19,22,31,09,01,06,02,,,1.68,0.91,1.41*06
\c:1597506136049*69\$GPGSA,A,3,03,04,17,19,22,31,09,01,06,02,,,1.68,0.91,1.41*06
\c:1597506136049*69\$IIMWV,214,T,2.2,N,A*22
\c:1597506136050*61\$IIVWT,146,L,2.2,N,1.1,M,4.1,K*49
\c:1597506136050*61\$IIMWD,,T,92,M,2.2,N,1.1,M*4F
\c:1597506136129*6E\$IIRSA,-37.3,A,,V*63
\c:1597506136163*60\$GPGSV,3,1,11,01,21,134,38,02,06,312,31,03,50,071,47,04,73,129,46*79
\c:1597506136189*64\$GPGSV,3,1,11,01,21,134,38,02,06,312,31,03,50,071,47,04,73,129,46*79
\c:1597506136253*60\$IIRSA,-37.0,A,,V*60
\c:1597506136305*62\$GPGSV,3,2,11,06,42,306,44,09,47,203,49,12,02,325,,17,41,239,45*74
\c:1597506136330*64\$GPGSV,3,2,11,06,42,306,44,09,47,203,49,12,02,325,,17,41,239,45*74
\c:1597506136423*61\$GPGSV,3,3,11,19,44,265,46,22,30,083,43,31,12,037,38*43
\c:1597506136441*65\$GPGSV,3,3,11,19,44,265,46,22,30,083,43,31,12,037,38*43
\c:1597506136531*63\$GPGLL,4729.97673,N,00222.58411,W,154321.00,A,A*74
\c:1597506136673*66\$GPRMC,154322.00,A,4729.97672,N,00222.58409,W,0.018,,150820,,,A*61
\c:1597506136682*68\$IIZDA,154322,15,08,2020,,*50
\c:1597506136747*60\$GPVTG,,T,,M,0.018,N,0.032,K,A*2B
\c:1597506136774*60\$IIVTG,,T,,M,0.0,N,0.0,K,A*34
\c:1597506136774*60\$IIHDG,238,,,,*5E
\c:1597506136774*60\$IIHDM,238,M*35
\c:1597506136898*6D\$GPGGA,154322.00,4729.97672,N,00222.58409,W,1,10,0.91,3.4,M,48.7,M,,*4F
\c:1597506137028*6F\$GPGSA,A,3,03,04,17,19,22,31,09,01,06,02,,,1.68,0.91,1.41*06
\c:1597506137045*64\$GPGSA,A,3,03,04,17,19,22,31,09,01,06,02,,,1.68,0.91,1.41*06
\c:1597506137061*62\$IIXDR,C,30.4,C,AirTemp*21
\c:1597506137173*60\$IIMWV,215,R,2.2,N,A*25
\c:1597506137173*60\$IIVWR,145,L,2.2,N,1.1,M,4.1,K*4C
\c:1597506137174*67\$GPGSV,3,1,11,01,21,134,37,02,06,312,34,03,50,071,47,04,73,129,45*70
\c:1597506137199*64\$GPGSV,3,1,11,01,21,134,37,02,06,312,34,03,50,071,47,04,73,129,45*70
\c:1597506137315*62\$GPGSV,3,2,11,06,42,306,46,09,47,203,49,12,02,325,,17,41,239,45*76
\c:1597506137340*62\$GPGSV,3,2,11,06,42,306,46,09,47,203,49,12,02,325,,17,41,239,45*76
\c:1597506137433*61\$GPGSV,3,3,11,19,44,265,46,22,30,083,42,31,12,037,37*4D
\c:1597506137464*63\$GPGSV,3,3,11,19,44,265,46,22,30,083,42,31,12,037,37*4D
\c:1597506137464*63\$IIRSA,-37.3,A,,V*63
\c:1597506137542*66\$GPGLL,4729.97672,N,00222.58409,W,154322.00,A,A*7F
\c:1597506137577*60\$IIRSA,-37.0,A,,V*60
\c:1597506137608*6B\$IIMWV,216,R,2.2,N,A*26
\c:1597506137608*6B\$IIVWR,144,L,2.2,N,1.1,M,4.1,K*4D
\c:1597506137667*62\$IIVHW,,T,237,M,0.00,N,0.00,K*63
\c:1597506137667*62\$IIHDG,237,,,,*51
\c:1597506137667*62\$IIHDM,237,M*3A
\c:1597506137683*68\$GPRMC,154323.00,A,4729.97672,N,00222.58408,W,0.024,,150820,,,A*6E
\c:1597506137700*62\$IIZDA,154323,15,08,2020,,*51
\c:1597506137748*6E\$IIMTW,27.4,C*12
\c:1597506137756*61\$GPVTG,,T,,M,0.024,N,0.045,K,A*24
\c:1597506137779*6C\$IIVTG,,T,,M,0.0,N,0.0,K,A*34
\c:1597506137779*6C\$IIRSA,-37.3,A,,V*63
\c:1597506137875*6F\$IIRSA,-37.0,A,,V*60
\c:1597506137892*66\$IIMWV,216,T,2.2,N,A*20
\c:1597506137908*64\$GPGGA,154323.00,4729.97672,N,00222.58408,W,1,10,0.91,3.3,M,48.7,M,,*48
\c:1597506137908*64\$IIVWT,144,L,2.2,N,1.1,M,4.1,K*4B
\c:1597506137908*64\$IIMWD,,T,93,M,2.2,N,1.1,M*4E
\c:1597506137939*66\$IIDPT,4.5,,*43
\c:1597506137940*68\$IIDBT,14.8,f,4.5,M,,*45
\c:1597506138037*6E\$GPGSA,A,3,03,04,17,19,22,31,09,01,06,02,,,1.68,0.91,1.41*06
\c:1597506138062*6E\$GPGSA,A,3,03,04,17,19,22,31,09,01,06,02,,,1.68,0.91,1.41*06
\c:1597506138126*6F\$IIRSA,-37.3,A,,V*63
\c:1597506138183*60\$GPGSV,3,1,11,01,21,134,36,02,06,312,32,03,50,071,48,04,73,129,46*7B
\c:1597506138207*6F\$GPGSV,3,1,11,01,21,134,36,02,06,312,32,03,50,071,48,04,73,129,46*7B
\c:1597506138317*6F\$IIRSA,-37.0,A,,V*60
\c:1597506138324*6F\$GPGSV,3,2,11,06,42,306,45,09,47,203,49,12,02,325,,17,41,239,46*76
\c:1597506138349*64\$GPGSV,3,2,11,06,42,306,45,09,47,203,49,12,02,325,,17,41,239,46*76
\c:1597506138442*68\$GPGSV,3,3,11,19,44,265,46,22,30,083,45,31,12,037,38*45
\c:1597506138461*69\$GPGSV,3,3,11,19,44,265,46,22,30,083,45,31,12,037,38*45
\c:1597506138551*6B\$GPGLL,4729.97672,N,00222.58408,W,154323.00,A,A*7F
\c:1597506138692*67\$GPRMC,154324.00,A,4729.97671,N,00222.58406,W,0.015,,150820,,,A*66
\c:1597506138717*6B\$IIZDA,154324,15,08,2020,,*56
\c:1597506138765*6E\$GPVTG,,T,,M,0.015,N,0.027,K,A*22
\c:1597506138780*65\$IIVTG,,T,,M,0.0,N,0.0,K,A*34
\c:1597506138860*64\$IIRSA,-37.3,A,,V*63
\c:1597506138908*6B\$IIDPT,4.7,,*41
\c:1597506138908*6B\$IIDBT,15.4,f,4.7,M,,*4A
\c:1597506138917*65\$GPGGA,154324.00,4729.97671,N,00222.58406,W,1,10,0.91,3.3,M,48.7,M,,*42
\c:1597506138988*63\$IIMWV,216,R,2.3,N,A*27
\c:1597506138988*63\$IIVWR,144,L,2.3,N,1.2,M,4.3,K*4D
\c:1597506139047*68\$GPGSA,A,3,03,04,17,19,22,31,09,01,06,02,,,1.68,0.91,1.41*06
\c:1597506139068*65\$GPGSA,A,3,03,04,17,19,22,31,09,01,06,02,,,1.68,0.91,1.41*06
\c:1597506139100*6A\$IIRSA,-37.0,A,,V*60
\c:1597506139192*61\$GPGSV,3,1,11,01,21,134,37,02,06,312,32,03,50,071,48,04,73,129,45*79
\c:1597506139220*6B\$GPGSV,3,1,11,01,21,134,37,02,06,312,32,03,50,071,48,04,73,129,45*79
\c:1597506139220*6B\$IIRSA,-37.3,A,,V*63
\c:1597506139315*6C\$IIRSA,-37.0,A,,V*60
\c:1597506139335*6E\$GPGSV,3,2,11,06,42,306,46,09,47,203,49,12,02,325,,17,41,239,46*75
\c:1597506139359*64\$GPGSV,3,2,11,06,42,306,46,09,47,203,49,12,02,325,,17,41,239,46*75
\c:1597506139453*69\$GPGSV,3,3,11,19,44,265,46,22,30,083,43,31,12,037,40*4C
\c:1597506139470*68\$GPGSV,3,3,11,19,44,265,46,22,30,083,43,31,12,037,40*4C
\c:1597506139561*69\$GPGLL,4729.97671,N,00222.58406,W,154324.00,A,A*75
\c:1597506139703*6F\$GPRMC,154325.00,A,4729.97670,N,00222.58405,W,0.010,,150820,,,A*60
\c:1597506139711*6C\$IIZDA,154325,15,08,2020,,*57
\c:1597506139742*6A\$IIRSA,-37.3,A,,V*63
\c:1597506139776*6D\$GPVTG,,T,,M,0.010,N,0.018,K,A*2B
\c:1597506139790*65\$IIVTG,,T,,M,0.0,N,0.0,K,A*34
\c:1597506139871*65\$IIRSA,-37.0,A,,V*60
\c:1597506139928*68\$GPGGA,154325.00,4729.97670,N,00222.58405,W,1,10,0.91,3.4,M,48.7,M,,*46
\c:1597506140014*60\$IIHDG,237,,,,*51
\c:1597506140015*61\$IIHDM,237,M*3A
\c:1597506140057*67\$GPGSA,A,3,03,04,17,19,22,31,09,01,06,02,,,1.68,0.91,1.41*06
\c:1597506140079*6B\$GPGSA,A,3,03,04,17,19,22,31,09,01,06,02,,,1.68,0.91,1.41*06
\c:1597506140118*6D\$PNKEV,Box WiFi nke 3,V2.1,Aug 23 2017,17:04:14,00.1E.C0.39.41.44,V1.0*04
\c:1597506140181*6D\$IIRSA,-37.3,A,,V*63
\c:1597506140203*64\$GPGSV,3,1,11,01,21,134,36,02,06,312,31,03,50,071,48,04,73,129,45*7B
\c:1597506140205*62\$IIMWV,216,T,2.3,N,A*21
\c:1597506140205*62\$IIVWT,144,L,2.3,N,1.2,M,4.3,K*4B
\c:1597506140205*62\$IIMWD,,T,93,M,2.3,N,1.2,M*4C
\c:1597506140229*6C\$GPGSV,3,1,11,01,21,134,36,02,06,312,31,03,50,071,48,04,73,129,45*7B
\c:1597506140292*6C\$IIRSA,-37.0,A,,V*60
\c:1597506140344*66\$GPGSV,3,2,11,06,42,306,44,09,47,203,49,12,02,325,,17,41,239,46*77
\c:1597506140369*69\$GPGSV,3,2,11,06,42,306,44,09,47,203,49,12,02,325,,17,41,239,46*77
\c:1597506140417*67\$IIRSA,-37.3,A,,V*63
\c:1597506140462*65\$GPGSV,3,3,11,19,44,265,46,22,30,083,43,31,12,037,40*4C
\c:1597506140481*68\$GPGSV,3,3,11,19,44,265,46,22,30,083,43,31,12,037,40*4C
\c:1597506140571*66\$GPGLL,4729.97670,N,00222.58405,W,154325.00,A,A*76
\c:1597506140609*6A\$IIRSA,-37.0,A,,V*60
\c:1597506140712*61\$GPRMC,154326.00,A,4729.97668,N,00222.58404,W,0.018,,150820,,,A*63
\c:1597506140737*66\$IIZDA,154326,15,08,2020,,*54
\c:1597506140737*66\$IIVLW,37.00,N,0.00,N*79
\c:1597506140785*6F\$GPVTG,,T,,M,0.018,N,0.033,K,A*2A
\c:1597506140801*6C\$IIVTG,,T,,M,0.0,N,0.0,K,A*34
\c:1597506140937*68\$GPGGA,154326.00,4729.97668,N,00222.58404,W,1,10,0.91,3.4,M,48.7,M,,*4D
\c:1597506140967*6D\$IIGLL,4729.9767,N,00222.5840,W,154326,A,A*49
\c:1597506140967*6D\$IIRMC,154326,A,4729.9767,N,00222.5840,W,,150820,,,A*5C
\c:1597506141066*64\$GPGSA,A,3,03,04,17,19,22,31,09,01,06,02,,,1.68,0.91,1.41*06
\c:1597506141091*6C\$GPGSA,A,3,03,04,17,19,22,31,09,01,06,02,,,1.68,0.91,1.41*06
\c:1597506141107*62\$IIXDR,U,12.035,V,BatWiFi*10
\c:1597506141155*65\$IIRSA,-37.3,A,,V*63
\c:1597506141212*65\$GPGSV,3,1,11,01,21,134,37,02,06,312,31,03,50,071,48,04,73,129,45*7A
\c:1597506141236*63\$GPGSV,3,1,11,01,21,134,37,02,06,312,31,03,50,071,48,04,73,129,45*7A
\c:1597506141299*66\$IIMWV,216,R,2.4,N,A*20
\c:1597506141299*66\$IIVWR,144,L,2.4,N,1.2,M,4.4,K*4D
\c:1597506141299*66\$IIMWV,217,R,2.4,N,A*21
\c:1597506141299*66\$IIVWR,143,L,2.4,N,1.2,M,4.4,K*4A
\c:1597506141353*61\$GPGSV,3,2,11,06,42,306,45,09,47,203,49,12,02,325,,17,41,239,46*76
\c:1597506141379*69\$GPGSV,3,2,11,06,42,306,45,09,47,203,49,12,02,325,,17,41,239,46*76
\c:1597506141473*64\$GPGSV,3,3,11,19,44,265,47,22,30,083,43,31,12,037,40*4D
\c:1597506141491*68\$GPGSV,3,3,11,19,44,265,47,22,30,083,43,31,12,037,40*4D
\c:1597506141581*68\$GPGLL,4729.97668,N,00222.58404,W,154326.00,A,A*7D
\c:1597506141722*63\$GPRMC,154327.00,A,4729.97668,N,00222.58404,W,0.005,,150820,,,A*6E
\c:1597506141747*60\$IIZDA,154327,15,08,2020,,*55
\c:1597506141795*6F\$GPVTG,,T,,M,0.005,N,0.009,K,A*2F
\c:1597506141811*6C\$IIVTG,,T,,M,0.0,N,0.0,K,A*34
\c:1597506141811*6C\$IIRSA,-37.0,A,,V*60
\c:1597506141948*61\$GPGGA,154327.00,4729.97668,N,00222.58404,W,1,10,0.91,3.5,M,48.7,M,,*4D
\c:1597506142036*62\$IIMWV,216,T,2.4,N,A*26
\c:1597506142036*62\$IIVWT,144,L,2.4,N,1.2,M,4.4,K*4B
\c:1597506142036*62\$IIMWD,,T,93,M,2.4,N,1.2,M*4B
\c:1597506142036*62\$IIMWV,217,T,2.4,N,A*27
\c:1597506142036*62\$IIVWT,143,L,2.4,N,1.2,M,4.4,K*4C
\c:1597506142067*66\$IIMWD,,T,94,M,2.4,N,1.2,M*4C
\c:1597506142077*67\$GPGSA,A,3,03,04,17,19,22,31,09,01,06,02,,,1.68,0.91,1.41*06
\c:1597506142100*66\$GPGSA,A,3,03,04,17,19,22,31,09,01,06,02,,,1.68,0.91,1.41*06
\c:1597506142196*69\$IIMWV,217,R,2.5,N,A*20
\c:1597506142220*67\$IIVWR,143,L,2.5,N,1.3,M,4.6,K*48
\c:1597506142220*67\$IIMWV,216,R,2.5,N,A*21
\c:1597506142220*67\$IIVWR,144,L,2.5,N,1.3,M,4.6,K*4F
\c:1597506142222*65\$GPGSV,3,1,11,01,21,134,38,02,06,312,30,03,50,071,47,04,73,129,46*78
\c:1597506142247*66\$GPGSV,3,1,11,01,21,134,38,02,06,312,30,03,50,071,47,04,73,129,46*78
\c:1597506142248*69\$IIRSA,-37.3,A,,V*63
\c:1597506142360*62\$IIRSA,-37.0,A,,V*60
\c:1597506142364*66\$GPGSV,3,2,11,06,42,306,44,09,47,203,49,12,02,325,,17,41,239,46*77
\c:1597506142389*65\$GPGSV,3,2,11,06,42,306,44,09,47,203,49,12,02,325,,17,41,239,46*77
\c:1597506142469*6C\$IIRSA,-37.3,A,,V*63
\c:1597506142482*69\$GPGSV,3,3,11,19,44,265,47,22,30,083,43,31,12,037,42*4F
\c:1597506142501*63\$GPGSV,3,3,11,19,44,265,47,22,30,083,43,31,12,037,42*4F
\c:1597506142527*67\$IIVHW,,T,237,M,0.00,N,0.00,K*63
\c:1597506142527*67\$IIHDG,237,,,,*51
\c:1597506142527*67\$IIHDM,237,M*3A
\c:1597506142590*6B\$GPGLL,4729.97668,N,00222.58404,W,154327.00,A,A*7C
\c:1597506142607*66\$IIMTW,27.4,C*12
\c:1597506142671*67\$IIRSA,-37.0,A,,V*60
\c:1597506142732*61\$GPRMC,154328.00,A,4729.97667,N,00222.58404,W,0.010,,150820,,,A*6A
\c:1597506142750*65\$IIZDA,154328,15,08,2020,,*5A
\c:1597506142805*6A\$GPVTG,,T,,M,0.010,N,0.018,K,A*2B
\c:1597506142814*6A\$IIVTG,,T,,M,0.0,N,0.0,K,A*34
\c:1597506142957*6C\$GPGGA,154328.00,4729.97667,N,00222.58404,W,1,10,0.91,3.7,M,48.7,M,,*4F
\c:1597506143022*66\$IIRSA,-37.3,A,,V*63
\c:1597506143086*68\$GPGSA,A,3,03,04,17,19,22,31,09,01,06,02,,,1.68,0.91,1.41*06
\c:1597506143111*67\$GPGSA,A,3,03,04,17,19,22,31,09,01,06,02,,,1.68,0.91,1.41*06
\c:1597506143142*61\$IIRSA,-37.0,A,,V*60
\c:1597506143206*62\$IIRSA,-37.3,A,,V*63
\c:1597506143232*65\$GPGSV,3,1,11,01,21,134,38,02,06,312,28,03,50,071,49,04,73,129,45*7C
\c:1597506143254*65\$GPGSV,3,1,11,01,21,134,38,02,06,312,28,03,50,071,49,04,73,129,45*7C
\c:1597506143373*61\$GPGSV,3,2,11,06,42,306,45,09,47,203,50,12,02,325,,17,41,239,46*7E
\c:1597506143398*64\$GPGSV,3,2,11,06,42,306,45,09,47,203,50,12,02,325,,17,41,239,46*7E
\c:1597506143398*64\$IIMWV,217,T,2.5,N,A*26
\c:1597506143427*67\$IIVWT,143,L,2.5,N,1.3,M,4.6,K*4E
\c:1597506143427*67\$IIMWD,,T,94,M,2.5,N,1.3,M*4C
\c:1597506143427*67\$IIMWV,216,T,2.5,N,A*27
\c:1597506143427*67\$IIVWT,144,L,2.5,N,1.3,M,4.6,K*49
\c:1597506143427*67\$IIMWD,,T,93,M,2.5,N,1.3,M*4B
\c:1597506143443*65\$IIRSA,-37.0,A,,V*60
\c:1597506143492*69\$GPGSV,3,3,11,19,44,265,47,22,30,083,42,31,12,037,41*4D
\c:1597506143508*6B\$GPGSV,3,3,11,19,44,265,47,22,30,083,42,31,12,037,41*4D
\c:1597506143572*66\$IIRSA,-37.3,A,,V*63
\c:1597506143601*61\$GPGLL,4729.97667,N,00222.58404,W,154328.00,A,A*7C
\c:1597506143602*62\$IIMWV,216,R,2.6,N,A*22
\c:1597506143602*62\$IIVWR,144,L,2.6,N,1.3,M,4.8,K*42
\c:1597506143602*62\$IIMWV,215,R,2.6,N,A*21
\c:1597506143602*62\$IIVWR,145,L,2.6,N,1.3,M,4.8,K*43
\c:1597506143742*67\$GPRMC,154329.00,A,4729.97669,N,00222.58406,W,0.029,,150820,,,A*6D
\c:1597506143762*65\$IIZDA,154329,15,08,2020,,*5B
\c:1597506143815*6A\$GPVTG,,T,,M,0.029,N,0.054,K,A*29
\c:1597506143826*6A\$IIVTG,,T,,M,0.0,N,0.1,K,A*35
\c:1597506143967*6E\$GPGGA,154329.00,4729.97669,N,00222.58406,W,1,10,0.91,3.8,M,48.7,M,,*4D
\c:1597506144002*63\$IIGLL,4729.9767,N,00222.5841,W,154329,A,A*47
\c:1597506144002*63\$IIRMC,154329,A,4729.9767,N,00222.5841,W,,150820,,,A*52
\c:1597506144002*63\$IIRSA,-37.0,A,,V*60
\c:1597506144082*6B\$IIMWV,215,R,2.7,N,A*20
\c:1597506144082*6B\$IIVWR,145,L,2.7,N,1.4,M,5.0,K*4C
\c:1597506144082*6B\$IIMWV,216,R,2.7,N,A*23
\c:1597506144083*6A\$IIVWR,144,L,2.7,N,1.4,M,5.0,K*4D
\c:1597506144096*6E\$GPGSA,A,3,03,04,17,19,22,31,09,01,06,02,,,1.68,0.91,1.41*06
\c:1597506144114*65\$GPGSA,A,3,03,04,17,19,22,31,09,01,06,02,,,1.68,0.91,1.41*06
\c:1597506144242*65\$GPGSV,3,1,11,01,20,134,38,02,06,312,29,03,50,071,48,04,73,129,46*7E
\c:1597506144268*6D\$GPGSV,3,1,11,01,20,134,38,02,06,312,29,03,50,071,48,04,73,129,46*7E
\c:1597506144338*69\$IIMWV,216,T,2.6,N,A*24
\c:1597506144338*69\$IIVWT,144,L,2.6,N,1.3,M,4.8,K*44
\c:1597506144338*69\$IIMWD,,T,93,M,2.6,N,1.3,M*48
\c:1597506144338*69\$IIMWV,215,T,2.6,N,A*27
\c:1597506144338*69\$IIVWT,145,L,2.6,N,1.3,M,4.8,K*45
\c:1597506144370*65\$IIMWD,,T,92,M,2.6,N,1.3,M*49
\c:1597506144383*69\$GPGSV,3,2,11,06,42,306,44,09,47,203,49,12,02,325,,17,41,239,46*77
\c:1597506144409*6C\$GPGSV,3,2,11,06,42,306,44,09,47,203,49,12,02,325,,17,41,239,46*77
\c:1597506144502*66\$GPGSV,3,3,11,19,44,265,47,22,30,083,44,31,12,037,40*4A
\c:1597506144505*61\$IIXDR,C,30.4,C,AirTemp*21
\c:1597506144521*67\$GPGSV,3,3,11,19,44,265,47,22,30,083,44,31,12,037,40*4A
\c:1597506144536*61\$IIRSA,-37.3,A,,V*63
\c:1597506144610*66\$GPGLL,4729.97669,N,00222.58406,W,154329.00,A,A*71
\c:1597506144665*64\$IIRSA,-37.0,A,,V*60
\c:1597506144752*61\$GPRMC,154330.00,A,4729.97670,N,00222.58408,W,0.017,,150820,,,A*6E
\c:1597506144760*60\$IIZDA,154330,15,08,2020,,*53
\c:1597506144815*6D\$IIMWV,215,T,2.7,N,A*26
\c:1597506144815*6D\$IIVWT,145,L,2.7,N,1.4,M,5.0,K*4A
\c:1597506144815*6D\$IIMWD,,T,92,M,2.7,N,1.4,M*4F
\c:1597506144815*6D\$IIMWV,216,T,2.7,N,A*25
\c:1597506144815*6D\$IIVWT,144,L,2.7,N,1.4,M,5.0,K*4B
\c:1597506144815*6D\$IIMWD,,T,93,M,2.7,N,1.4,M*4E
\c:1597506144824*6F\$GPVTG,,T,,M,0.017,N,0.031,K,A*27
\c:1597506144846*6B\$IIVTG,,T,,M,0.0,N,0.0,K,A*34
\c:1597506144846*6B\$IIRSA,-37.3,A,,V*63
\c:1597506144977*68\$GPGGA,154330.00,4729.97670,N,00222.58408,W,1,10,0.91,4.0,M,48.7,M,,*4C
\c:1597506144990*61\$IIMWV,216,R,2.8,N,A*2C
\c:1597506144990*61\$IIVWR,144,L,2.8,N,1.4,M,5.2,K*40
\c:1597506144990*61\$IIMWV,215,R,2.8,N,A*2F
\c:1597506144990*61\$IIVWR,145,L,2.8,N,1.4,M,5.2,K*41
\c:1597506145022*60\$IIVHW,,T,237,M,0.00,N,0.00,K*63
\c:1597506145023*61\$IIHDG,237,,,,*51
\c:1597506145023*61\$IIHDM,237,M*3A
\c:1597506145106*67\$GPGSA,A,3,03,04,17,19,22,31,09,01,06,02,,,1.68,0.91,1.41*06
\c:1597506145130*62\$GPGSA,A,3,03,04,17,19,22,31,09,01,06,02,,,1.68,0.91,1.41*06
\c:1597506145210*63\$IIRSA,-37.0,A,,V*60
\c:1597506145251*66\$GPGSV,3,1,11,01,20,134,38,02,06,312,27,03,50,071,48,04,73,129,46*70
\c:1597506145274*61\$GPGSV,3,1,11,01,20,134,38,02,06,312,27,03,50,071,48,04,73,129,46*70
\c:1597506145393*69\$GPGSV,3,2,11,06,42,306,44,09,47,203,50,12,02,325,,17,41,239,46*7F
\c:1597506145418*6D\$GPGSV,3,2,11,06,42,306,44,09,47,203,50,12,02,325,,17,41,239,46*7F
\c:1597506145512*66\$GPGSV,3,3,11,19,44,265,47,22,30,083,42,31,12,037,40*4C
\c:1597506145530*66\$GPGSV,3,3,11,19,44,265,47,22,30,083,42,31,12,037,40*4C
\c:1597506145619*6E\$GPGLL,4729.97670,N,00222.58408,W,154330.00,A,A*7F
\c:1597506145626*62\$IIRSA,-37.3,A,,V*63
\c:1597506145762*63\$GPRMC,154331.00,A,4729.97670,N,00222.58411,W,0.011,,150820,,,A*61
\c:1597506145786*69\$IIZDA,154331,15,08,2020,,*52
\c:1597506145835*6E\$GPVTG,,T,,M,0.011,N,0.020,K,A*21
\c:1597506145850*6D\$IIVTG,,T,,M,0.0,N,0.0,K,A*34
\c:1597506145865*6B\$IIRSA,-37.0,A,,V*60
\c:1597506145987*66\$GPGGA,154331.00,4729.97670,N,00222.58411,W,1,10,0.91,4.1,M,48.7,M,,*44
\c:1597506146057*61\$IIRSA,-37.3,A,,V*63
\c:1597506146116*65\$GPGSA,A,3,03,04,17,19,22,31,09,01,06,02,,,1.68,0.91,1.41*06
\c:1597506146137*66\$GPGSA,A,3,03,04,17,19,22,31,09,01,06,02,,,1.68,0.91,1.41*06
\c:1597506146169*6D\$IIRSA,-37.0,A,,V*60
\c:1597506146202*63\$IIMWV,216,T,2.8,N,A*2A
\c:1597506146202*63\$IIVWT,144,L,2.8,N,1.4,M,5.2,K*46
\c:1597506146202*63\$IIMWD,,T,93,M,2.8,N,1.4,M*41
\c:1597506146202*63\$IIMWV,215,T,2.8,N,A*29
\c:1597506146202*63\$IIVWT,145,L,2.8,N,1.4,M,5.2,K*47
\c:1597506146202*63\$IIMWD,,T,92,M,2.8,N,1.4,M*40
\c:1597506146218*68\$IIDPT,4.7,,*41
\c:1597506146235*67\$IIDBT,15.4,f,4.7,M,,*4A
\c:1597506146262*65\$GPGSV,3,1,11,01,20,134,38,02,06,312,27,03,50,072,48,04,73,129,45*70
\c:1597506146282*6B\$GPGSV,3,1,11,01,20,134,38,02,06,312,27,03,50,072,48,04,73,129,45*70
\c:1597506146362*64\$IIMWV,215,R,2.9,N,A*2E
\c:1597506146385*6D\$IIVWR,145,L,2.9,N,1.5,M,5.4,K*47
\c:1597506146385*6D\$IIMWV,214,R,2.9,N,A*2F
\c:1597506146385*6D\$IIVWR,146,L,2.9,N,1.5,M,5.4,K*44
\c:1597506146403*64\$GPGSV,3,2,11,06,42,306,44,09,47,203,50,12,02,325,,17,41,239,46*7F
\c:1597506146428*6D\$GPGSV,3,2,11,06,42,306,44,09,47,203,50,12,02,325,,17,41,239,46*7F
\c:1597506146492*6C\$IIRSA,-37.3,A,,V*63
\c:1597506146521*65\$GPGSV,3,3,11,19,44,265,46,22,30,083,42,31,12,037,40*4D
\c:1597506146540*62\$GPGSV,3,3,11,19,44,265,46,22,30,083,42,31,12,037,40*4D
\c:1597506146604*61\$IIRSA,-37.0,A,,V*60
\c:1597506146630*66\$GPGLL,4729.97670,N,00222.58411,W,154331.00,A,A*76
\c:1597506146771*62\$GPRMC,154332.00,A,4729.97671,N,00222.58414,W,0.026,,150820,,,A*62
\c:1597506146780*6C\$IIZDA,154332,15,08,2020,,*51
\c:1597506146844*6B\$GPVTG,,T,,M,0.026,N,0.048,K,A*2B
\c:1597506146845*6A\$IIRSA,-37.3,A,,V*63
\c:1597506146860*6D\$IIVTG,,T,,M,0.0,N,0.1,K,A*35
\c:1597506146996*65\$GPGGA,154332.00,4729.97671,N,00222.58414,W,1,10,0.91,4.1,M,48.7,M,,*43
\c:1597506147114*66\$IIMWV,215,T,2.9,N,A*28
\c:1597506147115*67\$IIVWT,145,L,2.9,N,1.5,M,5.4,K*41
\c:1597506147115*67\$IIMWD,,T,92,M,2.9,N,1.5,M*40
\c:1597506147115*67\$IIMWV,214,T,2.9,N,A*29
\c:1597506147115*67\$IIVWT,146,L,2.9,N,1.5,M,5.4,K*42
\c:1597506147115*67\$IIMWD,,T,91,M,2.9,N,1.5,M*43
\c:1597506147125*64\$GPGSA,A,3,03,04,17,19,22,31,09,01,06,02,,,1.68,0.91,1.41*06
\c:1597506147152*64\$GPGSA,A,3,03,04,17,19,22,31,09,01,06,02,,,1.68,0.91,1.41*06
\c:1597506147152*64\$IIRSA,-37.0,A,,V*60
\c:1597506147271*66\$GPGSV,3,1,11,01,20,134,38,02,06,312,26,03,50,072,48,04,74,128,46*74
\c:1597506147304*65\$IIMWV,214,R,3.0,N,A*27
\c:1597506147304*65\$IIVWR,146,L,3.0,N,1.5,M,5.6,K*4E
\c:1597506147304*65\$GPGSV,3,1,11,01,20,134,38,02,06,312,26,03,50,072,48,04,74,128,46*74
\c:1597506147304*65\$IIMWV,213,R,3.0,N,A*20
\c:1597506147304*65\$IIVWR,147,L,3.0,N,1.5,M,5.6,K*4F
\c:1597506147412*65\$GPGSV,3,2,11,06,42,306,43,09,47,203,49,12,02,325,,17,41,239,46*70
\c:1597506147432*67\$GPGSV,3,2,11,06,42,306,43,09,47,203,49,12,02,325,,17,41,239,46*70
\c:1597506147530*64\$IIVHW,,T,237,M,0.00,N,0.00,K*63
\c:1597506147530*64\$IIHDG,237,,,,*51
\c:1597506147530*64\$IIHDM,237,M*3A
\c:1597506147532*66\$GPGSV,3,3,11,19,44,265,47,22,30,083,42,31,12,037,40*4C
\c:1597506147543*60\$GPGSV,3,3,11,19,44,265,47,22,30,083,42,31,12,037,40*4C
\c:1597506147576*66\$IIRSA,-37.3,A,,V*63
\c:1597506147640*60\$GPGLL,4729.97671,N,00222.58414,W,154332.00,A,A*71
\c:1597506147720*67\$IIMWV,213,R,3.1,N,A*21
\c:1597506147720*67\$IIVWR,147,L,3.1,N,1.6,M,5.7,K*4C
\c:1597506147774*66\$IIMWV,212,R,3.1,N,A*20
\c:1597506147774*66\$IIVWR,148,L,3.1,N,1.6,M,5.7,K*43
\c:1597506147774*66\$IIHDG,238,,,,*5E
\c:1597506147774*66\$IIHDM,238,M*35
\c:1597506147782*6F\$GPRMC,154333.00,A,4729.97671,N,00222.58415,W,0.031,,150820,,,A*64
\c:1597506147790*6C\$IIZDA,154333,15,08,2020,,*50
\c:1597506147854*6B\$GPVTG,,T,,M,0.031,N,0.057,K,A*23
\c:1597506147870*6D\$IIVTG,,T,,M,0.0,N,0.1,K,A*35
\c:1597506147934*6C\$IIRSA,-37.0,A,,V*60
\c:1597506148006*6B\$GPGGA,154333.00,4729.97671,N,00222.58415,W,1,09,0.99,4.2,M,48.7,M,,*40
\c:1597506148041*68\$IIMWV,214,T,3.1,N,A*20
\c:1597506148041*68\$IIVWT,146,L,3.1,N,1.6,M,5.7,K*4B
\c:1597506148041*68\$IIMWD,,T,91,M,3.1,N,1.6,M*49
\c:1597506148041*68\$IIMWV,213,T,3.1,N,A*27
\c:1597506148041*68\$IIVWT,147,L,3.1,N,1.6,M,5.7,K*4A
\c:1597506148042*6B\$IIMWD,,T,90,M,3.1,N,1.6,M*48
\c:1597506148042*6B\$IIGLL,4729.9767,N,00222.5842,W,154333,A,A*4F
\c:1597506148042*6B\$IIRMC,154333,A,4729.9767,N,00222.5842,W,,150820,,,A*5A
\c:1597506148121*6F\$IIRSA,-37.3,A,,V*63
\c:1597506148132*6D\$GPGSA,A,3,03,04,17,19,22,31,09,01,06,,,,2.03,0.99,1.77*07
\c:1597506148153*6A\$GPGSA,A,3,03,04,17,19,22,31,09,01,06,,,,2.03,0.99,1.77*07
\c:1597506148233*6F\$IIVLW,37.00,N,0.00,N*79
\c:1597506148273*6B\$GPGSV,3,1,11,01,20,134,37,02,06,312,,03,50,072,48,04,74,128,45*7C
\c:1597506148297*61\$GPGSV,3,1,11,01,20,134,37,02,06,312,,03,50,072,48,04,74,128,45*7C
\c:1597506148360*68\$IIRSA,-37.0,A,,V*60
\c:1597506148415*6D\$GPGSV,3,2,11,06,42,306,44,09,47,203,50,12,02,325,,17,41,239,46*7F
\c:1597506148439*63\$GPGSV,3,2,11,06,42,306,44,09,47,203,50,12,02,325,,17,41,239,46*7F
\c:1597506148471*6F\$IIDPT,4.8,,*4E
\c:1597506148487*66\$IIDBT,15.7,f,4.8,M,,*46
\c:1597506148533*68\$GPGSV,3,3,11,19,44,265,47,22,30,083,41,31,12,037,40*4F
\c:1597506148552*6F\$GPGSV,3,3,11,19,44,265,47,22,30,083,41,31,12,037,40*4F
\c:1597506148641*6E\$GPGLL,4729.97671,N,00222.58415,W,154333.00,A,A*71
\c:1597506148664*69\$IIMWV,212,R,3.2,N,A*23
\c:1597506148679*65\$IIVWR,148,L,3.2,N,1.6,M,5.9,K*4E
\c:1597506148783*61\$GPRMC,154334.00,A,4729.97671,N,00222.58416,W,0.025,,150820,,,A*65
\c:1597506148791*62\$IIRSA,-37.3,A,,V*63
\c:1597506148791*62\$IIZDA,154334,15,08,2020,,*57
\c:1597506148856*66\$GPVTG,,T,,M,0.025,N,0.046,K,A*26
\c:1597506148871*63\$IIVTG,,T,,M,0.0,N,0.1,K,A*35
\c:1597506148888*65\$IIRSA,-37.0,A,,V*60
\c:1597506148936*61\$IIMWV,213,T,3.2,N,A*24
\c:1597506148936*61\$IIVWT,147,L,3.2,N,1.6,M,5.9,K*47
\c:1597506148936*61\$IIMWD,,T,90,M,3.2,N,1.6,M*4B
\c:1597506148936*61\$IIMWV,212,T,3.2,N,A*25
\c:1597506148936*61\$IIVWT,148,L,3.2,N,1.6,M,5.9,K*48
\c:1597506149008*64\$GPGGA,154334.00,4729.97671,N,00222.58416,W,1,09,0.99,4.2,M,48.7,M,,*44
\c:1597506149112*6E\$IIMWV,211,R,3.2,N,A*20
\c:1597506149112*6E\$IIVWR,149,L,3.2,N,1.6,M,5.9,K*4F
\c:1597506149129*66\$IIRSA,-37.3,A,,V*63
\c:1597506149133*6D\$GPGSA,A,3,03,04,17,19,22,31,09,01,06,,,,2.03,0.99,1.77*07
\c:1597506149144*6D\$GPGSA,A,3,03,04,17,19,22,31,09,01,06,,,,2.03,0.99,1.77*07
\c:1597506149274*6D\$GPGSV,3,1,11,01,20,134,37,02,06,312,,03,50,072,48,04,74,128,46*7F
\c:1597506149299*6E\$GPGSV,3,1,11,01,20,134,37,02,06,312,,03,50,072,48,04,74,128,46*7F
\c:1597506149416*6F\$GPGSV,3,2,11,06,43,306,43,09,47,203,50,12,02,325,,17,41,239,46*79
\c:1597506149441*6D\$GPGSV,3,2,11,06,43,306,43,09,47,203,50,12,02,325,,17,41,239,46*79
\c:1597506149441*6D\$IIRSA,-37.0,A,,V*60
\c:1597506149535*6F\$GPGSV,3,3,11,19,44,265,47,22,30,083,42,31,12,037,40*4C
\c:1597506149566*69\$GPGSV,3,3,11,19,44,265,47,22,30,083,42,31,12,037,40*4C
\c:1597506149566*69\$IIRSA,-37.3,A,,V*63
\c:1597506149642*6C\$GPGLL,4729.97671,N,00222.58416,W,154334.00,A,A*75
\c:1597506149757*69\$IIRSA,-37.0,A,,V*60
\c:1597506149785*66\$GPRMC,154335.00,A,4729.97669,N,00222.58415,W,0.038,,150820,,,A*62
\c:1597506149805*61\$IIZDA,154335,15,08,2020,,*56
\c:1597506149858*69\$GPVTG,,T,,M,0.038,N,0.071,K,A*2E
\c:1597506149889*65\$IIRSA,-37.3,A,,V*63
\c:1597506149889*65\$IIVTG,,T,,M,0.0,N,0.1,K,A*35
\c:1597506149889*65\$IIMWV,211,T,3.2,N,A*26
\c:1597506149889*65\$IIVWT,149,L,3.2,N,1.6,M,5.9,K*49
\c:1597506149889*65\$IIMWD,,T,89,M,3.2,N,1.6,M*43
\c:1597506150001*65\$IIMTW,27.4,C*12
\c:1597506150009*6D\$GPGGA,154335.00,4729.97669,N,00222.58415,W,1,09,0.99,4.2,M,48.7,M,,*4F
\c:1597506150024*62\$IIMWV,211,R,3.3,N,A*21
\c:1597506150024*62\$IIVWR,149,L,3.3,N,1.7,M,6.1,K*44
\c:1597506150024*62\$IIHDG,238,,,,*5E
\c:1597506150024*62\$IIHDM,238,M*35
\c:1597506150103*66\$IIRSA,-37.0,A,,V*60
\c:1597506150134*62\$GPGSA,A,3,03,04,17,19,22,31,09,01,06,,,,2.03,0.99,1.77*07
\c:1597506150152*62\$GPGSA,A,3,03,04,17,19,22,31,09,01,06,,,,2.03,0.99,1.77*07
\c:1597506150275*64\$GPGSV,3,1,11,01,20,134,38,02,06,312,,03,50,072,48,04,74,128,45*73
\c:1597506150296*69\$GPGSV,3,1,11,01,20,134,38,02,06,312,,03,50,072,48,04,74,128,45*73
\c:1597506150407*67\$IIRSA,-37.3,A,,V*63
\c:1597506150418*69\$GPGSV,3,2,11,06,43,306,44,09,47,203,50,12,02,325,,17,41,239,46*7E
\c:1597506150439*6A\$GPGSV,3,2,11,06,43,306,44,09,47,203,50,12,02,325,,17,41,239,46*7E
\c:1597506150535*67\$IIRSA,-37.0,A,,V*60
\c:1597506150536*64\$GPGSV,3,3,11,19,44,265,47,22,30,083,42,31,12,037,40*4C
\c:1597506150552*66\$GPGSV,3,3,11,19,44,265,47,22,30,083,42,31,12,037,40*4C
\c:1597506150644*62\$GPGLL,4729.97669,N,00222.58415,W,154335.00,A,A*7E
\c:1597506150647*61\$IIRSA,-37.3,A,,V*63
\c:1597506150786*6D\$GPRMC,154336.00,A,4729.97668,N,00222.58417,W,0.021,,150820,,,A*6A
\c:1597506150807*6B\$IIZDA,154336,15,08,2020,,*55
\c:1597506150859*60\$GPVTG,,T,,M,0.021,N,0.039,K,A*2A
\c:1597506150870*6B\$IIVTG,,T,,M,0.0,N,0.0,K,A*34
\c:1597506150977*6D\$IIMWV,211,R,3.4,N,A*26
\c:1597506150978*62\$IIVWR,149,L,3.4,N,1.7,M,6.3,K*41
\c:1597506150978*62\$IIMWV,210,R,3.4,N,A*27
\c:1597506150978*62\$IIVWR,150,L,3.4,N,1.7,M,6.3,K*49
\c:1597506151011*65\$GPGGA,154336.00,4729.97668,N,00222.58417,W,1,09,0.99,4.2,M,48.7,M,,*4F
\c:1597506151136*61\$GPGSA,A,3,03,04,17,19,22,31,09,01,06,,,,2.03,0.99,1.77*07
\c:1597506151154*65\$GPGSA,A,3,03,04,17,19,22,31,09,01,06,,,,2.03,0.99,1.77*07
\c:1597506151185*69\$IIRSA,-37.0,A,,V*60
\c:1597506151231*65\$IIMWV,211,T,3.3,N,A*27
\c:1597506151231*65\$IIVWT,149,L,3.3,N,1.7,M,6.1,K*42
\c:1597506151231*65\$IIMWD,,T,89,M,3.3,N,1.7,M*43
\c:1597506151282*6D\$GPGSV,3,1,11,01,20,134,37,02,06,312,28,03,50,072,48,04,74,128,46*75
\c:1597506151308*6E\$GPGSV,3,1,11,01,20,134,37,02,06,312,28,03,50,072,48,04,74,128,46*75
\c:1597506151403*62\$IIMWV,209,R,3.4,N,A*2F
\c:1597506151403*62\$IIVWR,151,L,3.4,N,1.7,M,6.3,K*48
\c:1597506151423*60\$GPGSV,3,2,11,06,43,306,43,09,47,203,50,12,02,325,,17,41,239,45*7A
\c:1597506151449*6C\$GPGSV,3,2,11,06,43,306,43,09,47,203,50,12,02,325,,17,41,239,45*7A
\c:1597506151449*6C\$IIDPT,4.9,,*4F
\c:1597506151449*6C\$IIDBT,16.1,f,4.9,M,,*42
\c:1597506151541*65\$GPGSV,3,3,11,19,44,265,47,22,30,083,42,31,12,037,39*42
\c:1597506151559*6C\$GPGSV,3,3,11,19,44,265,47,22,30,083,42,31,12,037,39*42
\c:1597506151650*66\$GPGLL,4729.97668,N,00222.58417,W,154336.00,A,A*7E
\c:1597506151736*67\$IIRSA,-37.3,A,,V*63
\c:1597506151791*6A\$GPRMC,154337.00,A,4729.97667,N,00222.58419,W,0.022,,150820,,,A*69
\c:1597506151800*6D\$IIZDA,154337,15,08,2020,,*54
\c:1597506151864*6F\$IIRSA,-37.0,A,,V*60
\c:1597506151865*6E\$GPVTG,,T,,M,0.022,N,0.040,K,A*27
\c:1597506151927*69\$IIRSA,-37.3,A,,V*63
\c:1597506152008*6E\$IIXDR,C,30.4,C,AirTemp*21
\c:1597506152016*61\$GPGGA,154337.00,4729.97667,N,00222.58419,W,1,10,0.99,4.1,M,48.7,M,,*44
\c:1597506152056*65\$IIRSA,-37.0,A,,V*60
\c:1597506152145*66\$GPGSA,A,3,03,04,17,19,22,31,09,01,06,02,,,2.03,0.99,1.77*05
\c:1597506152148*6B\$IIMWV,211,T,3.4,N,A*20
\c:1597506152148*6B\$IIVWT,149,L,3.4,N,1.7,M,6.3,K*47
\c:1597506152148*6B\$IIMWD,,T,89,M,3.4,N,1.7,M*44
\c:1597506152186*69\$GPGSA,A,3,03,04,17,19,22,31,09,01,06,02,,,2.03,0.99,1.77*05
\c:1597506152186*69\$IIRSA,-37.3,A,,V*63
\c:1597506152186*69\$IIMWV,209,T,3.4,N,A*29
\c:1597506152186*69\$IIVWT,151,L,3.4,N,1.7,M,6.3,K*4E
\c:1597506152186*69\$IIMWD,,T,87,M,3.4,N,1.7,M*4A
\c:1597506152281*6D\$IIRSA,-37.0,A,,V*60
\c:1597506152291*6C\$GPGSV,3,1,11,01,20,134,37,02,06,312,29,03,50,072,47,04,74,128,45*78
\c:1597506152322*65\$GPGSV,3,1,11,01,20,134,37,02,06,312,29,03,50,072,47,04,74,128,45*78
\c:1597506152322*65\$IIMWV,209,R,3.5,N,A*2E
\c:1597506152322*65\$IIVWR,151,L,3.5,N,1.8,M,6.5,K*40
\c:1597506152353*63\$IIMWV,208,R,3.5,N,A*2F
\c:1597506152370*62\$IIVWR,152,L,3.5,N,1.8,M,6.5,K*43
\c:1597506152401*63\$IIDPT,4.7,,*41
\c:1597506152401*63\$IIDBT,15.4,f,4.7,M,,*4A
\c:1597506152432*63\$GPGSV,3,2,11,06,43,306,44,09,47,203,50,12,02,325,,17,41,239,46*7E
\c:1597506152458*6F\$GPGSV,3,2,11,06,43,306,44,09,47,203,50,12,02,325,,17,41,239,46*7E
\c:1597506152522*63\$IIVHW,,T,238,M,0.00,N,0.00,K*6C
\c:1597506152522*63\$IIHDG,238,,,,*5E
\c:1597506152522*63\$IIHDM,238,M*35
\c:1597506152552*64\$GPGSV,3,3,11,19,44,265,47,22,30,083,42,31,12,037,39*42
\c:1597506152570*64\$GPGSV,3,3,11,19,44,265,47,22,30,083,42,31,12,037,39*42
\c:1597506152660*66\$GPGLL,4729.97667,N,00222.58419,W,154337.00,A,A*7E
\c:1597506152802*6C\$GPRMC,154338.00,A,4729.97665,N,00222.58420,W,0.007,,150820,,,A*69
\c:1597506152826*6A\$IIZDA,154338,15,08,2020,,*5B
\c:1597506152874*6D\$GPVTG,,T,,M,0.007,N,0.013,K,A*26
\c:1597506152890*67\$IIVTG,,T,,M,0.0,N,0.0,K,A*34
\c:1597506153027*62\$GPGGA,154338.00,4729.97665,N,00222.58420,W,1,10,0.91,4.2,M,48.7,M,,*48
\c:1597506153096*68\$IIMWV,209,T,3.5,N,A*28
\c:1597506153096*68\$IIVWT,151,L,3.5,N,1.8,M,6.5,K*46
\c:1597506153096*68\$IIMWD,,T,87,M,3.5,N,1.8,M*44
\c:1597506153096*68\$IIMWV,208,T,3.5,N,A*29
\c:1597506153096*68\$IIVWT,152,L,3.5,N,1.8,M,6.5,K*45
\c:1597506153096*68\$IIMWD,,T,86,M,3.5,N,1.8,M*45
\c:1597506153156*65\$GPGSA,A,3,03,04,17,19,22,31,09,01,06,02,,,1.68,0.91,1.41*06
\c:1597506153175*64\$GPGSA,A,3,03,04,17,19,22,31,09,01,06,02,,,1.68,0.91,1.41*06
\c:1597506153301*65\$GPGSV,3,1,11,01,20,134,38,02,06,312,31,03,50,072,48,04,74,128,46*72
\c:1597506153328*6E\$GPGSV,3,1,11,01,20,134,38,02,06,312,31,03,50,072,48,04,74,128,46*72
\c:1597506153375*66\$IIRSA,-37.3,A,,V*63
\c:1597506153375*66\$IIDPT,4.8,,*4E
\c:1597506153375*66\$IIDBT,15.7,f,4.8,M,,*46
\c:1597506153443*64\$GPGSV,3,2,11,06,43,306,44,09,47,203,50,12,02,325,,17,41,239,46*7E
\c:1597506153469*6C\$GPGSV,3,2,11,06,43,306,44,09,47,203,50,12,02,325,,17,41,239,46*7E
\c:1597506153548*6E\$IIRSA,-37.0,A,,V*60
\c:1597506153561*65\$GPGSV,3,3,11,19,44,265,47,22,30,083,43,31,12,037,40*4D
\c:1597506153579*6C\$GPGSV,3,3,11,19,44,265,47,22,30,083,43,31,12,037,40*4D
\c:1597506153669*6E\$GPGLL,4729.97665,N,00222.58420,W,154338.00,A,A*79
\c:1597506153675*63\$IIRSA,-37.3,A,,V*63
\c:1597506153692*6A\$IIMWV,208,R,3.6,N,A*2C
\c:1597506153692*6A\$IIVWR,152,L,3.6,N,1.9,M,6.7,K*43
\c:1597506153812*6C\$GPRMC,154339.00,A,4729.97662,N,00222.58422,W,0.020,,150820,,,A*68
\c:1597506153820*6D\$IIZDA,154339,15,08,2020,,*5A
\c:1597506153885*62\$GPVTG,,T,,M,0.020,N,0.037,K,A*25
\c:1597506153900*6E\$IIVTG,,T,,M,0.0,N,0.0,K,A*34
\c:1597506153916*69\$IIRSA,-37.0,A,,V*60
\c:1597506153980*66\$IIMWV,208,T,3.6,N,A*2A
\c:1597506153995*62\$IIVWT,152,L,3.6,N,1.9,M,6.7,K*45
\c:1597506153995*62\$IIMWD,,T,86,M,3.6,N,1.9,M*47
\c:1597506154028*6A\$IIRSA,-37.3,A,,V*63
\c:1597506154036*65\$GPGGA,154339.00,4729.97662,N,00222.58422,W,1,10,0.99,4.1,M,48.7,M,,*47
\c:1597506154066*60\$IIGLL,4729.9766,N,00222.5842,W,154339,A,A*44
\c:1597506154066*60\$IIRMC,154339,A,4729.9766,N,00222.5842,W,,150820,,,A*51
\c:1597506154097*6E\$IIRSA,-37.0,A,,V*60
\c:1597506154165*62\$GPGSA,A,3,03,04,17,19,22,31,09,01,06,02,,,2.03,0.99,1.77*05
\c:1597506154188*61\$IIMWV,209,R,3.6,N,A*2D
\c:1597506154188*61\$IIVWR,151,L,3.6,N,1.9,M,6.7,K*40
\c:1597506154189*60\$GPGSA,A,3,03,04,17,19,22,31,09,01,06,02,,,2.03,0.99,1.77*05
\c:1597506154269*6D\$IIDPT,4.7,,*41
\c:1597506154274*61\$IIDBT,15.4,f,4.7,M,,*4A
\c:1597506154311*63\$GPGSV,3,1,11,01,20,134,38,02,06,312,30,03,50,072,48,04,74,128,46*73
\c:1597506154332*62\$GPGSV,3,1,11,01,20,134,38,02,06,312,30,03,50,072,48,04,74,128,46*73
\c:1597506154444*64\$IIRSA,-37.3,A,,V*63
\c:1597506154452*63\$GPGSV,3,2,11,06,43,306,46,09,47,203,51,12,02,325,,17,41,239,46*7D
\c:1597506154476*65\$GPGSV,3,2,11,06,43,306,46,09,47,203,51,12,02,325,,17,41,239,46*7D
\c:1597506154571*63\$GPGSV,3,3,11,19,44,265,47,22,30,083,43,31,12,037,39*43
\c:1597506154573*61\$IIRSA,-37.0,A,,V*60
\c:1597506154588*65\$GPGSV,3,3,11,19,44,265,47,22,30,083,43,31,12,037,39*43
\c:1597506154680*6E\$GPGLL,4729.97662,N,00222.58422,W,154339.00,A,A*7D
\c:1597506154821*6B\$GPRMC,154340.00,A,4729.97659,N,00222.58421,W,0.008,,150820,,,A*67
\c:1597506154829*63\$IIZDA,154340,15,08,2020,,*54
\c:1597506154894*65\$GPVTG,,T,,M,0.008,N,0.015,K,A*2F
\c:1597506154908*61\$IIVTG,,T,,M,0.0,N,0.0,K,A*34
\c:1597506155004*65\$IIRSA,-37.3,A,,V*63
\c:1597506155027*64\$IIVHW,,T,238,M,0.00,N,0.00,K*6C
\c:1597506155027*64\$IIHDG,238,,,,*5E
\c:1597506155027*64\$IIHDM,238,M*35
\c:1597506155046*63\$GPGGA,154340.00,4729.97659,N,00222.58421,W,1,10,0.91,4.2,M,48.7,M,,*49
\c:1597506155097*6F\$IIMWV,209,R,3.7,N,A*2C
\c:1597506155097*6F\$IIVWR,151,L,3.7,N,1.9,M,6.9,K*4F
\c:1597506155097*6F\$IIMWV,210,R,3.7,N,A*24
\c:1597506155097*6F\$IIVWR,150,L,3.7,N,1.9,M,6.9,K*4E
\c:1597506155174*63\$GPGSA,A,3,03,04,17,19,22,31,09,01,06,02,,,1.68,0.91,1.41*06
\c:1597506155199*60\$GPGSA,A,3,03,04,17,19,22,31,09,01,06,02,,,1.68,0.91,1.41*06
\c:1597506155321*61\$GPGSV,3,1,11,01,20,134,38,02,06,312,31,03,50,072,47,04,74,128,45*7E
\c:1597506155343*65\$GPGSV,3,1,11,01,20,134,38,02,06,312,31,03,50,072,47,04,74,128,45*7E
\c:1597506155376*63\$IIMWV,209,T,3.6,N,A*2B
\c:1597506155376*63\$IIVWT,151,L,3.6,N,1.9,M,6.7,K*46
\c:1597506155391*6A\$IIMWD,,T,87,M,3.6,N,1.9,M*46
\c:1597506155424*63\$IIRSA,-37.0,A,,V*60
\c:1597506155462*61\$GPGSV,3,2,11,06,43,306,44,09,47,203,50,12,02,325,,17,41,239,45*7D
\c:1597506155487*6A\$GPGSV,3,2,11,06,43,306,44,09,47,203,50,12,02,325,,17,41,239,45*7D
\c:1597506155581*6D\$GPGSV,3,3,11,19,44,265,46,22,30,083,42,31,12,037,40*4D
\c:1597506155599*64\$GPGSV,3,3,11,19,44,265,46,22,30,083,42,31,12,037,40*4D
\c:1597506155689*66\$GPGLL,4729.97659,N,00222.58421,W,154340.00,A,A*78
\c:1597506155727*63\$IIVLW,37.00,N,0.00,N*79
\c:1597506155831*6B\$GPRMC,154341.00,A,4729.97657,N,00222.58420,W,0.027,,150820,,,A*64
\c:1597506155854*68\$IIZDA,154341,15,08,2020,,*55
\c:1597506155855*69\$IIRSA,-37.3,A,,V*63
\c:1597506155903*6B\$GPVTG,,T,,M,0.027,N,0.050,K,A*23
\c:1597506155919*60\$IIVTG,,T,,M,0.0,N,0.1,K,A*35
\c:1597506156056*61\$GPGGA,154341.00,4729.97657,N,00222.58420,W,1,10,0.91,4.3,M,48.7,M,,*46
\c:1597506156095*6E\$IIRSA,-37.0,A,,V*60
\c:1597506156185*6E\$GPGSA,A,3,03,04,17,19,22,31,09,01,06,02,,,1.68,0.91,1.41*06
\c:1597506156206*66\$GPGSA,A,3,03,04,17,19,22,31,09,01,06,02,,,1.68,0.91,1.41*06
\c:1597506156310*60\$IIMWV,209,T,3.7,N,A*2A
\c:1597506156310*60\$IIVWT,151,L,3.7,N,1.9,M,6.9,K*49
\c:1597506156310*60\$IIMWD,,T,87,M,3.7,N,1.9,M*47
\c:1597506156310*60\$IIMWV,210,T,3.7,N,A*22
\c:1597506156310*60\$IIVWT,150,L,3.7,N,1.9,M,6.9,K*48
\c:1597506156310*60\$IIMWD,,T,88,M,3.7,N,1.9,M*48
\c:1597506156330*62\$GPGSV,3,1,11,01,20,134,38,02,06,312,32,03,50,072,47,04,74,128,45*7D
\c:1597506156356*62\$GPGSV,3,1,11,01,20,134,38,02,06,312,32,03,50,072,47,04,74,128,45*7D
\c:1597506156356*62\$IIXDR,C,30.5,C,AirTemp*20
\c:1597506156404*62\$IIMTW,27.6,C*10
\c:1597506156472*63\$GPGSV,3,2,11,06,43,306,45,09,47,203,50,12,02,325,,17,41,239,46*7F
\c:1597506156499*66\$IIMWV,211,R,3.7,N,A*25
\c:1597506156499*66\$IIVWR,149,L,3.7,N,1.9,M,6.9,K*46
\c:1597506156499*66\$GPGSV,3,2,11,06,43,306,45,09,47,203,50,12,02,325,,17,41,239,46*7F
\c:1597506156591*6F\$GPGSV,3,3,11,19,44,265,46,22,30,083,43,31,12,037,39*42
\c:1597506156610*65\$GPGSV,3,3,11,19,44,265,46,22,30,083,43,31,12,037,39*42
\c:1597506156698*65\$GPGLL,4729.97657,N,00222.58420,W,154341.00,A,A*76
\c:1597506156834*6D\$IIRSA,-37.3,A,,V*63
\c:1597506156841*6F\$GPRMC,154342.00,A,4729.97655,N,00222.58420,W,0.028,,150820,,,A*6A
\c:1597506156850*6F\$IIZDA,154342,15,08,2020,,*56
\c:1597506156914*6E\$GPVTG,,T,,M,0.028,N,0.052,K,A*2E
\c:1597506156946*69\$IIRSA,-37.0,A,,V*60
\c:1597506157065*60\$GPGGA,154342.00,4729.97655,N,00222.58420,W,1,10,0.91,4.4,M,48.7,M,,*40
\c:1597506157073*67\$IIRSA,-37.3,A,,V*63
\c:1597506157185*6F\$IIRSA,-37.0,A,,V*60
\c:1597506157194*6F\$GPGSA,A,3,03,04,17,19,22,31,09,01,06,02,,,1.68,0.91,1.41*06
\c:1597506157202*63\$IIMWV,211,T,3.7,N,A*23
\c:1597506157225*66\$IIVWT,149,L,3.7,N,1.9,M,6.9,K*40
\c:1597506157225*66\$GPGSA,A,3,03,04,17,19,22,31,09,01,06,02,,,1.68,0.91,1.41*06
\c:1597506157225*66\$IIMWD,,T,89,M,3.7,N,1.9,M*49
\c:1597506157341*65\$GPGSV,3,1,11,01,20,134,38,02,06,312,31,03,50,072,47,04,74,128,45*7E
\c:1597506157366*60\$GPGSV,3,1,11,01,20,134,38,02,06,312,31,03,50,072,47,04,74,128,45*7E
\c:1597506157382*6A\$IIMWV,211,R,3.8,N,A*2A
\c:1597506157397*6E\$IIVWR,149,L,3.8,N,2.0,M,7.0,K*4B
\c:1597506157482*6D\$GPGSV,3,2,11,06,43,306,45,09,47,203,50,12,02,325,,17,41,239,46*7F
\c:1597506157507*61\$GPGSV,3,2,11,06,43,306,45,09,47,203,50,12,02,325,,17,41,239,46*7F
\c:1597506157523*67\$IIVHW,,T,238,M,0.00,N,0.00,K*6C
\c:1597506157523*67\$IIHDG,238,,,,*5E
\c:1597506157523*67\$IIHDM,238,M*35
\c:1597506157600*65\$GPGSV,3,3,11,19,44,265,47,22,30,083,42,31,12,037,41*4D
\c:1597506157627*60\$GPGSV,3,3,11,19,44,265,47,22,30,083,42,31,12,037,41*4D
\c:1597506157627*60\$IIRSA,-37.3,A,,V*63
\c:1597506157709*6D\$GPGLL,4729.97655,N,00222.58420,W,154342.00,A,A*77
\c:1597506157850*6E\$GPRMC,154343.00,A,4729.97652,N,00222.58420,W,0.012,,150820,,,A*65
\c:1597506157851*6F\$IIRSA,-37.0,A,,V*60
\c:1597506157880*63\$IIZDA,154343,15,08,2020,,*57
\c:1597506157880*63\$IIMWV,212,R,3.8,N,A*29
\c:1597506157880*63\$IIVWR,148,L,3.8,N,2.0,M,7.0,K*4A
\c:1597506157923*6B\$GPVTG,,T,,M,0.012,N,0.023,K,A*21
\c:1597506157944*6A\$IIVTG,,T,,M,0.0,N,0.0,K,A*34
\c:1597506158075*6E\$GPGGA,154343.00,4729.97652,N,00222.58420,W,1,10,0.91,4.4,M,48.7,M,,*46
\c:1597506158102*6F\$IIGLL,4729.9765,N,00222.5842,W,154343,A,A*4A
\c:1597506158102*6F\$IIRMC,154343,A,4729.9765,N,00222.5842,W,,150820,,,A*5F
\c:1597506158126*69\$IIMWV,211,T,3.8,N,A*2C
\c:1597506158126*69\$IIVWT,149,L,3.8,N,2.0,M,7.0,K*4D
\c:1597506158126*69\$IIMWD,,T,89,M,3.8,N,2.0,M*4C
\c:1597506158204*6A\$GPGSA,A,3,03,04,17,19,22,31,09,01,06,02,,,1.68,0.91,1.41*06
\c:1597506158230*6D\$GPGSA,A,3,03,04,17,19,22,31,09,01,06,02,,,1.68,0.91,1.41*06
\c:1597506158278*61\$IIRSA,-37.3,A,,V*63
\c:1597506158350*6A\$GPGSV,3,1,11,01,20,134,38,02,06,312,32,03,50,072,47,04,74,128,46*7E
\c:1597506158374*6C\$GPGSV,3,1,11,01,20,134,38,02,06,312,32,03,50,072,47,04,74,128,46*7E
\c:1597506158390*66\$IIRSA,-37.0,A,,V*60
\c:1597506158491*60\$GPGSV,3,2,11,06,43,306,45,09,47,203,50,12,02,325,,17,41,239,46*7F
\c:1597506158516*6E\$GPGSV,3,2,11,06,43,306,45,09,47,203,50,12,02,325,,17,41,239,46*7F
\c:1597506158611*6A\$GPGSV,3,3,11,19,44,265,47,22,30,083,43,31,12,037,38*42
\c:1597506158628*60\$GPGSV,3,3,11,19,44,265,47,22,30,083,43,31,12,037,38*42
\c:1597506158719*63\$GPGLL,4729.97652,N,00222.58420,W,154343.00,A,A*71
\c:1597506158788*6B\$IIMWV,213,R,3.8,N,A*28
\c:1597506158789*6A\$IIVWR,147,L,3.8,N,2.0,M,7.0,K*45
\c:1597506158861*63\$GPRMC,154344.00,A,4729.97650,N,00222.58420,W,0.008,,150820,,,A*6B
\c:1597506158869*6B\$IIZDA,154344,15,08,2020,,*50
\c:1597506158932*64\$IIRSA,-37.3,A,,V*63
\c:1597506158933*65\$GPVTG,,T,,M,0.008,N,0.015,K,A*2F
\c:1597506158949*68\$IIVTG,,T,,M,0.0,N,0.0,K,A*34
\c:1597506159085*60\$IIMWV,212,T,3.8,N,A*2F
\c:1597506159085*60\$IIVWT,148,L,3.8,N,2.0,M,7.0,K*4C
\c:1597506159085*60\$IIMWD,,T,90,M,3.8,N,2.0,M*44
\c:1597506159086*63\$GPGGA,154344.00,4729.97650,N,00222.58420,W,1,10,0.91,4.4,M,48.7,M,,*43
\c:1597506159212*6C\$IIMWV,213,R,3.9,N,A*29
\c:1597506159212*6C\$IIVWR,147,L,3.9,N,2.0,M,7.2,K*46
\c:1597506159215*6B\$GPGSA,A,3,03,04,17,19,22,31,09,01,06,02,,,1.68,0.91,1.41*06
\c:1597506159238*64\$GPGSA,A,3,03,04,17,19,22,31,09,01,06,02,,,1.68,0.91,1.41*06
\c:1597506159255*6F\$IIMWV,214,R,3.9,N,A*2E
\c:1597506159255*6F\$IIVWR,146,L,3.9,N,2.0,M,7.2,K*47
\c:1597506159360*68\$GPGSV,3,1,11,01,20,134,38,02,06,312,32,03,50,072,48,04,74,128,46*71
\c:1597506159383*65\$GPGSV,3,1,11,01,20,134,38,02,06,312,32,03,50,072,48,04,74,128,46*71
\c:1597506159502*6A\$GPGSV,3,2,11,06,43,306,45,09,47,203,50,12,02,325,,17,41,238,46*7E
\c:1597506159527*6D\$GPGSV,3,2,11,06,43,306,45,09,47,203,50,12,02,325,,17,41,238,46*7E
\c:1597506159559*64\$IIRSA,-37.0,A,,V*60
\c:1597506159620*69\$GPGSV,3,3,11,19,44,265,47,22,30,083,42,31,12,037,38*43
\c:1597506159639*61\$GPGSV,3,3,11,19,44,265,47,22,30,083,42,31,12,037,38*43
\c:1597506159728*60\$GPGLL,4729.97650,N,00222.58420,W,154344.00,A,A*74
\c:1597506159870*62\$GPRMC,154345.00,A,4729.97649,N,00222.58420,W,0.011,,150820,,,A*6A
\c:1597506159879*6B\$IIZDA,154345,15,08,2020,,*51
\c:1597506159943*63\$GPVTG,,T,,M,0.011,N,0.019,K,A*2B
\c:1597506159958*69\$IIVTG,,T,,M,0.0,N,0.0,K,A*34
\c:1597506159996*6B\$IIMWV,212,T,3.9,N,A*2E
\c:1597506159996*6B\$IIVWT,148,L,3.9,N,2.0,M,7.2,K*4F
\c:1597506159996*6B\$IIMWD,,T,90,M,3.9,N,2.0,M*45
\c:1597506159996*6B\$IIMWV,214,T,3.9,N,A*28
\c:1597506159996*6B\$IIVWT,146,L,3.9,N,2.0,M,7.2,K*41
\c:1597506159996*6B\$IIMWD,,T,92,M,3.9,N,2.0,M*47
\c:1597506160027*62\$IIVHW,,T,238,M,0.00,N,0.00,K*6C
\c:1597506160027*62\$IIHDG,238,,,,*5E
\c:1597506160028*6D\$IIHDM,238,M*35
\c:1597506160028*6D\$IIRSA,-37.3,A,,V*63
\c:1597506160095*6B\$GPGGA,154345.00,4729.97649,N,00222.58420,W,1,10,0.91,4.4,M,48.7,M,,*4A
\c:1597506160171*60\$IIMWV,215,R,3.9,N,A*2F
\c:1597506160171*60\$IIVWR,145,L,3.9,N,2.0,M,7.2,K*44
\c:1597506160219*6D\$IIRSA,-37.0,A,,V*60
\c:1597506160224*63\$GPGSA,A,3,03,04,17,19,22,31,09,01,06,02,,,1.68,0.91,1.41*06
\c:1597506160250*60\$GPGSA,A,3,03,04,17,19,22,31,09,01,06,02,,,1.68,0.91,1.41*06
\c:1597506160370*63\$GPGSV,3,1,11,01,20,134,38,02,06,312,32,03,50,072,47,04,74,128,46*7E
\c:1597506160394*69\$GPGSV,3,1,11,01,20,134,38,02,06,312,32,03,50,072,47,04,74,128,46*7E
\c:1597506160511*62\$GPGSV,3,2,11,06,43,306,45,09,47,203,50,12,02,325,,17,41,238,46*7E
\c:1597506160536*67\$GPGSV,3,2,11,06,43,306,45,09,47,203,50,12,02,325,,17,41,238,46*7E
\c:1597506160569*6D\$IIRSA,-37.3,A,,V*63
\c:1597506160610*60\$IIVWR,145,L,4.0,N,2.1,M,7.4,K*4D
\c:1597506160610*60\$IIMWV,214,R,4.0,N,A*20
\c:1597506160610*60\$IIVWR,146,L,4.0,N,2.1,M,7.4,K*4E
\c:1597506160630*62\$GPGSV,3,3,11,19,44,265,46,22,30,083,44,31,12,037,39*45
\c:1597506160641*64\$GPGSV,3,3,11,19,44,265,46,22,30,083,44,31,12,037,39*45
\c:1597506160739*6A\$GPGLL,4729.97649,N,00222.58420,W,154345.00,A,A*7D
\c:1597506160865*6C\$IIRSA,-37.0,A,,V*60
\c:1597506160880*67\$GPRMC,154346.00,A,4729.97648,N,00222.58419,W,0.019,,150820,,,A*6A
\c:1597506160882*65\$IIMWV,214,T,4.0,N,A*26
\c:1597506160907*69\$IIVWT,146,L,4.0,N,2.1,M,7.4,K*48
\c:1597506160907*69\$IIMWD,,T,92,M,4.0,N,2.1,M*48
\c:1597506160907*69\$IIZDA,154346,15,08,2020,,*52
\c:1597506160953*68\$GPVTG,,T,,M,0.019,N,0.035,K,A*2D
\c:1597506160971*68\$IIVTG,,T,,M,0.0,N,0.0,K,A*34
\c:1597506161104*63\$GPGGA,154346.00,4729.97648,N,00222.58419,W,1,10,0.91,4.3,M,48.7,M,,*45
\c:1597506161233*64\$GPGSA,A,3,03,04,17,19,22,31,09,01,06,02,,,1.68,0.91,1.41*06
\c:1597506161258*69\$GPGSA,A,3,03,04,17,19,22,31,09,01,06,02,,,1.68,0.91,1.41*06
\c:1597506161306*63\$IIRSA,-37.3,A,,V*63
\c:1597506161380*6D\$GPGSV,3,1,11,01,20,134,38,02,06,312,32,03,50,072,48,04,74,128,46*71
\c:1597506161402*60\$GPGSV,3,1,11,01,20,134,38,02,06,312,32,03,50,072,48,04,74,128,46*71
\c:1597506161419*6A\$IIRSA,-37.0,A,,V*60
\c:1597506161522*63\$GPGSV,3,2,11,06,43,306,46,09,47,203,50,12,02,325,,17,41,238,45*7E
\c:1597506161546*61\$GPGSV,3,2,11,06,43,306,46,09,47,203,50,12,02,325,,17,41,238,45*7E
\c:1597506161640*64\$GPGSV,3,3,11,19,44,265,47,22,30,083,42,31,12,037,37*4C
\c:1597506161667*61\$GPGSV,3,3,11,19,44,265,47,22,30,083,42,31,12,037,37*4C
\c:1597506161667*61\$IIRSA,-37.3,A,,V*63
\c:1597506161730*62\$IIDPT,4.7,,*41
\c:1597506161730*62\$IIDBT,15.4,f,4.7,M,,*4A
\c:1597506161730*62\$IIRSA,-37.0,A,,V*60
\c:1597506161748*6D\$GPGLL,4729.97648,N,00222.58419,W,154346.00,A,A*75
\c:1597506161842*68\$IIRSA,-37.3,A,,V*63
\c:1597506161890*67\$GPRMC,154347.00,A,4729.97645,N,00222.58417,W,0.009,,150820,,,A*69
\c:1597506161906*69\$IIZDA,154347,15,08,2020,,*53
\c:1597506161954*6E\$IIRSA,-37.0,A,,V*60
\c:1597506161962*6B\$GPVTG,,T,,M,0.009,N,0.016,K,A*2D
\c:1597506161970*68\$IIVTG,,T,,M,0.0,N,0.0,K,A*34
\c:1597506162115*60\$GPGGA,154347.00,4729.97645,N,00222.58417,W,1,10,0.91,4.3,M,48.7,M,,*47
\c:1597506162244*67\$GPGSA,A,3,03,04,17,19,22,31,09,01,06,02,,,1.68,0.91,1.41*06
\c:1597506162269*68\$GPGSA,A,3,03,04,17,19,22,31,09,01,06,02,,,1.68,0.91,1.41*06
\c:1597506162389*67\$GPGSV,3,1,11,01,20,134,38,02,06,312,35,03,50,072,48,04,74,128,46*76
\c:1597506162413*63\$GPGSV,3,1,11,01,20,134,38,02,06,312,35,03,50,072,48,04,74,128,46*76
\c:1597506162461*66\$IIMWV,214,R,4.1,N,A*21
\c:1597506162461*66\$IIVWR,146,L,4.1,N,2.1,M,7.6,K*4D
\c:1597506162508*68\$IIVHW,,T,238,M,0.00,N,0.00,K*6C
\c:1597506162509*69\$IIHDG,238,,,,*5E
\c:1597506162525*67\$IIHDM,238,M*35
\c:1597506162531*62\$GPGSV,3,2,11,06,43,306,45,09,47,203,50,12,02,325,,17,41,238,45*7D
\c:1597506162557*62\$GPGSV,3,2,11,06,43,306,45,09,47,203,50,12,02,325,,17,41,238,45*7D
\c:1597506162621*60\$IIRSA,-37.3,A,,V*63
\c:1597506162650*66\$GPGSV,3,3,11,19,44,265,47,22,30,083,43,31,12,037,38*42
\c:1597506162669*6C\$GPGSV,3,3,11,19,44,265,47,22,30,083,43,31,12,037,38*42
\c:1597506162759*6E\$GPGLL,4729.97645,N,00222.58417,W,154347.00,A,A*77
\c:1597506162900*6C\$GPRMC,154348.00,A,4729.97644,N,00222.58415,W,0.019,,150820,,,A*64
\c:1597506162908*64\$IIZDA,154348,15,08,2020,,*5C
\c:1597506162941*69\$IIRSA,-37.0,A,,V*60
\c:1597506162973*68\$GPVTG,,T,,M,0.019,N,0.035,K,A*2D
\c:1597506162989*6D\$IIVLW,37.00,N,0.00,N*79
\c:1597506162989*6D\$IIVTG,,T,,M,0.0,N,0.0,K,A*34
\c:1597506163052*63\$IIRSA,-37.3,A,,V*63
\c:1597506163124*63\$GPGGA,154348.00,4729.97644,N,00222.58415,W,1,10,0.91,4.2,M,48.7,M,,*4A
\c:1597506163156*66\$IIGLL,4729.9764,N,00222.5842,W,154348,A,A*40
\c:1597506163156*66\$IIRMC,154348,A,4729.9764,N,00222.5842,W,,150820,,,A*55
\c:1597506163171*63\$IIRSA,-37.0,A,,V*60
\c:1597506163202*64\$IIMWV,214,T,4.1,N,A*27
\c:1597506163202*64\$IIVWT,146,L,4.1,N,2.1,M,7.6,K*4B
\c:1597506163202*64\$IIMWD,,T,92,M,4.1,N,2.1,M*49
\c:1597506163253*60\$GPGSA,A,3,03,04,17,19,22,31,09,01,06,02,,,1.68,0.91,1.41*06
\c:1597506163279*68\$GPGSA,A,3,03,04,17,19,22,31,09,01,06,02,,,1.68,0.91,1.41*06
\c:1597506163400*60\$GPGSV,3,1,11,01,20,134,38,02,06,312,33,03,50,072,48,04,74,128,46*70
\c:1597506163422*60\$GPGSV,3,1,11,01,20,134,38,02,06,312,33,03,50,072,48,04,74,128,46*70
\c:1597506163541*64\$GPGSV,3,2,11,06,43,306,45,09,47,203,50,12,02,325,,17,41,238,45*7D
\c:1597506163566*61\$GPGSV,3,2,11,06,43,306,45,09,47,203,50,12,02,325,,17,41,238,45*7D
\c:1597506163660*64\$GPGSV,3,3,11,19,44,265,47,22,30,083,42,31,12,037,38*43
\c:1597506163678*6D\$GPGSV,3,3,11,19,44,265,47,22,30,083,42,31,12,037,38*43
\c:1597506163757*61\$IIXDR,C,30.5,C,AirTemp*20
\c:1597506163757*61\$IIMTW,27.6,C*10
\c:1597506163768*6D\$GPGLL,4729.97644,N,00222.58415,W,154348.00,A,A*7B
\c:1597506163805*69\$IIMWV,214,R,4.2,N,A*22
\c:1597506163805*69\$IIVWR,146,L,4.2,N,2.2,M,7.8,K*43
\c:1597506163838*67\$IIRSA,-37.3,A,,V*63
\c:1597506163909*64\$GPRMC,154349.00,A,4729.97642,N,00222.58413,W,0.005,,150820,,,A*68
\c:1597506163917*6B\$IIRSA,-37.0,A,,V*60
\c:1597506163934*6A\$IIZDA,154349,15,08,2020,,*5D
\c:1597506163982*67\$GPVTG,,T,,M,0.005,N,0.008,K,A*2E
\c:1597506163997*63\$IIVTG,,T,,M,0.0,N,0.0,K,A*34
\c:1597506164135*64\$GPGGA,154349.00,4729.97642,N,00222.58413,W,1,10,0.91,4.1,M,48.7,M,,*48
\c:1597506164142*64\$IIRSA,-37.3,A,,V*63
\c:1597506164166*62\$IIGLL,4729.9764,N,00222.5841,W,154349,A,A*42
\c:1597506164166*62\$IIRMC,154349,A,4729.9764,N,00222.5841,W,,150820,,,A*57
\c:1597506164262*65\$IIRSA,-37.0,A,,V*60
\c:1597506164264*63\$GPGSA,A,3,03,04,17,19,22,31,09,01,06,02,,,1.68,0.91,1.41*06
\c:1597506164296*6E\$GPGSA,A,3,03,04,17,19,22,31,09,01,06,02,,,1.68,0.91,1.41*06
\c:1597506164296*6E\$IIMWV,214,R,4.3,N,A*23
\c:1597506164296*6E\$IIVWR,146,L,4.3,N,2.2,M,8.0,K*45
\c:1597506164296*6E\$IIMWV,213,R,4.3,N,A*24
\c:1597506164296*6E\$IIVWR,147,L,4.3,N,2.2,M,8.0,K*44
\c:1597506164409*6E\$GPGSV,3,1,11,01,20,134,37,02,06,312,32,03,50,072,47,04,74,128,47*70
\c:1597506164435*61\$GPGSV,3,1,11,01,20,134,37,02,06,312,32,03,50,072,47,04,74,128,47*70
\c:1597506164551*62\$GPGSV,3,2,11,06,43,306,45,09,47,203,49,12,02,325,,17,41,238,45*75
\c:1597506164577*66\$GPGSV,3,2,11,06,43,306,45,09,47,203,49,12,02,325,,17,41,238,45*75
\c:1597506164670*62\$GPGSV,3,3,11,19,44,265,46,22,30,084,42,31,12,037,40*4A
\c:1597506164696*6A\$GPGSV,3,3,11,19,44,265,46,22,30,084,42,31,12,037,40*4A
\c:1597506164696*6A\$IIRSA,-37.3,A,,V*63
\c:1597506164778*6B\$GPGLL,4729.97642,N,00222.58413,W,154349.00,A,A*7A
\c:1597506164822*6B\$IIRSA,-37.0,A,,V*60
\c:1597506164822*6B\$IIDPT,4.4,,*42
\c:1597506164823*6A\$IIDBT,14.4,f,4.4,M,,*48
\c:1597506164920*68\$GPRMC,154350.00,A,4729.97641,N,00222.58411,W,0.013,,150820,,,A*66
\c:1597506164935*6C\$IIZDA,154350,15,08,2020,,*55
\c:1597506164992*61\$GPVTG,,T,,M,0.013,N,0.024,K,A*27
\c:1597506165036*67\$IIMWV,214,T,4.3,N,A*25
\c:1597506165036*67\$IIVWT,146,L,4.3,N,2.2,M,8.0,K*43
\c:1597506165036*67\$IIMWD,,T,92,M,4.3,N,2.2,M*48
\c:1597506165036*67\$IIHDG,238,,,,*5E
\c:1597506165036*67\$IIHDM,238,M*35
\c:1597506165036*67\$IIVTG,,T,,M,0.0,N,0.0,K,A*34
\c:1597506165036*67\$IIMWV,213,T,4.3,N,A*22
\c:1597506165036*67\$IIVWT,147,L,4.3,N,2.2,M,8.0,K*42
\c:1597506165052*65\$IIMWD,,T,91,M,4.3,N,2.2,M*4B
\c:1597506165115*67\$IIRSA,-37.3,A,,V*63
\c:1597506165145*62\$GPGGA,154350.00,4729.97641,N,00222.58411,W,1,10,0.91,4.0,M,48.7,M,,*40
\c:1597506165195*6F\$IIMWV,213,R,4.4,N,A*23
\c:1597506165196*6C\$IIVWR,147,L,4.4,N,2.3,M,8.1,K*43
\c:1597506165227*65\$IIRSA,-37.0,A,,V*60
\c:1597506165274*63\$GPGSA,A,3,03,04,17,19,22,31,09,01,06,02,,,1.68,0.91,1.41*06
\c:1597506165299*60\$GPGSA,A,3,03,04,17,19,22,31,09,01,06,02,,,1.68,0.91,1.41*06
\c:1597506165419*6E\$GPGSV,3,1,11,01,20,134,37,02,06,312,33,03,50,072,48,04,74,128,46*7F
\c:1597506165442*60\$GPGSV,3,1,11,01,20,134,37,02,06,312,33,03,50,072,48,04,74,128,46*7F
\c:1597506165561*60\$GPGSV,3,2,11,06,43,306,45,09,47,203,49,12,02,325,,17,41,238,45*75
\c:1597506165586*69\$GPGSV,3,2,11,06,43,306,45,09,47,203,49,12,02,325,,17,41,238,45*75
\c:1597506165649*69\$IIRSA,-37.3,A,,V*63
\c:1597506165679*6A\$GPGSV,3,3,11,19,44,265,46,22,30,084,42,31,12,037,37*4A
\c:1597506165680*6C\$IIMWV,213,R,4.5,N,A*22
\c:1597506165680*6C\$IIVWR,147,L,4.5,N,2.3,M,8.3,K*40
\c:1597506165680*6C\$IIMWV,212,R,4.5,N,A*23
\c:1597506165680*6C\$IIVWR,148,L,4.5,N,2.3,M,8.3,K*4F
\c:1597506165695*68\$GPGSV,3,3,11,19,44,265,46,22,30,084,42,31,12,037,37*4A
\c:1597506165787*6A\$GPGLL,4729.97641,N,00222.58411,W,154350.00,A,A*73
\c:1597506165790*6C\$IIRSA,-37.0,A,,V*60
\c:1597506165790*6C\$IIDPT,3.8,,*49
\c:1597506165791*6D\$IIDBT,12.5,f,3.8,M,,*44
\c:1597506165919*63\$IIMWV,213,T,4.5,N,A*24
\c:1597506165919*63\$IIVWT,147,L,4.5,N,2.3,M,8.3,K*46
\c:1597506165929*60\$GPRMC,154351.00,A,4729.97640,N,00222.58409,W,0.005,,150820,,,A*68
\c:1597506165934*6C\$IIMWD,,T,91,M,4.5,N,2.3,M*4C
\c:1597506165950*6E\$IIZDA,154351,15,08,2020,,*54
\c:1597506165973*6F\$IIMWV,212,T,4.5,N,A*25
\c:1597506165973*6F\$IIVWT,148,L,4.5,N,2.3,M,8.3,K*49
\c:1597506165973*6F\$IIMWD,,T,90,M,4.5,N,2.3,M*4D
\c:1597506166003*62\$GPVTG,,T,,M,0.005,N,0.010,K,A*27
\c:1597506166021*62\$IIVTG,,T,,M,0.0,N,0.0,K,A*34
\c:1597506166154*61\$GPGGA,154351.00,4729.97640,N,00222.58409,W,1,10,0.91,3.9,M,48.7,M,,*47
\c:1597506166197*6E\$IIRSA,-37.3,A,,V*63
\c:1597506166283*68\$GPGSA,A,3,03,04,17,19,22,31,09,01,06,02,,,1.68,0.91,1.41*06
\c:1597506166309*6B\$GPGSA,A,3,03,04,17,19,22,31,09,01,06,02,,,1.68,0.91,1.41*06
\c:1597506166429*6E\$GPGSV,3,1,11,01,20,134,37,02,06,312,32,03,50,072,47,04,74,128,46*71
\c:1597506166437*61\$IIRSA,-37.0,A,,V*60
\c:1597506166453*63\$GPGSV,3,1,11,01,20,134,37,02,06,312,32,03,50,072,47,04,74,128,46*71
\c:1597506166570*63\$GPGSV,3,2,11,06,43,306,43,09,47,203,49,12,02,325,,17,41,238,45*73
\c:1597506166596*6B\$GPGSV,3,2,11,06,43,306,43,09,47,203,49,12,02,325,,17,41,238,45*73
\c:1597506166689*66\$GPGSV,3,3,11,19,44,265,46,22,30,084,41,31,12,037,38*46
\c:1597506166708*6E\$GPGSV,3,3,11,19,44,265,46,22,30,084,41,31,12,037,38*46
\c:1597506166788*66\$IIDPT,3.7,,*46
\c:1597506166798*67\$GPGLL,4729.97640,N,00222.58409,W,154351.00,A,A*7A
\c:1597506166803*6A\$IIDBT,12.1,f,3.7,M,,*4F
\c:1597506166939*62\$GPRMC,154352.00,A,4729.97640,N,00222.58409,W,0.022,,150820,,,A*6E
\c:1597506166948*64\$IIZDA,154352,15,08,2020,,*57
\c:1597506167012*63\$GPVTG,,T,,M,0.022,N,0.041,K,A*26
\c:1597506167028*6A\$IIVTG,,T,,M,0.0,N,0.0,K,A*34
\c:1597506167092*6B\$IIRSA,-37.3,A,,V*63
\c:1597506167164*63\$GPGGA,154352.00,4729.97640,N,00222.58409,W,1,10,0.91,3.8,M,48.7,M,,*45
\c:1597506167171*67\$IIRSA,-37.0,A,,V*60
\c:1597506167283*69\$IIRSA,-37.3,A,,V*63
\c:1597506167293*68\$GPGSA,A,3,03,04,17,19,22,31,09,01,06,02,,,1.68,0.91,1.41*06
\c:1597506167315*67\$GPGSA,A,3,03,04,17,19,22,31,09,01,06,02,,,1.68,0.91,1.41*06
\c:1597506167439*6E\$GPGSV,3,1,11,01,20,134,37,02,06,312,32,03,50,072,47,04,74,128,46*71
\c:1597506167458*69\$GPGSV,3,1,11,01,20,134,37,02,06,312,32,03,50,072,47,04,74,128,46*71
\c:1597506167491*6C\$IIMWV,212,R,4.6,N,A*20
\c:1597506167491*6C\$IIVWR,148,L,4.6,N,2.4,M,8.5,K*4D
\c:1597506167508*6D\$IIVHW,,T,238,M,0.00,N,0.00,K*6C
\c:1597506167523*64\$IIHDG,238,,,,*5E
\c:1597506167523*64\$IIHDM,238,M*35
\c:1597506167580*6D\$GPGSV,3,2,11,06,43,306,44,09,47,203,49,12,02,325,,17,41,238,45*74
\c:1597506167603*65\$GPGSV,3,2,11,06,43,306,44,09,47,203,49,12,02,325,,17,41,238,45*74
\c:1597506167635*60\$IIRSA,-37.0,A,,V*60
\c:1597506167699*66\$GPGSV,3,3,11,19,44,265,46,22,30,084,42,31,12,037,38*45
\c:1597506167726*63\$GPGSV,3,3,11,19,44,265,46,22,30,084,42,31,12,037,38*45
\c:1597506167726*63\$IIRSA,-37.3,A,,V*63
\c:1597506167758*6A\$IIDPT,3.6,,*47
\c:1597506167758*6A\$IIDBT,11.8,f,3.6,M,,*44
