\c:1597505971680*62\$GPGSV,3,3,11,19,45,267,47,22,31,083,43,31,13,038,36*40
\c:1597505971788*6B\$GPGLL,4729.97673,N,00222.58414,W,154037.00,A,A*75
\c:1597505971930*66\$GPRMC,154038.00,A,4729.97674,N,00222.58413,W,0.015,,150820,,,A*69
\c:1597505972002*6D\$GPVTG,,T,,M,0.015,N,0.027,K,A*22
\c:1597505972155*6E\$GPGGA,154038.00,4729.97674,N,00222.58413,W,1,09,0.99,3.2,M,48.7,M,,*4C
\c:1597505972280*65\$GPGSA,A,3,03,04,17,19,22,31,09,01,06,,,,2.07,0.99,1.82*09
\c:1597505972425*6C\$GPGSV,3,1,11,01,22,134,37,02,05,311,23,03,51,070,47,04,73,134,46*7A
\c:1597505972567*6B\$GPGSV,3,2,11,06,41,306,46,09,46,203,48,12,02,326,,17,42,240,48*76
\c:1597505972686*67\$GPGSV,3,3,11,19,45,267,47,22,31,083,43,31,13,038,36*40
\c:1597505972793*62\$GPGLL,4729.97674,N,00222.58413,W,154038.00,A,A*7A
\c:1597505972935*60\$GPRMC,154039.00,A,4729.97674,N,00222.58414,W,0.024,,150820,,,A*6D
\c:1597505973009*67\$GPVTG,,T,,M,0.024,N,0.045,K,A*24
\c:1597505973160*69\$GPGGA,154039.00,4729.97674,N,00222.58414,W,1,09,0.99,3.2,M,48.7,M,,*4A
\c:1597505973285*61\$GPGSA,A,3,03,04,17,19,22,31,09,01,06,,,,2.07,0.99,1.82*09
\c:1597505973432*6B\$GPGSV,3,1,11,01,22,134,33,02,05,311,23,03,51,071,47,04,73,134,46*7F
\c:1597505973573*6F\$GPGSV,3,2,11,06,41,306,45,09,46,203,48,12,02,326,,17,42,240,48*75
\c:1597505973691*60\$GPGSV,3,3,11,19,45,267,47,22,31,083,44,31,13,038,39*48
\c:1597505973800*66\$GPGLL,4729.97674,N,00222.58414,W,154039.00,A,A*7C
\c:1597505973941*62\$GPRMC,154040.00,A,4729.97675,N,00222.58415,W,0.030,,150820,,,A*66
\c:1597505974014*6C\$GPVTG,,T,,M,0.030,N,0.055,K,A*20
\c:1597505974166*68\$GPGGA,154040.00,4729.97675,N,00222.58415,W,1,09,0.99,3.2,M,48.7,M,,*44
\c:1597505974291*63\$GPGSA,A,3,03,04,17,19,22,31,09,01,06,,,,2.07,0.99,1.82*09
\c:1597505974437*69\$GPGSV,3,1,11,01,22,134,32,02,05,311,25,03,51,071,47,04,73,133,46*7F
\c:1597505974578*63\$GPGSV,3,2,11,06,41,306,45,09,46,203,48,12,02,326,,17,42,240,47*7A
\c:1597505974698*6E\$GPGSV,3,3,11,19,45,267,47,22,31,083,44,31,13,038,36*47
\c:1597505974805*64\$GPGLL,4729.97675,N,00222.58415,W,154040.00,A,A*72
\c:1597505974946*62\$GPRMC,154041.00,A,4729.97675,N,00222.58415,W,0.022,,150820,,,A*64
\c:1597505975019*60\$GPVTG,,T,,M,0.022,N,0.041,K,A*26
\c:1597505975172*6C\$GPGGA,154041.00,4729.97675,N,00222.58415,W,1,09,0.99,3.2,M,48.7,M,,*45
\c:1597505975296*65\$GPGSA,A,3,03,04,17,19,22,31,09,01,06,,,,2.07,0.99,1.82*09
\c:1597505975442*6A\$GPGSV,3,1,11,01,22,134,32,02,05,311,25,03,51,071,47,04,73,133,46*7F
\c:1597505975585*60\$GPGSV,3,2,11,06,41,306,46,09,46,203,49,12,02,326,,17,42,240,47*78
\c:1597505975703*6C\$GPGSV,3,3,11,19,45,267,47,22,31,083,45,31,13,038,36*46
\c:1597505975811*60\$GPGLL,4729.97675,N,00222.58415,W,154041.00,A,A*73
\c:1597505975953*67\$GPRMC,154042.00,A,4729.97675,N,00222.58413,W,0.011,,150820,,,A*61
\c:1597505976025*6C\$GPVTG,,T,,M,0.011,N,0.020,K,A*21
\c:1597505976178*65\$GPGGA,154042.00,4729.97675,N,00222.58413,W,1,09,0.99,3.2,M,48.7,M,,*40
\c:1597505976303*6B\$GPGSA,A,3,03,04,17,19,22,31,09,01,06,,,,2.07,0.99,1.82*09
\c:1597505976448*63\$GPGSV,3,1,11,01,22,134,32,02,05,311,25,03,51,071,46,04,73,133,45*7D
\c:1597505976590*67\$GPGSV,3,2,11,06,41,306,46,09,46,203,48,12,02,326,,17,42,240,48*76
\c:1597505976708*64\$GPGSV,3,3,11,19,45,267,47,22,31,083,43,31,13,038,37*41
\c:1597505976817*65\$GPGLL,4729.97675,N,00222.58413,W,154042.00,A,A*76
\c:1597505976959*6E\$GPRMC,154043.00,A,4729.97674,N,00222.58411,W,0.015,,150820,,,A*67
\c:1597505977031*68\$GPVTG,,T,,M,0.015,N,0.027,K,A*22
\c:1597505977184*67\$GPGGA,154043.00,4729.97674,N,00222.58411,W,1,09,0.99,3.3,M,48.7,M,,*43
\c:1597505977309*60\$GPGSA,A,3,03,04,17,19,22,31,09,01,06,,,,2.07,0.99,1.82*09
\c:1597505977450*6B\$GPGSV,3,1,11,01,22,134,33,02,05,311,,03,51,071,46,04,73,133,46*78
\c:1597505977592*64\$GPGSV,3,2,11,06,41,306,46,09,46,203,49,12,02,326,,17,42,240,47*78
\c:1597505977710*6C\$GPGSV,3,3,11,19,45,267,47,22,31,083,43,31,13,038,35*43
\c:1597505977818*6B\$GPGLL,4729.97674,N,00222.58411,W,154043.00,A,A*74
\c:1597505977959*6F\$GPRMC,154044.00,A,4729.97674,N,00222.58409,W,0.008,,150820,,,A*65
\c:1597505978032*64\$GPVTG,,T,,M,0.008,N,0.015,K,A*2F
\c:1597505978184*68\$GPGGA,154044.00,4729.97674,N,00222.58409,W,1,09,0.99,3.3,M,48.7,M,,*4D
\c:1597505978309*6F\$GPGSA,A,3,03,04,17,19,22,31,09,01,06,,,,2.07,0.99,1.82*09
\c:1597505978451*65\$GPGSV,3,1,11,01,22,134,35,02,05,311,,03,51,071,48,04,73,133,45*73
\c:1597505978593*6A\$GPGSV,3,2,11,06,41,306,46,09,46,203,48,12,02,326,,17,42,240,47*79
\c:1597505978711*62\$GPGSV,3,3,11,19,45,267,47,22,31,083,41,31,13,038,36*42
\c:1597505978819*65\$GPGLL,4729.97674,N,00222.58409,W,154044.00,A,A*7A
\c:1597505978961*6B\$GPRMC,154045.00,A,4729.97673,N,00222.58406,W,0.027,,150820,,,A*61
\c:1597505979034*63\$GPVTG,,T,,M,0.027,N,0.051,K,A*22
\c:1597505979186*6B\$GPGGA,154045.00,4729.97673,N,00222.58406,W,1,09,0.99,3.3,M,48.7,M,,*44
\c:1597505979311*67\$GPGSA,A,3,03,04,17,19,22,31,09,01,06,,,,2.07,0.99,1.82*09
\c:1597505979452*67\$GPGSV,3,1,11,01,22,134,35,02,05,311,,03,51,071,48,04,73,133,45*73
\c:1597505979594*6C\$GPGSV,3,2,11,06,41,306,45,09,46,203,48,12,02,326,,17,42,240,48*75
\c:1597505979713*61\$GPGSV,3,3,11,19,45,267,47,22,31,083,43,31,13,038,35*43
\c:1597505979822*6C\$GPGLL,4729.97673,N,00222.58406,W,154045.00,A,A*73
\c:1597505979963*68\$GPRMC,154046.00,A,4729.97674,N,00222.58403,W,0.016,,150820,,,A*62
\c:1597505980036*67\$GPVTG,,T,,M,0.016,N,0.030,K,A*27
\c:1597505980188*63\$GPGGA,154046.00,4729.97674,N,00222.58403,W,1,09,0.99,3.4,M,48.7,M,,*42
\c:1597505980313*63\$GPGSA,A,3,03,04,17,19,22,31,09,01,06,,,,2.07,0.99,1.82*09
\c:1597505980455*66\$GPGSV,3,1,11,01,22,134,35,02,05,311,,03,51,071,48,04,73,133,45*73
\c:1597505980596*68\$GPGSV,3,2,11,06,41,306,45,09,46,203,48,12,02,326,,17,42,240,48*75
\c:1597505980714*60\$GPGSV,3,3,11,19,45,267,48,22,31,083,42,31,13,038,35*4D
\c:1597505980823*6B\$GPGLL,4729.97674,N,00222.58403,W,154046.00,A,A*72
\c:1597505980965*68\$GPRMC,154047.00,A,4729.97675,N,00222.58400,W,0.030,,150820,,,A*65
\c:1597505981038*68\$GPVTG,,T,,M,0.030,N,0.055,K,A*20
\c:1597505981189*63\$GPGGA,154047.00,4729.97675,N,00222.58400,W,1,09,0.99,3.4,M,48.7,M,,*41
\c:1597505981314*65\$GPGSA,A,3,03,04,17,19,22,31,09,01,06,,,,2.07,0.99,1.82*09
\c:1597505981455*67\$GPGSV,3,1,11,01,22,134,35,02,05,311,,03,51,071,48,04,73,133,46*70
\c:1597505981597*68\$GPGSV,3,2,11,06,41,306,45,09,46,203,48,12,02,326,,17,42,240,48*75
\c:1597505981716*63\$GPGSV,3,3,11,19,45,267,47,22,31,083,41,31,13,038,35*41
\c:1597505981824*6D\$GPGLL,4729.97675,N,00222.58400,W,154047.00,A,A*71
\c:1597505981966*6A\$GPRMC,154048.00,A,4729.97679,N,00222.58398,W,0.050,,150820,,,A*66
\c:1597505982039*6A\$GPVTG,,T,,M,0.050,N,0.093,K,A*2C
\c:1597505982191*69\$GPGGA,154048.00,4729.97679,N,00222.58398,W,1,09,0.99,3.3,M,48.7,M,,*43
\c:1597505982316*64\$GPGSA,A,3,03,04,17,19,22,31,09,01,06,,,,2.07,0.99,1.82*09
\c:1597505982457*66\$GPGSV,3,1,11,01,22,134,35,02,05,311,,03,51,071,48,04,73,133,46*70
\c:1597505982599*65\$GPGSV,3,2,11,06,41,306,46,09,46,203,48,12,02,326,,17,42,240,48*76
\c:1597505982717*61\$GPGSV,3,3,11,19,45,267,47,22,31,083,41,31,13,038,31*45
\c:1597505982826*6C\$GPGLL,4729.97679,N,00222.58398,W,154048.00,A,A*74
\c:1597505982967*68\$GPRMC,154049.00,A,4729.97682,N,00222.58397,W,0.031,,150820,,,A*6B
\c:1597505983040*65\$GPVTG,,T,,M,0.031,N,0.058,K,A*2C
\c:1597505983192*6B\$GPGGA,154049.00,4729.97682,N,00222.58397,W,1,09,0.99,3.2,M,48.7,M,,*48
\c:1597505983317*64\$GPGSA,A,3,03,04,17,19,22,31,09,01,06,,,,2.07,0.99,1.82*09
\c:1597505983459*69\$GPGSV,3,1,11,01,22,134,36,02,05,311,,03,51,071,48,04,73,133,46*73
\c:1597505983600*67\$GPGSV,3,2,11,06,41,306,47,09,46,203,48,12,02,326,,17,42,240,49*76
\c:1597505983719*6E\$GPGSV,3,3,11,19,45,267,48,22,31,083,40,31,13,038,33*49
\c:1597505983828*63\$GPGLL,4729.97682,N,00222.58397,W,154049.00,A,A*7E
\c:1597505983969*67\$GPRMC,154050.00,A,4729.97685,N,00222.58394,W,0.029,,150820,,,A*6E
\c:1597505984042*60\$GPVTG,,T,,M,0.029,N,0.054,K,A*29
\c:1597505984193*6D\$GPGGA,154050.00,4729.97685,N,00222.58394,W,1,09,0.99,3.1,M,48.7,M,,*47
\c:1597505984318*6C\$GPGSA,A,3,03,04,17,19,22,31,09,01,06,,,,2.07,0.99,1.82*09
\c:1597505984461*65\$GPGSV,3,1,11,01,22,134,33,02,05,311,,03,51,071,47,04,73,133,46*79
\c:1597505984602*62\$GPGSV,3,2,11,06,41,306,47,09,46,203,46,12,02,326,,17,42,240,49*78
\c:1597505984720*63\$GPGSV,3,3,11,19,45,267,48,22,31,083,41,31,13,038,31*4A
\c:1597505984829*65\$GPGLL,4729.97685,N,00222.58394,W,154050.00,A,A*72
\c:1597505984970*68\$GPRMC,154051.00,A,4729.97685,N,00222.58390,W,0.033,,150820,,,A*60
\c:1597505985043*60\$GPVTG,,T,,M,0.033,N,0.061,K,A*24
\c:1597505985195*6A\$GPGGA,154051.00,4729.97685,N,00222.58390,W,1,09,0.99,3.0,M,48.7,M,,*43
\c:1597505985320*66\$GPGSA,A,3,03,04,17,19,22,31,09,01,06,,,,2.07,0.99,1.82*09
\c:1597505985462*67\$GPGSV,3,1,11,01,22,134,37,02,05,311,,03,51,071,47,04,73,133,45*7E
\c:1597505985603*62\$GPGSV,3,2,11,06,41,306,47,09,46,203,46,12,02,326,,17,42,240,48*79
\c:1597505985721*63\$GPGSV,3,3,11,19,45,267,47,22,31,083,42,31,13,038,33*44
\c:1597505985830*6C\$GPGLL,4729.97685,N,00222.58390,W,154051.00,A,A*77
\c:1597505985971*68\$GPRMC,154052.00,A,4729.97685,N,00222.58386,W,0.025,,150820,,,A*63
\c:1597505986044*64\$GPVTG,,T,,M,0.025,N,0.047,K,A*27
\c:1597505986196*6A\$GPGGA,154052.00,4729.97685,N,00222.58386,W,1,09,0.99,3.0,M,48.7,M,,*47
\c:1597505986321*64\$GPGSA,A,3,03,04,17,19,22,31,09,01,06,,,,2.07,0.99,1.82*09
\c:1597505986463*65\$GPGSV,3,1,11,01,22,134,36,02,05,311,,03,51,071,48,04,73,133,46*73
\c:1597505986604*66\$GPGSV,3,2,11,06,41,306,48,09,46,203,46,12,02,326,,17,42,240,48*76
\c:1597505986724*65\$GPGSV,3,3,11,19,45,267,47,22,31,083,42,31,13,038,36*41
\c:1597505986832*6D\$GPGLL,4729.97685,N,00222.58386,W,154052.00,A,A*73
\c:1597505986973*69\$GPRMC,154053.00,A,4729.97686,N,00222.58382,W,0.031,,150820,,,A*60
\c:1597505987046*67\$GPVTG,,T,,M,0.031,N,0.058,K,A*2C
\c:1597505987199*64\$GPGGA,154053.00,4729.97686,N,00222.58382,W,1,09,0.99,2.9,M,48.7,M,,*49
\c:1597505987324*60\$GPGSA,A,3,03,04,17,19,22,31,09,01,06,,,,2.07,0.99,1.82*09
\c:1597505987465*62\$GPGSV,3,1,11,01,22,134,35,02,05,311,,03,51,071,48,04,73,133,46*70
\c:1597505987606*65\$GPGSV,3,2,11,06,41,306,47,09,46,203,46,12,02,326,,17,42,240,48*79
\c:1597505987725*65\$GPGSV,3,3,11,19,45,267,47,22,31,083,40,31,13,038,36*43
\c:1597505987833*6D\$GPGLL,4729.97686,N,00222.58382,W,154053.00,A,A*75
\c:1597505987975*6E\$GPRMC,154054.00,A,4729.97686,N,00222.58378,W,0.053,,150820,,,A*66
\c:1597505988047*69\$GPVTG,,T,,M,0.053,N,0.099,K,A*25
\c:1597505988200*68\$GPGGA,154054.00,4729.97686,N,00222.58378,W,1,09,0.99,2.9,M,48.7,M,,*4B
\c:1597505988325*6E\$GPGSA,A,3,03,04,17,19,22,31,09,01,06,,,,2.07,0.99,1.82*09
\c:1597505988466*6E\$GPGSV,3,1,11,01,22,134,37,02,05,311,,03,51,071,48,04,73,133,46*72
\c:1597505988608*64\$GPGSV,3,2,11,06,41,306,48,09,46,203,46,12,02,326,,17,42,240,47*79
\c:1597505988727*68\$GPGSV,3,3,11,19,45,267,48,22,31,083,42,31,13,038,37*4F
\c:1597505988834*65\$GPGLL,4729.97686,N,00222.58378,W,154054.00,A,A*77
\c:1597505988977*63\$GPRMC,154055.00,A,4729.97685,N,00222.58376,W,0.014,,150820,,,A*69
\c:1597505989049*66\$GPVTG,,T,,M,0.014,N,0.026,K,A*22
\c:1597505989201*68\$GPGGA,154055.00,4729.97685,N,00222.58376,W,1,09,0.99,2.9,M,48.7,M,,*47
\c:1597505989326*6C\$GPGSA,A,3,03,04,17,19,22,31,09,01,06,,,,2.07,0.99,1.82*09
\c:1597505989467*6E\$GPGSV,3,1,11,01,22,134,36,02,05,311,,03,51,071,48,04,73,133,46*73
\c:1597505989610*6C\$GPGSV,3,2,11,06,41,306,47,09,46,203,46,12,02,326,,17,42,240,47*76
\c:1597505989728*66\$GPGSV,3,3,11,19,45,267,48,22,31,083,42,31,13,038,34*4C
\c:1597505989836*66\$GPGLL,4729.97685,N,00222.58376,W,154055.00,A,A*7B
\c:1597505989978*6D\$GPRMC,154056.00,A,4729.97684,N,00222.58374,W,0.020,,150820,,,A*6E
\c:1597505990051*67\$GPVTG,,T,,M,0.020,N,0.037,K,A*25
\c:1597505990203*62\$GPGGA,154056.00,4729.97684,N,00222.58374,W,1,09,0.99,2.9,M,48.7,M,,*47
\c:1597505990328*6A\$GPGSA,A,3,03,04,17,19,22,31,09,01,06,,,,2.07,0.99,1.81*0A
\c:1597505990469*68\$GPGSV,3,1,11,01,22,134,37,02,05,311,,03,51,071,48,04,73,133,46*72
\c:1597505990611*65\$GPGSV,3,2,11,06,41,306,46,09,46,203,47,12,02,326,,17,42,240,47*76
\c:1597505990729*6F\$GPGSV,3,3,11,19,45,267,48,22,31,083,43,31,13,038,35*4C
\c:1597505990837*6F\$GPGLL,4729.97684,N,00222.58374,W,154056.00,A,A*7B
\c:1597505990979*64\$GPRMC,154057.00,A,4729.97683,N,00222.58373,W,0.014,,150820,,,A*68
\c:1597505991053*64\$GPVTG,,T,,M,0.014,N,0.025,K,A*21
\c:1597505991204*64\$GPGGA,154057.00,4729.97683,N,00222.58373,W,1,09,0.99,2.9,M,48.7,M,,*46
\c:1597505991329*6A\$GPGSA,A,3,03,04,17,19,22,31,09,01,06,,,,2.07,0.99,1.81*0A
\c:1597505991476*67\$GPGSV,3,1,11,01,22,134,36,02,05,311,28,03,51,071,49,04,73,133,46*78
\c:1597505991616*63\$GPGSV,3,2,11,06,41,306,47,09,46,203,46,12,02,326,,17,42,240,47*76
\c:1597505991735*63\$GPGSV,3,3,11,19,45,267,48,22,31,083,42,31,13,038,37*4F
\c:1597505991844*6A\$GPGLL,4729.97683,N,00222.58373,W,154057.00,A,A*7A
\c:1597505991985*66\$GPRMC,154058.00,A,4729.97683,N,00222.58372,W,0.010,,150820,,,A*62
\c:1597505992058*6C\$GPVTG,,T,,M,0.010,N,0.018,K,A*2B
\c:1597505992210*62\$GPGGA,154058.00,4729.97683,N,00222.58372,W,1,09,0.99,3.0,M,48.7,M,,*40
\c:1597505992335*64\$GPGSA,A,3,03,04,17,19,22,31,09,01,06,,,,2.07,0.99,1.81*0A
\c:1597505992481*6C\$GPGSV,3,1,11,01,22,134,36,02,05,311,28,03,51,071,49,04,73,133,47*79
\c:1597505992622*67\$GPGSV,3,2,11,06,41,306,47,09,46,203,47,12,02,326,,17,42,240,46*76
\c:1597505992741*63\$GPGSV,3,3,11,19,45,267,47,22,31,083,42,31,13,038,37*40
\c:1597505992849*64\$GPGLL,4729.97683,N,00222.58372,W,154058.00,A,A*74
\c:1597505992990*61\$GPRMC,154059.00,A,4729.97682,N,00222.58368,W,0.020,,150820,,,A*6A
\c:1597505993063*65\$GPVTG,,T,,M,0.020,N,0.037,K,A*25
\c:1597505993215*66\$GPGGA,154059.00,4729.97682,N,00222.58368,W,1,09,0.99,3.1,M,48.7,M,,*4A
\c:1597505993340*67\$GPGSA,A,3,03,04,17,19,22,31,09,01,06,,,,2.07,0.99,1.81*0A
\c:1597505993486*6A\$GPGSV,3,1,11,01,22,134,35,02,05,311,28,03,51,071,49,04,73,133,46*7B
\c:1597505993627*63\$GPGSV,3,2,11,06,41,306,47,09,46,203,47,12,02,326,,17,42,240,46*76
\c:1597505993747*64\$GPGSV,3,3,11,19,45,267,48,22,31,083,41,31,13,038,37*4C
\c:1597505993855*68\$GPGLL,4729.97682,N,00222.58368,W,154059.00,A,A*7F
\c:1597505993997*67\$GPRMC,154100.00,A,4729.97681,N,00222.58364,W,0.018,,150820,,,A*63
\c:1597505994069*68\$GPVTG,,T,,M,0.018,N,0.033,K,A*2A
\c:1597505994222*65\$GPGGA,154100.00,4729.97681,N,00222.58364,W,1,09,0.99,3.2,M,48.7,M,,*4B
\c:1597505994347*67\$GPGSA,A,3,03,04,17,19,22,31,09,01,06,,,,2.06,0.99,1.81*0B
\c:1597505994492*68\$GPGSV,3,1,11,01,22,134,36,02,05,311,27,03,51,071,49,04,73,133,46*77
\c:1597505994634*66\$GPGSV,3,2,11,06,41,306,46,09,46,203,47,12,02,326,,17,42,240,46*77
\c:1597505994752*67\$GPGSV,3,3,11,19,45,267,47,22,31,083,42,31,13,038,36*41
\c:1597505994860*69\$GPGLL,4729.97681,N,00222.58364,W,154100.00,A,A*7D
\c:1597505995002*64\$GPRMC,154101.00,A,4729.97680,N,00222.58361,W,0.013,,150820,,,A*6D
\c:1597505995075*64\$GPVTG,,T,,M,0.013,N,0.024,K,A*27
\c:1597505995227*61\$GPGGA,154101.00,4729.97680,N,00222.58361,W,1,09,0.99,3.2,M,48.7,M,,*4E
\c:1597505995352*62\$GPGSA,A,3,03,04,17,19,22,31,09,01,06,,,,2.06,0.99,1.81*0B
\c:1597505995498*63\$GPGSV,3,1,11,01,22,134,35,02,05,311,27,03,51,071,49,04,73,133,46*74
\c:1597505995639*6A\$GPGSV,3,2,11,06,41,306,46,09,46,203,47,12,02,326,,17,42,240,46*77
\c:1597505995758*6C\$GPGSV,3,3,11,19,45,267,47,22,31,083,41,31,13,038,37*43
\c:1597505995867*6F\$GPGLL,4729.97680,N,00222.58361,W,154101.00,A,A*78
\c:1597505996008*6D\$GPRMC,154102.00,A,4729.97680,N,00222.58358,W,0.013,,150820,,,A*64
\c:1597505996081*6C\$GPVTG,,T,,M,0.013,N,0.024,K,A*27
\c:1597505996232*66\$GPGGA,154102.00,4729.97680,N,00222.58358,W,1,09,0.99,3.2,M,48.7,M,,*47
\c:1597505996357*64\$GPGSA,A,3,03,04,17,19,22,31,09,01,06,,,,2.06,0.99,1.81*0B
\c:1597505996504*64\$GPGSV,3,1,11,01,22,134,37,02,05,311,27,03,51,071,48,04,73,133,46*77
\c:1597505996645*62\$GPGSV,3,2,11,06,41,306,45,09,46,203,46,12,02,326,,17,42,240,45*76
\c:1597505996763*67\$GPGSV,3,3,11,19,45,267,47,22,31,083,41,31,13,038,36*42
\c:1597505996872*68\$GPGLL,4729.97680,N,00222.58358,W,154102.00,A,A*71
\c:1597505997013*66\$GPRMC,154103.00,A,4729.97679,N,00222.58356,W,0.007,,150820,,,A*68
\c:1597505997086*6A\$GPVTG,,T,,M,0.007,N,0.014,K,A*21
\c:1597505997238*6D\$GPGGA,154103.00,4729.97679,N,00222.58356,W,1,09,0.99,3.1,M,48.7,M,,*4D
\c:1597505997363*62\$GPGSA,A,3,03,04,17,19,22,31,09,01,06,,,,2.06,0.99,1.81*0B
\c:1597505997509*68\$GPGSV,3,1,11,01,22,134,35,02,05,311,28,03,51,071,50,04,73,133,47*72
\c:1597505997650*67\$GPGSV,3,2,11,06,41,306,46,09,46,203,47,12,02,326,,17,42,240,46*77
\c:1597505997770*64\$GPGSV,3,3,11,19,45,267,48,22,31,083,42,31,13,038,38*40
\c:1597505997878*63\$GPGLL,4729.97679,N,00222.58356,W,154103.00,A,A*78
\c:1597505998019*63\$GPRMC,154104.00,A,4729.97679,N,00222.58354,W,0.039,,150820,,,A*60
\c:1597505998092*60\$GPVTG,,T,,M,0.039,N,0.072,K,A*2C
\c:1597505998243*6E\$GPGGA,154104.00,4729.97679,N,00222.58354,W,1,09,0.99,3.1,M,48.7,M,,*48
\c:1597505998369*67\$GPGSA,A,3,03,04,17,19,22,31,09,01,06,,,,2.06,0.99,1.81*0B
\c:1597505998515*6A\$GPGSV,3,1,11,01,22,134,37,02,05,311,27,03,51,071,49,04,73,133,46*76
\c:1597505998656*6E\$GPGSV,3,2,11,06,41,306,45,09,46,203,47,12,02,326,,17,42,240,46*74
\c:1597505998775*6E\$GPGSV,3,3,11,19,45,267,48,22,31,083,42,31,13,038,38*40
\c:1597505998883*68\$GPGLL,4729.97679,N,00222.58354,W,154104.00,A,A*7D
\c:1597505999025*6D\$GPRMC,154105.00,A,4729.97678,N,00222.58352,W,0.018,,150820,,,A*65
\c:1597505999097*64\$GPVTG,,T,,M,0.018,N,0.033,K,A*2A
\c:1597505999250*6D\$GPGGA,154105.00,4729.97678,N,00222.58352,W,1,09,0.99,3.0,M,48.7,M,,*4F
\c:1597505999375*6B\$GPGSA,A,3,03,04,17,19,22,31,09,01,06,,,,2.06,0.99,1.81*0B
\c:1597505999520*6D\$GPGSV,3,1,11,01,22,134,35,02,05,311,29,03,51,071,49,04,73,133,47*7B
\c:1597505999662*68\$GPGSV,3,2,11,06,41,306,46,09,46,203,47,12,02,326,,17,42,240,46*77
\c:1597505999781*64\$GPGSV,3,3,11,19,45,267,48,22,31,083,42,31,13,038,36*4E
\c:1597505999888*62\$GPGLL,4729.97678,N,00222.58352,W,154105.00,A,A*7B
\c:1597506000031*62\$GPRMC,154106.00,A,4729.97677,N,00222.58348,W,0.048,,150820,,,A*67
\c:1597506000104*65\$GPVTG,,T,,M,0.048,N,0.089,K,A*2E
\c:1597506000255*62\$GPGGA,154106.00,4729.97677,N,00222.58348,W,1,09,0.99,2.9,M,48.7,M,,*40
\c:1597506000380*6B\$GPGSA,A,3,03,04,17,19,22,31,09,01,06,,,,2.06,0.99,1.81*0B
\c:1597506000526*61\$GPGSV,3,1,11,01,22,134,35,02,05,311,30,03,51,071,50,04,73,133,47*7B
\c:1597506000668*68\$GPGSV,3,2,11,06,41,306,46,09,46,203,48,12,02,326,,17,42,240,46*78
\c:1597506000786*69\$GPGSV,3,3,11,19,45,267,47,22,31,083,41,31,13,037,36*4D
\c:1597506000895*64\$GPGLL,4729.97677,N,00222.58348,W,154106.00,A,A*7C
\c:1597506001036*64\$GPRMC,154107.00,A,4729.97676,N,00222.58347,W,0.009,,150820,,,A*6D
\c:1597506001109*69\$GPVTG,,T,,M,0.009,N,0.017,K,A*2C
\c:1597506001261*64\$GPGGA,154107.00,4729.97676,N,00222.58347,W,1,09,0.99,2.8,M,48.7,M,,*4E
\c:1597506001386*6C\$GPGSA,A,3,03,04,17,19,22,31,09,01,06,,,,2.06,0.99,1.81*0B
\c:1597506001532*65\$GPGSV,3,1,11,01,22,134,34,02,05,311,31,03,51,071,50,04,73,133,47*7B
\c:1597506001673*63\$GPGSV,3,2,11,06,41,306,45,09,46,203,48,12,02,326,,17,42,240,46*7B
\c:1597506001791*6E\$GPGSV,3,3,11,19,45,267,48,22,31,083,43,31,13,037,37*41
\c:1597506001900*68\$GPGLL,4729.97676,N,00222.58347,W,154107.00,A,A*73
\c:1597506002042*64\$GPRMC,154108.00,A,4729.97675,N,00222.58345,W,0.019,,150820,,,A*62
\c:1597506002115*67\$GPVTG,,T,,M,0.019,N,0.035,K,A*2D
\c:1597506002266*60\$GPGGA,154108.00,4729.97675,N,00222.58345,W,1,09,0.99,2.7,M,48.7,M,,*4F
\c:1597506002391*69\$GPGSA,A,3,03,04,17,19,22,31,09,01,06,,,,2.06,0.99,1.81*0B
\c:1597506002538*6C\$GPGSV,3,1,11,01,22,134,34,02,05,311,30,03,51,071,49,04,73,133,46*73
\c:1597506002679*6A\$GPGSV,3,2,11,06,41,306,47,09,46,203,48,12,02,326,,17,42,240,46*79
\c:1597506002798*64\$GPGSV,3,3,11,19,45,267,47,22,31,083,41,31,13,037,37*4C
\c:1597506002906*6D\$GPGLL,4729.97675,N,00222.58345,W,154108.00,A,A*7D
\c:1597506003047*60\$GPRMC,154109.00,A,4729.97674,N,00222.58342,W,0.052,,150820,,,A*6A
\c:1597506003120*60\$GPVTG,,T,,M,0.052,N,0.097,K,A*2A
\c:1597506003272*64\$GPGGA,154109.00,4729.97674,N,00222.58342,W,1,09,0.99,2.6,M,48.7,M,,*49
\c:1597506003397*6E\$GPGSA,A,3,03,04,17,19,22,31,09,01,06,,,,2.06,0.99,1.81*0B
\c:1597506003543*61\$GPGSV,3,1,11,01,22,134,34,02,05,311,31,03,51,071,49,04,73,133,47*73
\c:1597506003684*69\$GPGSV,3,2,11,06,41,306,45,09,46,203,47,12,02,326,,17,42,240,46*74
\c:1597506003804*6F\$GPGSV,3,3,11,19,45,267,48,22,31,083,42,31,13,037,37*40
\c:1597506003911*6A\$GPGLL,4729.97674,N,00222.58342,W,154109.00,A,A*7A
\c:1597506004054*65\$GPRMC,154110.00,A,4729.97674,N,00222.58339,W,0.037,,150820,,,A*6D
\c:1597506004126*61\$GPVTG,,T,,M,0.037,N,0.069,K,A*28
\c:1597506004278*69\$GPGGA,154110.00,4729.97674,N,00222.58339,W,1,09,0.99,2.5,M,48.7,M,,*4E
\c:1597506004403*63\$GPGSA,A,3,03,04,17,19,22,31,09,01,06,,,,2.06,0.99,1.81*0B
\c:1597506004548*6D\$GPGSV,3,1,11,01,22,134,34,02,05,311,27,03,51,071,48,04,73,133,47*75
\c:1597506004691*6A\$GPGSV,3,2,11,06,41,306,45,09,46,203,48,12,02,326,,17,42,240,46*7B
\c:1597506004809*65\$GPGSV,3,3,11,19,45,267,48,22,31,083,42,31,13,037,37*40
\c:1597506004917*6B\$GPGLL,4729.97674,N,00222.58339,W,154110.00,A,A*7E
\c:1597506005059*69\$GPRMC,154111.00,A,4729.97672,N,00222.58335,W,0.037,,150820,,,A*66
\c:1597506005132*65\$GPVTG,,T,,M,0.037,N,0.069,K,A*28
\c:1597506005284*6B\$GPGGA,154111.00,4729.97672,N,00222.58335,W,1,09,0.99,2.3,M,48.7,M,,*43
\c:1597506005409*68\$GPGSA,A,3,03,04,17,19,22,31,09,01,06,,,,2.06,0.99,1.81*0B
\c:1597506005555*60\$GPGSV,3,1,11,01,22,134,34,02,05,311,28,03,51,071,50,04,73,133,47*73
\c:1597506005696*6C\$GPGSV,3,2,11,06,41,306,44,09,46,203,47,12,02,326,,17,42,240,46*75
\c:1597506005814*68\$GPGSV,3,3,11,19,45,267,48,22,31,083,42,31,13,037,37*40
\c:1597506005923*6D\$GPGLL,4729.97672,N,00222.58335,W,154111.00,A,A*75
\c:1597506006064*64\$GPRMC,154112.00,A,4729.97671,N,00222.58333,W,0.015,,150820,,,A*60
\c:1597506006137*63\$GPVTG,,T,,M,0.015,N,0.028,K,A*2D
\c:1597506006289*65\$GPGGA,154112.00,4729.97671,N,00222.58333,W,1,09,0.99,2.1,M,48.7,M,,*47
\c:1597506006414*67\$GPGSA,A,3,03,04,17,19,22,31,09,01,06,,,,2.06,0.99,1.81*0B
\c:1597506006560*65\$GPGSV,3,1,11,01,22,134,37,02,05,311,29,03,51,071,49,04,73,133,47*79
\c:1597506006701*60\$GPGSV,3,2,11,06,41,306,44,09,46,203,47,12,02,326,,17,42,240,46*75
\c:1597506006820*6C\$GPGSV,3,3,11,19,45,267,48,22,31,083,42,31,13,037,35*42
\c:1597506006929*64\$GPGLL,4729.97671,N,00222.58333,W,154112.00,A,A*73
\c:1597506007070*60\$GPRMC,154113.00,A,4729.97670,N,00222.58331,W,0.013,,150820,,,A*64
\c:1597506007143*61\$GPVTG,,T,,M,0.013,N,0.024,K,A*27
\c:1597506007295*69\$GPGGA,154113.00,4729.97670,N,00222.58331,W,1,09,0.99,2.0,M,48.7,M,,*44
\c:1597506007420*61\$GPGSA,A,3,03,04,17,19,22,31,09,01,06,,,,2.06,0.99,1.81*0B
\c:1597506007566*62\$GPGSV,3,1,11,01,22,134,35,02,05,311,29,03,51,071,50,04,73,133,47*73
\c:1597506007707*67\$GPGSV,3,2,11,06,41,306,46,09,46,203,48,12,02,326,,17,42,240,47*79
\c:1597506007827*6A\$GPGSV,3,3,11,19,45,267,48,22,31,083,40,31,13,037,33*46
\c:1597506007934*69\$GPGLL,4729.97670,N,00222.58331,W,154113.00,A,A*71
\c:1597506008075*6A\$GPRMC,154114.00,A,4729.97670,N,00222.58330,W,0.013,,150820,,,A*62
\c:1597506008148*65\$GPVTG,,T,,M,0.013,N,0.024,K,A*27
\c:1597506008300*6B\$GPGGA,154114.00,4729.97670,N,00222.58330,W,1,09,0.99,1.8,M,48.7,M,,*49
\c:1597506008425*6B\$GPGSA,A,3,03,04,17,19,22,31,09,01,06,,,,2.06,0.99,1.81*0B
\c:1597506008571*6B\$GPGSV,3,1,11,01,22,134,36,02,05,311,28,03,51,071,49,04,73,133,47*79
\c:1597506008712*6C\$GPGSV,3,2,11,06,41,306,44,09,46,203,48,12,02,326,,17,42,240,46*7A
\c:1597506008832*61\$GPGSV,3,3,11,19,45,267,48,22,31,083,42,31,13,037,36*41
\c:1597506008940*65\$GPGLL,4729.97670,N,00222.58330,W,154114.00,A,A*77
\c:1597506009082*63\$GPRMC,154115.00,A,4729.97670,N,00222.58328,W,0.008,,150820,,,A*60
\c:1597506009154*69\$GPVTG,,T,,M,0.008,N,0.014,K,A*2E
\c:1597506009307*6D\$GPGGA,154115.00,4729.97670,N,00222.58328,W,1,09,0.99,1.7,M,48.7,M,,*4E
\c:1597506009431*6F\$GPGSA,A,3,03,04,17,19,22,31,09,01,06,,,,2.06,0.99,1.81*0B
\c:1597506009578*63\$GPGSV,3,1,11,01,22,134,35,02,05,311,28,03,51,071,49,04,73,133,47*7A
\c:1597506009719*66\$GPGSV,3,2,11,06,41,306,46,09,46,203,48,12,02,326,,17,42,240,46*78
\c:1597506009837*65\$GPGSV,3,3,11,19,45,267,47,22,31,083,40,31,13,037,33*49
\c:1597506009946*62\$GPGLL,4729.97670,N,00222.58328,W,154115.00,A,A*7F
\c:1597506010087*6E\$GPRMC,154116.00,A,4729.97669,N,00222.58326,W,0.009,,150820,,,A*64
\c:1597506010160*66\$GPVTG,,T,,M,0.009,N,0.017,K,A*2C
\c:1597506010312*61\$GPGGA,154116.00,4729.97669,N,00222.58326,W,1,09,0.99,1.5,M,48.7,M,,*49
\c:1597506010437*61\$GPGSA,A,3,03,04,17,19,22,31,09,01,06,,,,2.06,0.99,1.81*0B
\c:1597506010583*6F\$GPGSV,3,1,11,01,22,134,37,02,05,311,27,03,51,071,49,04,73,133,46*76
\c:1597506010724*60\$GPGSV,3,2,11,06,41,306,44,09,46,203,47,12,02,326,,17,42,240,45*76
\c:1597506010844*69\$GPGSV,3,3,11,19,45,267,47,22,31,083,41,31,13,037,33*48
\c:1597506010952*6F\$GPGLL,4729.97669,N,00222.58326,W,154116.00,A,A*7A
