\c:1591297063105*68\$GPVTG,99.8,T,101.8,M,0.0,N,0.0,K*7E
\c:1591297063142*6B\$GPRTE,1,1,c,*37
\c:1591297064479*61\$GPRMB,A,,,,,,,,,,,,V,A*1C
\c:1591297064620*6F\$GPGGA,185744,4452.1262,N,00042.5909,W,1,12,0.9,46.3,M,49.8,M,,*66
\c:1591297064752*6B\$GPGSA,A,3,01,03,04,11,14,17,19,22,28,31,32,43,1.4,0.9,1.1*3D
\c:1591297064897*6D\$GPGSV,3,2,12,14,26,047,00,17,42,304,00,19,23,317,00,22,65,053,00*77
\c:1591297064995*6E\$GPGLL,4452.1262,N,00042.5909,W,185744,A,A*5D
\c:1591297065035*6C\$GPBOD,,T,,M,,*47
\c:1591297065114*6E\$GPVTG,99.8,T,101.8,M,0.0,N,0.0,K*7E
\c:1591297065151*6F\$GPRTE,1,1,c,*37
\c:1591297066393*60\$GPRMC,185746,A,4452.1262,N,00042.5909,W,0.0,99.8,030119,2.0,W,A*21
\c:1591297066452*6A\$GPRMB,A,,,,,,,,,,,,V,A*1C
\c:1591297066594*61\$GPGGA,185746,4452.1262,N,00042.5909,W,1,12,0.9,46.3,M,49.8,M,,*64
\c:1591297066725*69\$GPGSA,A,3,01,03,04,11,14,17,19,22,28,31,32,43,1.4,0.9,1.1*3D
\c:1591297066871*67\$GPGSV,3,3,12,28,14,259,00,31,10,080,00,32,08,036,00,43,36,199,00*7F
\c:1591297066968*6E\$GPGLL,4452.1262,N,00042.5909,W,185746,A,A*5F
\c:1591297067008*60\$GPBOD,,T,,M,,*47
\c:1591297067088*68\$GPVTG,99.8,T,101.8,M,0.0,N,0.0,K*7E
\c:1591297067125*6E\$GPRTE,1,1,c,*37
\c:1591297068351*60\$GPRMC,185748,A,4452.1262,N,00042.5909,W,0.0,99.8,030119,2.0,W,A*2F
\c:1591297068409*6A\$GPRMB,A,,,,,,,,,,,,V,A*1C
\c:1591297068550*67\$GPGGA,185748,4452.1262,N,00042.5909,W,1,12,0.9,46.3,M,49.8,M,,*6A
\c:1591297068682*6B\$GPGSA,A,3,01,03,04,11,14,17,19,22,28,31,32,43,1.5,0.9,1.3*3E
\c:1591297068828*65\$GPGSV,3,1,12,01,63,095,00,03,81,313,00,04,33,178,00,11,35,139,00*7C
\c:1591297068925*69\$GPGLL,4452.1262,N,00042.5909,W,185748,A,A*51
\c:1591297068965*6D\$GPBOD,,T,,M,,*47
\c:1591297069044*66\$GPVTG,99.8,T,101.8,M,0.0,N,0.0,K*7E
\c:1591297069082*6C\$GPRTE,1,1,c,*37
\c:1591297070443*6D\$GPRMC,185750,A,4452.1262,N,00042.5909,W,0.0,99.8,030119,2.0,W,A*26
\c:1591297070502*69\$GPRMB,A,,,,,,,,,,,,V,A*1C
\c:1591297070644*68\$GPGGA,185750,4452.1262,N,00042.5909,W,1,12,0.9,46.3,M,49.8,M,,*63
\c:1591297070775*6B\$GPGSA,A,3,01,03,04,11,14,17,19,22,28,31,32,43,1.5,0.9,1.3*3E
\c:1591297070921*64\$GPGSV,3,2,12,14,26,047,00,17,42,304,00,19,23,317,00,22,65,053,00*77
\c:1591297071019*67\$GPGLL,4452.1262,N,00042.5909,W,185750,A,A*58
\c:1591297071059*63\$GPBOD,,T,,M,,*47
\c:1591297071137*6A\$GPVTG,99.8,T,101.8,M,0.0,N,0.0,K*7E
\c:1591297071174*6D\$GPRTE,1,1,c,*37
\c:1591297072398*6E\$GPRMC,185752,A,4452.1262,N,00042.5909,W,0.0,99.8,030119,2.0,W,A*24
\c:1591297072457*6A\$GPRMB,A,,,,,,,,,,,,V,A*1C
\c:1591297072598*68\$GPGGA,185752,4452.1262,N,00042.5909,W,1,12,0.9,46.3,M,49.8,M,,*61
\c:1591297072730*68\$GPGSA,A,3,01,03,04,11,14,17,19,22,28,31,32,43,1.4,0.9,1.1*3D
\c:1591297072875*66\$GPGSV,3,3,12,28,14,259,00,31,10,079,00,32,08,036,00,43,36,199,00*79
\c:1591297072973*61\$GPGLL,4452.1262,N,00042.5909,W,185752,A,A*5A
\c:1591297073012*6E\$GPBOD,,T,,M,,*47
\c:1591297073091*65\$GPVTG,99.8,T,101.8,M,0.0,N,0.0,K*7E
\c:1591297073128*66\$GPRTE,1,1,c,*37
\c:1591297074400*6E\$GPRMC,185754,A,4452.1262,N,00042.5909,W,0.0,99.8,030119,2.0,W,A*22
\c:1591297074457*6C\$GPRMB,A,,,,,,,,,,,,V,A*1C
\c:1591297074600*6C\$GPGGA,185754,4452.1262,N,00042.5909,W,1,12,0.9,46.3,M,49.8,M,,*67
\c:1591297074730*6E\$GPGSA,A,3,01,03,04,11,14,17,19,22,28,31,32,43,1.4,0.9,1.1*3D
\c:1591297074876*63\$GPGSV,3,1,12,01,63,095,00,03,81,313,00,04,33,178,00,11,35,139,00*7C
\c:1591297074973*67\$GPGLL,4452.1262,N,00042.5909,W,185754,A,A*5C
\c:1591297075013*69\$GPBOD,,T,,M,,*47
\c:1591297075093*61\$GPVTG,99.8,T,101.8,M,0.0,N,0.0,K*7E
\c:1591297075130*69\$GPRTE,1,1,c,*37
\c:1591297076326*6F\$GPRMC,185756,A,4452.1262,N,00042.5907,W,0.0,99.8,030119,2.0,W,A*2E
\c:1591297076384*67\$GPRMB,A,,,,,,,,,,,,V,A*1C
\c:1591297076526*69\$GPGGA,185756,4452.1262,N,00042.5907,W,1,12,0.9,46.3,M,49.8,M,,*6B
\c:1591297076656*6D\$GPGSA,A,3,01,03,04,11,14,17,19,22,28,31,32,43,1.4,0.9,1.1*3D
\c:1591297076803*63\$GPGSV,3,2,12,14,26,047,00,17,42,304,00,19,23,317,00,22,65,053,00*77
\c:1591297076901*60\$GPGLL,4452.1262,N,00042.5907,W,185756,A,A*50
\c:1591297076940*65\$GPBOD,,T,,M,,*47
\c:1591297077019*61\$GPVTG,99.8,T,101.8,M,0.0,N,0.0,K*7E
\c:1591297077057*6B\$GPRTE,1,1,c,*37
\c:1591297078338*6E\$GPRMC,185758,A,4452.1262,N,00042.5907,W,0.0,99.8,030119,2.0,W,A*20
\c:1591297078395*69\$GPRMB,A,,,,,,,,,,,,V,A*1C
\c:1591297078538*68\$GPGGA,185758,4452.1262,N,00042.5907,W,1,12,0.9,46.3,M,49.8,M,,*65
\c:1591297078668*6E\$GPGSA,A,3,01,03,04,11,14,17,19,22,28,31,32,43,1.5,0.9,1.3*3E
\c:1591297078814*6B\$GPGSV,3,3,12,28,14,259,00,31,10,079,00,32,07,036,00,43,36,199,00*76
\c:1591297078911*6F\$GPGLL,4452.1262,N,00042.5907,W,185758,A,A*5E
\c:1591297078951*6B\$GPBOD,,T,,M,,*47
\c:1591297079031*65\$GPVTG,99.8,T,101.8,M,0.0,N,0.0,K*7E
\c:1591297079068*69\$GPRTE,1,1,c,*37
\c:1591297080418*6C\$GPRMC,185800,A,4452.1262,N,00042.5907,W,0.0,99.8,030119,2.0,W,A*22
\c:1591297080477*65\$GPRMB,A,,,,,,,,,,,,V,A*1C
\c:1591297080618*6E\$GPGGA,185800,4452.1262,N,00042.5907,W,1,12,0.9,46.3,M,49.8,M,,*67
\c:1591297080749*6B\$GPGSA,A,3,01,03,04,11,14,17,19,22,28,31,32,43,1.4,0.9,1.1*3D
\c:1591297080895*65\$GPGSV,3,1,12,01,62,096,00,03,81,316,00,04,33,178,00,11,35,139,00*7B
\c:1591297080993*62\$GPGLL,4452.1262,N,00042.5907,W,185800,A,A*5C
\c:1591297081033*60\$GPBOD,,T,,M,,*47
\c:1591297081112*62\$GPVTG,99.8,T,101.8,M,0.0,N,0.0,K*7E
\c:1591297081149*6C\$GPRTE,1,1,c,*37
\c:1591297082437*63\$GPRMC,185802,A,4452.1262,N,00042.5907,W,0.0,99.8,030119,2.0,W,A*20
\c:1591297082496*68\$GPRMB,A,,,,,,,,,,,,V,A*1C
\c:1591297082637*61\$GPGGA,185802,4452.1262,N,00042.5907,W,1,12,0.9,46.3,M,49.8,M,,*65
\c:1591297082769*6B\$GPGSA,A,3,01,03,04,11,14,17,19,22,28,31,32,43,1.5,0.9,1.3*3E
\c:1591297082915*6E\$GPGSV,3,2,12,14,26,047,00,17,42,304,00,19,23,317,00,22,65,053,00*77
\c:1591297083012*61\$GPGLL,4452.1262,N,00042.5907,W,185802,A,A*5E
\c:1591297083052*65\$GPBOD,,T,,M,,*47
\c:1591297083130*60\$GPVTG,99.8,T,101.8,M,0.0,N,0.0,K*7E
\c:1591297083168*6D\$GPRTE,1,1,c,*37
\c:1591297084356*65\$GPRMC,185804,A,4452.1262,N,00042.5907,W,0.0,99.8,030119,2.0,W,A*26
\c:1591297084414*64\$GPRMB,A,,,,,,,,,,,,V,A*1C
\c:1591297084556*63\$GPGGA,185804,4452.1262,N,00042.5907,W,1,12,1.0,46.3,M,49.8,M,,*6B
\c:1591297084688*63\$GPGSA,A,3,01,03,04,11,14,17,19,22,28,31,32,43,1.5,1.0,1.1*34
\c:1591297084833*6D\$GPGSV,3,3,12,28,14,259,00,31,10,079,00,32,07,036,00,43,36,199,00*76
\c:1591297084931*6E\$GPGLL,4452.1262,N,00042.5907,W,185804,A,A*58
\c:1591297084970*6B\$GPBOD,,T,,M,,*47
\c:1591297085049*69\$GPVTG,99.8,T,101.8,M,0.0,N,0.0,K*7E
\c:1591297085087*6B\$GPRTE,1,1,c,*37
\c:1591297086556*61\$GPRMC,185806,A,4452.1262,N,00042.5907,W,0.0,99.8,030119,2.0,W,A*24
\c:1591297086615*65\$GPRMB,A,,,,,,,,,,,,V,A*1C
\c:1591297086757*62\$GPGGA,185806,4452.1262,N,00042.5907,W,1,12,1.0,46.3,M,49.8,M,,*69
\c:1591297086888*6F\$GPGSA,A,3,01,03,04,11,14,17,19,22,28,31,32,43,1.5,1.0,1.1*34
\c:1591297087034*61\$GPGSV,3,1,12,01,62,096,00,03,81,316,00,04,33,178,00,11,35,139,00*7B
\c:1591297087132*66\$GPGLL,4452.1262,N,00042.5907,W,185806,A,A*5A
\c:1591297087171*61\$GPBOD,,T,,M,,*47
\c:1591297087251*60\$GPVTG,99.8,T,101.8,M,0.0,N,0.0,K*7E
\c:1591297087288*64\$GPRTE,1,1,c,*37
\c:1591297088420*6F\$GPRMC,185808,A,4452.1262,N,00042.5907,W,0.0,99.8,030119,2.0,W,A*2A
\c:1591297088479*63\$GPRMB,A,,,,,,,,,,,,V,A*1C
\c:1591297088620*6D\$GPGGA,185808,4452.1262,N,00042.5907,W,1,12,1.0,46.3,M,49.8,M,,*67
\c:1591297088751*6A\$GPGSA,A,3,01,03,04,11,14,17,19,22,28,31,32,43,1.5,1.0,1.1*34
\c:1591297088898*60\$GPGSV,3,2,12,14,26,047,00,17,42,304,00,19,23,317,00,22,65,053,00*77
\c:1591297088995*6C\$GPGLL,4452.1262,N,00042.5907,W,185808,A,A*54
\c:1591297089035*6E\$GPBOD,,T,,M,,*47
\c:1591297089113*6B\$GPVTG,99.8,T,101.8,M,0.0,N,0.0,K*7E
\c:1591297089152*6E\$GPRTE,1,1,c,*37
\c:1591297090435*62\$GPRMC,185810,A,4452.1262,N,00042.5907,W,0.0,99.8,030119,2.0,W,A*23
\c:1591297090494*69\$GPRMB,A,,,,,,,,,,,,V,A*1C
\c:1591297090636*63\$GPGGA,185810,4452.1262,N,00042.5907,W,1,12,0.9,46.3,M,49.8,M,,*66
\c:1591297090766*67\$GPGSA,A,3,01,03,04,11,14,17,19,22,28,31,32,43,1.4,0.9,1.1*3D
\c:1591297090913*6B\$GPGSV,3,3,12,28,14,259,00,31,10,079,00,32,07,036,00,43,36,199,00*76
\c:1591297091010*60\$GPGLL,4452.1262,N,00042.5907,W,185810,A,A*5D
\c:1591297091050*64\$GPBOD,,T,,M,,*47
\c:1591297091128*6A\$GPVTG,99.8,T,101.8,M,0.0,N,0.0,K*7E
\c:1591297091167*61\$GPRTE,1,1,c,*37
\c:1591297092358*6C\$GPRMC,185812,A,4452.1262,N,00042.5907,W,0.0,99.8,030119,2.0,W,A*21
\c:1591297092417*60\$GPRMB,A,,,,,,,,,,,,V,A*1C
\c:1591297092558*6A\$GPGGA,185812,4452.1262,N,00042.5907,W,1,12,0.9,46.3,M,49.8,M,,*64
\c:1591297092689*65\$GPGSA,A,3,01,03,04,11,14,17,19,22,28,31,32,43,1.4,0.9,1.1*3D
\c:1591297092836*6F\$GPGSV,3,1,12,01,62,096,00,03,81,316,00,04,33,178,00,11,35,139,00*7B
\c:1591297092933*6B\$GPGLL,4452.1262,N,00042.5907,W,185812,A,A*5F
\c:1591297092973*6F\$GPBOD,,T,,M,,*47
\c:1591297093052*64\$GPVTG,99.8,T,101.8,M,0.0,N,0.0,K*7E
\c:1591297093090*6A\$GPRTE,1,1,c,*37
\c:1591297094364*65\$GPRMC,185814,A,4452.1262,N,00042.5907,W,0.0,99.8,030119,2.0,W,A*27
\c:1591297094422*60\$GPRMB,A,,,,,,,,,,,,V,A*1C
\c:1591297094563*64\$GPGGA,185814,4452.1262,N,00042.5907,W,1,12,0.9,46.3,M,49.8,M,,*62
\c:1591297094695*6E\$GPGSA,A,3,01,03,04,11,14,17,19,22,28,31,32,43,1.4,0.9,1.1*3D
\c:1591297094840*68\$GPGSV,3,2,12,14,26,047,00,17,42,304,00,19,23,317,00,22,65,053,00*77
\c:1591297094938*66\$GPGLL,4452.1262,N,00042.5907,W,185814,A,A*59
\c:1591297094978*62\$GPBOD,,T,,M,,*47
\c:1591297095056*66\$GPVTG,99.8,T,101.8,M,0.0,N,0.0,K*7E
\c:1591297095094*68\$GPRTE,1,1,c,*37
\c:1591297096504*67\$GPRMC,185816,A,4452.1262,N,00042.5907,W,0.0,99.8,030119,2.0,W,A*25
\c:1591297096561*64\$GPRMB,A,,,,,,,,,,,,V,A*1C
\c:1591297096703*62\$GPGGA,185816,4452.1262,N,00042.5907,W,1,12,0.9,46.3,M,49.8,M,,*60
\c:1591297096835*68\$GPGSA,A,3,01,03,04,11,14,17,19,22,28,31,32,43,1.4,0.9,1.1*3D
\c:1591297096980*67\$GPGSV,3,3,12,28,14,259,00,31,10,079,00,32,07,036,00,43,36,199,00*76
\c:1591297097078*68\$GPGLL,4452.1262,N,00042.5907,W,185816,A,A*5B
\c:1591297097118*6F\$GPBOD,,T,,M,,*47
\c:1591297097196*69\$GPVTG,99.8,T,101.8,M,0.0,N,0.0,K*7E
\c:1591297097234*62\$GPRTE,1,1,c,*37
\c:1591297098346*69\$GPRMC,185818,A,4452.1262,N,00042.5907,W,0.0,99.8,030119,2.0,W,A*2B
\c:1591297098405*69\$GPRMB,A,,,,,,,,,,,,V,A*1C
\c:1591297098547*6E\$GPGGA,185818,4452.1262,N,00042.5907,W,1,12,1.0,46.3,M,49.8,M,,*66
\c:1591297098677*6E\$GPGSA,A,3,01,03,04,11,14,17,19,22,28,31,32,43,1.6,1.0,1.3*35
\c:1591297098823*61\$GPGSV,3,1,12,01,62,096,00,03,81,314,00,04,33,178,00,11,34,139,00*78
\c:1591297098922*61\$GPGLL,4452.1262,N,00042.5907,W,185818,A,A*55
\c:1591297098960*67\$GPBOD,,T,,M,,*47
\c:1591297099040*6D\$GPVTG,99.8,T,101.8,M,0.0,N,0.0,K*7E
\c:1591297099077*69\$GPRTE,1,1,c,*37
\c:1591297100369*64\$GPRMC,185820,A,4452.1262,N,00042.5907,W,0.0,99.8,030119,2.0,W,A*20
\c:1591297100427*69\$GPRMB,A,,,,,,,,,,,,V,A*1C
\c:1591297100568*63\$GPGGA,185820,4452.1262,N,00042.5907,W,1,12,0.9,46.3,M,49.8,M,,*65
\c:1591297100700*6F\$GPGSA,A,3,01,03,04,11,14,17,19,22,28,31,32,43,1.5,0.9,1.3*3E
\c:1591297100845*61\$GPGSV,3,2,12,14,26,047,00,17,42,304,00,19,23,317,00,22,65,053,00*77
\c:1591297100943*66\$GPGLL,4452.1262,N,00042.5907,W,185820,A,A*5E
\c:1591297100983*6A\$GPBOD,,T,,M,,*47
\c:1591297101061*6E\$GPVTG,99.8,T,101.8,M,0.0,N,0.0,K*7E
\c:1591297101099*69\$GPRTE,1,1,c,*37
\c:1591297102359*65\$GPRMC,185822,A,4452.1262,N,00042.5907,W,0.0,99.8,030119,2.0,W,A*22
\c:1591297102416*69\$GPRMB,A,,,,,,,,,,,,V,A*1C
\c:1591297102558*62\$GPGGA,185822,4452.1262,N,00042.5907,W,1,12,0.9,46.3,M,49.8,M,,*67
\c:1591297102689*6D\$GPGSA,A,3,01,03,04,11,14,17,19,22,28,31,32,43,1.4,0.9,1.1*3D
\c:1591297102834*65\$GPGSV,3,3,12,28,14,259,00,31,10,079,00,32,07,036,00,43,36,199,00*76
\c:1591297102933*63\$GPGLL,4452.1262,N,00042.5907,W,185822,A,A*5C
\c:1591297102972*66\$GPBOD,,T,,M,,*47
\c:1591297103051*6F\$GPVTG,99.8,T,101.8,M,0.0,N,0.0,K*7E
\c:1591297103088*6B\$GPRTE,1,1,c,*37
\c:1591297104438*63\$GPRMC,185824,A,4452.1262,N,00042.5907,W,0.0,99.8,030119,2.0,W,A*24
\c:1591297104495*64\$GPRMB,A,,,,,,,,,,,,V,A*1C
\c:1591297104637*6E\$GPGGA,185824,4452.1262,N,00042.5907,W,1,12,0.9,46.3,M,49.8,M,,*61
\c:1591297104767*6A\$GPGSA,A,3,01,03,04,11,14,17,19,22,28,31,32,43,1.4,0.9,1.1*3D
\c:1591297104914*60\$GPGSV,3,1,12,01,62,096,00,03,81,316,00,04,33,178,00,11,34,139,00*7A
\c:1591297105012*6E\$GPGLL,4452.1262,N,00042.5907,W,185824,A,A*5A
\c:1591297105053*6B\$GPBOD,,T,,M,,*47
\c:1591297105131*6E\$GPVTG,99.8,T,101.8,M,0.0,N,0.0,K*7E
\c:1591297105168*62\$GPRTE,1,1,c,*37
\c:1591297106533*6B\$GPRMC,185826,A,4452.1262,N,00042.5907,W,0.0,99.8,030119,2.0,W,A*26
\c:1591297106592*60\$GPRMB,A,,,,,,,,,,,,V,A*1C
\c:1591297106733*69\$GPGGA,185826,4452.1262,N,00042.5907,W,1,12,0.9,46.3,M,49.8,M,,*63
\c:1591297106864*64\$GPGSA,A,3,01,03,04,11,14,17,19,22,28,31,32,43,1.4,0.9,1.1*3D
\c:1591297107195*62\$GPGSV,3,2,12,14,25,046,00,17,42,304,00,19,23,31†kBB¨îæˆÃÆØÇçCåH9æÎöVOÎˆ
\c:1591297108894*65\$GPGLL,4452.1262,N,00042.5907,W,185828,A,A*56
\c:1591297108934*6E\$GPBOD,,T,,M,,*47
\c:1591297109013*63\$GPVTG,99.8,T,101.8,M,0.0,N,0.0,K*7E
\c:1591297109052*66\$GPRTE,1,1,c,*37
\c:1591297110319*62\$GPRMC,185830,A,4452.1262,N,00042.5907,W,0.0,99.8,030119,2.0,W,A*21
\c:1591297110378*65\$GPRMB,A,,,,,,,,,,,,V,A*1C
\c:1591297110518*65\$GPGGA,185830,4452.1262,N,00042.5907,W,1,12,0.9,46.3,M,49.8,M,,*64
\c:1591297110650*6A\$GPGSA,A,3,01,03,04,11,14,17,19,22,28,31,32,43,1.5,0.9,1.3*3E
\c:1591297110795*62\$GPGSV,3,1,12,01,62,096,00,03,81,314,00,04,33,178,00,11,34,139,00*78
\c:1591297110894*6C\$GPGLL,4452.1262,N,00042.5907,W,185830,A,A*5F
\c:1591297110933*60\$GPBOD,,T,,M,,*47
\c:1591297111012*6B\$GPVTG,99.8,T,101.8,M,0.0,N,0.0,K*7E
\c:1591297111049*65\$GPRTE,1,1,c,*37
\c:1591297112640*69\!V)))ecm	jbJBBow/v)
\c:1591297113116*6C\!gBXBgcB);BgBR
\c:1591297113175*69\$GPRTE,1,1,c,*37
\c:1591297114391*66\$GPRMC,185834,A,4452.1262,N,00042.5907,W,0.0,99.8,030119,2.0,W,A*25
\c:1591297114449*64\$GPRMB,A,,,,,,,,,,,,V,A*1C
\c:1591297114591*60\$GPGGA,185834,4452.1262,N,00042.5907,W,1,12,1.1,46.3,M,49.8,M,,*69
\c:1591297114722*6A\$GPGSA,A,3,01,03,04,08,11,14,17,19,22,31,32,43,1.9,1.1,1.5*3F
\c:1591297114867*64\$GPGSV,3,3,12,22,65,053,00,31,10,079,00,32,07,036,00,43,36,199,00*72
\c:1591297114966*64\$GPGLL,4452.1262,N,00042.5907,W,185834,A,A*5B
\c:1591297115006*6A\$GPBOD,,T,,M,,*47
\c:1591297115084*60\$GPVTG,99.8,T,101.8,M,0.0,N,0.0,K*7E
\c:1591297115121*6E\$GPRTE,1,1,c,*37
\c:1591297116356*6F\$GPRMC,185836,A,4452.1262,N,00042.5906,W,0.0,99.8,030119,2.0,W,A*26
\c:1591297116415*6F\$GPRMB,A,,,,,,,,,,,,V,A*1C
\c:1591297116556*69\$GPGGA,185836,4452.1262,N,00042.5906,W,1,12,0.9,46.3,M,49.8,M,,*63
\c:1591297116687*66\$GPGSA,A,3,01,03,04,11,14,17,19,22,28,31,32,49,1.4,0.9,1.1*37
\c:1591297116832*66\$GPGSV,3,1,12,01,62,096,00,03,81,316,00,04,33,178,00,11,34,139,00*7A
\c:1591297116931*64\$GPGLL,4452.1262,N,00042.5906,W,185836,A,A*58
\c:1591297116971*60\$GPBOD,,T,,M,,*47
\c:1591297117050*6B\$GPVTG,99.8,T,101.8,M,0.0,N,0.0,K*7E
\c:1591297117087*61\$GPRTE,1,1,c,*37
\c:1591297118316*65\$GPRMC,185838,A,4452.1262,N,00042.5906,W,0.0,99.8,030119,2.0,W,A*28
\c:1591297118374*61\$GPRMB,A,,,,,,,,,,,,V,A*1C
\c:1591297118516*63\$GPGGA,185838,4452.1262,N,00042.5906,W,1,12,0.9,46.3,M,49.8,M,,*6D
\c:1591297118647*64\$GPGSA,A,3,01,03,04,11,14,17,19,22,28,31,32,49,1.4,0.9,1.1*37
\c:1591297118794*6B\$GPGSV,3,2,12,14,25,046,00,17,42,303,00,19,23,317,00,22,65,054,00*75
\c:1591297118891*61\$GPGLL,4452.1262,N,00042.5906,W,185838,A,A*56
\c:1591297118931*6A\$GPBOD,,T,,M,,*47
\c:1591297119009*69\$GPVTG,99.8,T,101.8,M,0.0,N,0.0,K*7E
\c:1591297119047*63\$GPRTE,1,1,c,*37
\c:1591297120324*6F\$GPRMC,185840,A,4452.1262,N,00042.5906,W,0.0,99.8,030119,2.0,W,A*27
\c:1591297120383*62\$GPRMB,A,,,,,,,,,,,,V,A*1C
\c:1591297120525*68\$GPGGA,185840,4452.1262,N,00042.5906,W,1,12,1.0,46.3,M,49.8,M,,*6A
\c:1591297120655*6C\$GPGSA,A,3,01,03,04,08,11,14,19,22,28,31,32,49,1.5,1.0,1.1*30
\c:1591297120801*63\$GPGSV,3,3,12,28,14,259,00,31,10,079,00,32,07,036,00,49,36,199,00*7C
\c:1591297120900*63\$GPGLL,4452.1262,N,00042.5906,W,185840,A,A*59
\c:1591297120938*68\$GPBOD,,T,,M,,*47
\c:1591297121018*62\$GPVTG,99.8,T,101.8,M,0.0,N,0.0,K*7E
\c:1591297121055*6B\$GPRTE,1,1,c,*37
\c:1591297122401*6D\$GPRMC,185842,A,4452.1262,N,00042.5906,W,0.0,99.8,030119,2.0,W,A*25
\c:1591297122459*60\$GPRMB,A,,,,,,,,,,,,V,A*1C
\c:1591297122600*6E\$GPGGA,185842,4452.1262,N,00042.5906,W,1,12,1.1,46.3,M,49.8,M,,*69
\c:1591297122732*6E\$GPGSA,A,3,01,03,04,11,14,17,19,22,28,31,32,49,1.7,1.1,1.3*3F
\c:1591297122878*6F\$GPGSV,3,1,12,01,62,096,00,03,81,314,00,04,33,178,00,11,34,139,00*78
\c:1591297122975*63\$GPGLL,4452.1262,N,00042.5906,W,185842,A,A*5B
\c:1591297123015*6D\$GPBOD,,T,,M,,*47
\c:1591297123095*65\$GPVTG,99.8,T,101.8,M,0.0,N,0.0,K*7E
\c:1591297123132*69\$GPRTE,1,1,c,*37
\c:1591297124357*6F\$GPRMC,185844,A,4452.1262,N,00042.5906,W,0.0,99.8,030119,2.0,W,A*23
\c:1591297124415*6E\$GPRMB,A,,,,,,,,,,,,V,A*1C
\c:1591297124556*68\$GPGGA,185844,4452.1262,N,00042.5906,W,1,12,1.0,46.3,M,49.8,M,,*6E
\c:1591297124688*68\$GPGSA,A,3,01,03,04,11,14,17,19,22,28,31,32,49,1.5,1.0,1.1*3E
\c:1591297124833*66\$GPGSV,3,2,12,14,25,046,00,17,42,303,00,19,23,317,00,22,65,054,00*75
\c:1591297124931*65\$GPGLL,4452.1262,N,00042.5906,W,185844,A,A*5D
\c:1591297124971*61\$GPBOD,,T,,M,,*47
\c:1591297125050*6A\$GPVTG,99.8,T,101.8,M,0.0,N,0.0,K*7E
\c:1591297125087*60\$GPRTE,1,1,c,*37
\c:1591297126329*64\$GPRMC,185846,A,4452.1262,N,00042.5906,W,0.0,99.8,030119,2.0,W,A*21
\c:1591297126388*6F\$GPRMB,A,,,,,,,,,,,,V,A*1C
\c:1591297126529*62\$GPGGA,185846,4452.1262,N,00042.5906,W,1,12,1.8,46.3,M,49.8,M,,*64
\c:1591297126660*6C\$GPGSA,A,3,01,03,04,11,14,17,19,22,28,31,32,49,2.4,1.8,1.6*33
\c:1591297126805*61\$GPGSV,3,3,12,28,14,259,00,31,10,079,00,32,07,036,00,49,36,199,00*7C
\c:1591297126903*66\$GPGLL,4452.1262,N,00042.5906,W,185846,A,A*5F
\c:1591297126944*65\$GPBOD,,T,,M,,*47
\c:1591297127022*6D\$GPVTG,99.8,T,101.8,M,0.0,N,0.0,K*7E
\c:1591297127059*61\$GPRTE,1,1,c,*37
\c:1591297128311*61\$GPRMC,185848,A,4452.1262,N,00042.5906,W,0.0,99.8,030119,2.0,W,A*2F
\c:1591297128369*6E\$GPRMB,A,,,,,,,,,,,,V,A*1C
\c:1591297128510*66\$GPGGA,185848,4452.1262,N,00042.5906,W,1,12,1.1,46.3,M,49.8,M,,*63
\c:1591297128642*62\$GPGSA,A,3,01,03,04,11,14,17,19,22,28,31,32,49,1.8,1.1,1.4*37
\c:1591297128788*65\$GPGSV,3,1,12,01,62,096,00,03,81,316,00,04,33,178,00,11,34,139,00*7A
\c:1591297128885*67\$GPGLL,4452.1262,N,00042.5906,W,185848,A,A*51
\c:1591297128925*6C\$GPBOD,,T,,M,,*47
\c:1591297129005*66\$GPVTG,99.8,T,101.8,M,0.0,N,0.0,K*7E
\c:1591297129042*65\$GPRTE,1,1,c,*37
\c:1591297130467*6E\$GPRMC,185850,A,4452.1262,N,00042.5906,W,0.0,99.8,030119,2.0,W,A*26
\c:1591297130524*68\$GPRMB,A,,,,,,,,,,,,V,A*1C
\c:1591297130666*6D\$GPGGA,185850,4452.1262,N,00042.5906,W,1,12,1.1,46.3,M,49.8,M,,*6A
\c:1591297130797*62\$GPGSA,A,3,01,03,04,11,14,17,19,22,28,31,32,49,1.8,1.1,1.4*37
\c:1591297130943*65\$GPGSV,3,2,12,14,25,046,00,17,42,303,00,19,23,317,00,22,65,054,00*75
\c:1591297131041*6F\$GPGLL,4452.1262,N,00042.5906,W,185850,A,A*58
\c:1591297131080*62\$GPBOD,,T,,M,,*47
\c:1591297131160*6D\$GPVTG,99.8,T,101.8,M,0.0,N,0.0,K*7E
\c:1591297131197*65\$GPRTE,1,1,c,*37
\c:1591297132348*66\$GPRMC,185852,A,4452.1262,N,00042.5906,W,0.0,99.8,030119,2.0,W,A*24
\c:1591297132406*6B\$GPRMB,A,,,,,,,,,,,,V,A*1C
\c:1591297132547*6F\$GPGGA,185852,4452.1262,N,00042.5906,W,1,12,1.1,46.3,M,49.8,M,,*68
\c:1591297132679*61\$GPGSA,A,3,01,03,04,11,14,17,19,22,28,31,32,49,1.8,1.1,1.4*37
\c:1591297132825*66\$GPGSV,3,3,12,28,14,258,00,31,10,079,00,32,07,036,00,49,36,199,00*7D
\c:1591297132924*66\$GPGLL,4452.1262,N,00042.5906,W,185852,A,A*5A
\c:1591297132962*64\$GPBOD,,T,,M,,*47
\c:1591297133042*6E\$GPVTG,99.8,T,101.8,M,0.0,N,0.0,K*7E
\c:1591297133079*66\$GPRTE,1,1,c,*37
\c:1591297134373*68\$GPRMC,185854,A,4452.1262,N,00042.5906,W,0.0,99.8,030119,2.0,W,A*22
\c:1591297134431*69\$GPRMB,A,,,,,,,,,,,,V,A*1C
\c:1591297134573*6E\$GPGGA,185854,4452.1262,N,00042.5906,W,1,12,1.1,46.3,M,49.8,M,,*6E
\c:1591297134704*6C\$GPGSA,A,3,01,03,04,11,14,17,19,22,28,31,32,49,1.8,1.1,1.4*37
\c:1591297134849*6A\$GPGSV,3,1,12,01,62,096,00,03,81,316,00,04,33,178,00,11,34,139,00*7A
\c:1591297134948*6A\$GPGLL,4452.1262,N,00042.5906,W,185854,A,A*5C
\c:1591297134988*66\$GPBOD,,T,,M,,*47
\c:1591297135066*6E\$GPVTG,99.8,T,101.8,M,0.0,N,0.0,K*7E
\c:1591297135104*6B\$GPRTE,1,1,c,*37
\c:1591297135582*61\$GPWPL,4730.358,N,00228.640,W,POI_GO*5C
\c:1591297135583*60\$GPBWC,185855.00,4730.358,N,00228.640,W,335.7,T,,M,174.5,N,POI_GO*15
\c:1591297135583*60\$GPBWR,185855.00,4730.358,N,00228.640,W,335.1,T,,M,174.5,N,POI_GO*02
\c:1591297135583*60\$GPRMB,A,0,L,POI_GO,LauBen,4730.358,N,00228.640,W,174.5,335.7,0.0,V,%14*17
\c:1591297136344*6E\$GPRMC,185856,A,4452.1262,N,00042.5906,W,0.0,99.8,030119,2.0,W,A*20
\c:1591297136402*6B\$GPRMB,A,,,,,,,,,,,,V,A*1C
\c:1591297136544*68\$GPGGA,185856,4452.1262,N,00042.5906,W,1,12,1.1,46.3,M,49.8,M,,*6C
\c:1591297136675*69\$GPGSA,A,3,01,03,04,08,11,14,17,19,22,31,32,49,1.8,1.1,1.4*35
\c:1591297136821*66\$GPGSV,3,2,12,11,34,139,00,14,25,046,00,17,42,303,00,19,23,317,00*7B
\c:1591297136918*6D\$GPGLL,4452.1262,N,00042.5906,W,185856,A,A*5E
\c:1591297136958*69\$GPBOD,,T,,M,,*47
\c:1591297137037*68\$GPVTG,99.8,T,101.8,M,0.0,N,0.0,K*7E
\c:1591297137074*6F\$GPRTE,1,1,c,*37
\c:1591297138317*66\$GPRMC,185858,A,4452.1262,N,00042.5906,W,0.0,99.8,030119,2.0,W,A*2E
\c:1591297138375*62\$GPRMB,A,,,,,,,,,,,,V,A*1C
\c:1591297138496*68\$GPWPL,4730.358,N,00228.640,W,POI_GO*5C
\c:1591297138496*68\$GPBWC,185858.00,4730.358,N,00228.640,W,335.7,T,,M,174.5,N,POI_GO*18
\c:1591297138496*68\$GPBWR,185858.00,4730.358,N,00228.640,W,335.1,T,,M,174.5,N,POI_GO*0F
\c:1591297138497*69\$GPRMB,A,0,L,POI_GO,LauBen,4730.358,N,00228.640,W,174.5,335.7,0.0,V,%14*17
\c:1591297138517*60\$GPGGA,185858,4452.1262,N,00042.5906,W,1,12,1.1,46.3,M,49.8,M,,*62
\c:1591297138648*69\$GPGSA,A,3,01,03,04,11,14,17,19,22,28,31,32,49,1.8,1.1,1.4*37
\c:1591297138794*69\$GPGSV,3,3,12,28,14,258,00,31,10,079,00,32,07,036,00,49,36,199,00*7D
\c:1591297138891*63\$GPGLL,4452.1262,N,00042.5906,W,185858,A,A*50
\c:1591297138931*68\$GPBOD,,T,,M,,*47
\c:1591297139010*63\$GPVTG,99.8,T,101.8,M,0.0,N,0.0,K*7E
\c:1591297139048*6E\$GPRTE,1,1,c,*37
\c:1591297140376*6E\$GPRMC,185900,A,4452.1262,N,00042.5906,W,0.0,99.8,030119,2.0,W,A*22
\c:1591297140434*6F\$GPRMB,A,,,,,,,,,,,,V,A*1C
\c:1591297140576*68\$GPGGA,185900,4452.1262,N,00042.5906,W,1,12,1.1,46.3,M,49.8,M,,*6E
\c:1591297140706*6D\$GPGSA,A,3,01,03,04,11,14,17,19,22,28,31,32,49,1.8,1.1,1.4*37
\c:1591297140852*63\$GPGSV,3,1,12,01,62,096,00,03,81,316,00,04,33,178,00,11,34,139,00*7A
\c:1591297140951*61\$GPGLL,4452.1262,N,00042.5906,W,185900,A,A*5C
\c:1591297140989*64\$GPBOD,,T,,M,,*47
\c:1591297141068*63\$GPVTG,99.8,T,101.8,M,0.0,N,0.0,K*7E
\c:1591297141107*6B\$GPRTE,1,1,c,*37
\c:1591297141481*60\$GPWPL,4730.358,N,00228.640,W,POI_GO*5C
\c:1591297141523*69\$GPBWC,185901.00,4730.358,N,00228.640,W,335.7,T,,M,174.5,N,POI_GO*15
\c:1591297141523*69\$GPBWR,185901.00,4730.358,N,00228.640,W,335.1,T,,M,174.5,N,POI_GO*02
\c:1591297141524*6E\$GPRMB,A,0,L,POI_GO,LauBen,4730.358,N,00228.640,W,174.5,335.7,0.0,V,%14*17
\c:1591297142402*68\$GPRMC,185902,A,4452.1262,N,00042.5906,W,0.0,99.8,030119,2.0,W,A*20
\c:1591297142459*66\$GPRMB,A,,,,,,,,,,,,V,A*1C
\c:1591297142600*68\$GPGGA,185902,4452.1262,N,00042.5906,W,1,12,1.1,46.3,M,49.8,M,,*6C
\c:1591297142732*68\$GPGSA,A,3,01,03,04,08,11,14,17,19,22,31,32,49,1.8,1.1,1.4*35
\c:1591297142878*69\$GPGSV,3,2,12,11,34,139,00,14,25,046,00,17,42,303,00,19,23,317,00*7B
\c:1591297142975*65\$GPGLL,4452.1262,N,00042.5906,W,185902,A,A*5E
\c:1591297143015*6B\$GPBOD,,T,,M,,*47
\c:1591297143093*65\$GPVTG,99.8,T,101.8,M,0.0,N,0.0,K*7E
\c:1591297143132*6F\$GPRTE,1,1,c,*37
\c:1591297144338*60\$GPRMC,185904,A,4452.1262,N,00042.5906,W,0.0,99.8,030119,2.0,W,A*26
\c:1591297144397*65\$GPRMB,A,,,,,,,,,,,,V,A*1C
\c:1591297144490*65\$GPWPL,4730.358,N,00228.640,W,POI_GO*5C
\c:1591297144492*67\$GPBWC,185904.00,4730.358,N,00228.640,W,335.7,T,,M,174.5,N,POI_GO*10
\c:1591297144492*67\$GPBWR,185904.00,4730.358,N,00228.640,W,335.1,T,,M,174.5,N,POI_GO*07
\c:1591297144492*67\$GPRMB,A,0,L,POI_GO,LauBen,4730.358,N,00228.640,W,174.5,335.7,0.0,V,%14*17
\c:1591297144538*66\$GPGGA,185904,4452.1262,N,00042.5906,W,1,12,1.1,46.3,M,49.8,M,,*6A
\c:1591297144669*61\$GPGSA,A,3,01,03,04,11,14,17,19,22,28,31,32,49,1.8,1.1,1.4*37
\c:1591297144815*64\$GPGSV,3,3,12,28,14,258,00,31,10,079,00,32,07,036,00,49,36,199,00*7D
\c:1591297144912*62\$GPGLL,4452.1262,N,00042.5906,W,185904,A,A*58
\c:1591297144952*66\$GPBOD,,T,,M,,*47
\c:1591297145032*68\$GPVTG,99.8,T,101.8,M,0.0,N,0.0,K*7E
\c:1591297145069*66\$GPRTE,1,1,c,*37
\c:1591297146323*68\$GPRMC,185906,A,4452.1262,N,00042.5906,W,0.0,99.8,030119,2.0,W,A*24
\c:1591297146382*63\$GPRMB,A,,,,,,,,,,,,V,A*1C
\c:1591297146524*69\$GPGGA,185906,4452.1262,N,00042.5906,W,1,12,1.1,46.3,M,49.8,M,,*68
\c:1591297146654*6D\$GPGSA,A,3,01,03,04,11,14,17,19,22,28,31,32,49,1.8,1.1,1.4*37
\c:1591297146800*62\$GPGSV,3,1,12,01,62,096,00,03,81,320,00,04,34,177,00,11,34,139,00*77
\c:1591297146899*62\$GPGLL,4452.1262,N,00042.5906,W,185906,A,A*5A
\c:1591297146938*68\$GPBOD,,T,,M,,*47
\c:1591297147017*6D\$GPVTG,99.8,T,101.8,M,0.0,N,0.0,K*7E
\c:1591297147055*6B\$GPRTE,1,1,c,*37
\c:1591297148336*62\$GPRMC,185908,A,4452.1262,N,00042.5906,W,0.0,99.8,030119,2.0,W,A*2A
\c:1591297148366*67\$GPWPL,4730.358,N,00228.640,W,POI_GO*5C
\c:1591297148367*66\$GPBWC,185908.00,4730.358,N,00228.640,W,335.7,T,,M,174.5,N,POI_GO*1C
\c:1591297148367*66\$GPBWR,185908.00,4730.358,N,00228.640,W,335.1,T,,M,174.5,N,POI_GO*0B
\c:1591297148367*66\$GPRMB,A,0,L,POI_GO,LauBen,4730.358,N,00228.640,W,174.5,335.7,0.0,V,%14*17
\c:1591297148394*6A\$GPRMB,A,,,,,,,,,,,,V,A*1C
\c:1591297148535*67\$GPGGA,185908,4452.1262,N,00042.5906,W,1,12,1.1,46.3,M,49.8,M,,*66
\c:1591297148667*63\$GPGSA,A,3,01,03,04,11,14,17,19,22,28,31,32,49,1.8,1.1,1.4*37
\c:1591297148813*6E\$GPGSV,3,2,12,14,25,046,00,17,42,303,00,19,23,317,00,22,65,054,00*75
\c:1591297148911*6D\$GPGLL,4452.1262,N,00042.5906,W,185908,A,A*54
\c:1591297148950*68\$GPBOD,,T,,M,,*47
\c:1591297149029*6E\$GPVTG,99.8,T,101.8,M,0.0,N,0.0,K*7E
\c:1591297149067*64\$GPRTE,1,1,c,*37
\c:1591297150366*6E\$GPRMC,185910,A,4452.1262,N,00042.5906,W,0.0,99.8,030119,2.0,W,A*23
\c:1591297150424*6F\$GPRMB,A,,,,,,,,,,,,V,A*1C
\c:1591297150472*6C\$GPWPL,4730.358,N,00228.640,W,POI_GO*5C
\c:1591297150523*69\$GPBWC,185910.00,4730.358,N,00228.640,W,335.7,T,,M,174.5,N,POI_GO*15
\c:1591297150523*69\$GPBWR,185910.00,4730.358,N,00228.640,W,335.1,T,,M,174.5,N,POI_GO*02
\c:1591297150523*69\$GPRMB,A,0,L,POI_GO,LauBen,4730.358,N,00228.640,W,174.5,335.7,0.0,V,%14*17
\c:1591297150566*68\$GPGGA,185910,4452.1262,N,00042.5906,W,1,12,1.1,46.3,M,49.8,M,,*6F
\c:1591297150698*6A\$GPGSA,A,3,01,03,04,11,14,17,19,22,28,31,32,49,1.8,1.1,1.4*37
\c:1591297150843*62\$GPGSV,3,3,12,28,14,258,00,31,10,079,00,32,07,036,00,49,36,199,00*7D
\c:1591297150940*60\$GPGLL,4452.1262,N,00042.5906,W,185910,A,A*5D
\c:1591297150980*6C\$GPBOD,,T,,M,,*47
\c:1591297151059*60\$GPVTG,99.8,T,101.8,M,0.0,N,0.0,K*7E
\c:1591297151097*62\$GPRTE,1,1,c,*37
\c:1591297152381*65\$GPRMC,185912,A,4452.1262,N,00042.5906,W,0.0,99.8,030119,2.0,W,A*21
\c:1591297152440*6F\$GPRMB,A,,,,,,,,,,,,V,A*1C
\c:1591297152581*63\$GPGGA,185912,4452.1262,N,00042.5906,W,1,12,1.1,46.3,M,49.8,M,,*6D
\c:1591297152712*6B\$GPGSA,A,3,01,03,04,11,14,17,19,22,28,31,32,49,1.8,1.1,1.4*37
\c:1591297152859*6B\$GPGSV,3,1,12,01,62,096,00,03,81,320,00,04,34,177,00,11,34,139,00*77
\c:1591297152956*65\$GPGLL,4452.1262,N,00042.5906,W,185912,A,A*5F
\c:1591297152996*69\$GPBOD,,T,,M,,*47
\c:1591297153074*6D\$GPVTG,99.8,T,101.8,M,0.0,N,0.0,K*7E
\c:1591297153114*6A\$GPRTE,1,1,c,*37
\c:1591297153489*6B\$GPWPL,4730.358,N,00228.640,W,POI_GO*5C
\c:1591297153490*63\$GPBWC,185913.00,4730.358,N,00228.640,W,335.7,T,,M,174.5,N,POI_GO*16
\c:1591297153490*63\$GPBWR,185913.00,4730.358,N,00228.640,W,335.1,T,,M,174.5,N,POI_GO*01
\c:1591297153490*63\$GPRMB,A,0,L,POI_GO,LauBen,4730.358,N,00228.640,W,174.5,335.7,0.0,V,%14*17
\c:1591297154353*6C\$GPRMC,185914,A,4452.1262,N,00042.5906,W,0.0,99.8,030119,2.0,W,A*27
\c:1591297154412*6E\$GPRMB,A,,,,,,,,,,,,V,A*1C
\c:1591297154554*6D\$GPGGA,185914,4452.1262,N,00042.5906,W,1,12,1.1,46.3,M,49.8,M,,*6B
\c:1591297154684*63\$GPGSA,A,3,01,03,04,11,14,17,19,22,28,31,32,49,1.8,1.1,1.4*37
\c:1591297154830*62\$GPGSV,3,2,12,14,25,046,00,17,42,303,00,19,23,317,00,22,65,054,00*75
\c:1591297154928*6A\$GPGLL,4452.1262,N,00042.5906,W,185914,A,A*59
\c:1591297154968*6E\$GPBOD,,T,,M,,*47
\c:1591297155047*6B\$GPVTG,99.8,T,101.8,M,0.0,N,0.0,K*7E
\c:1591297155084*64\$GPRTE,1,1,c,*37
\c:1591297156316*6F\$GPRMC,185916,A,4452.1261,N,00042.5905,W,0.0,99.8,030119,2.0,W,A*25
\c:1591297156374*6B\$GPRMB,A,,,,,,,,,,,,V,A*1C
\c:1591297156508*66\$GPWPL,4730.358,N,00228.640,W,POI_GO*5C
\c:1591297156508*66\$GPBWC,185916.00,4730.358,N,00228.640,W,335.7,T,,M,174.5,N,POI_GO*13
\c:1591297156510*6F\$GPBWR,185916.00,4730.358,N,00228.640,W,335.1,T,,M,174.5,N,POI_GO*04
\c:1591297156510*6F\$GPRMB,A,0,L,POI_GO,LauBen,4730.358,N,00228.640,W,174.5,335.7,0.0,V,%14*17
\c:1591297156516*69\$GPGGA,185916,4452.1261,N,00042.5905,W,1,12,1.1,46.2,M,49.8,M,,*68
\c:1591297156646*6F\$GPGSA,A,3,01,03,04,11,14,17,19,22,28,31,32,49,1.8,1.1,1.4*37
\c:1591297156792*67\$GPGSV,3,3,12,28,14,258,00,31,10,079,00,32,07,036,00,49,36,199,00*7D
\c:1591297156891*6B\$GPGLL,4452.1261,N,00042.5905,W,185916,A,A*5B
\c:1591297156929*69\$GPBOD,,T,,M,,*47
\c:1591297157009*63\$GPVTG,99.8,T,101.8,M,0.0,N,0.0,K*7E
\c:1591297157046*68\$GPRTE,1,1,c,*37
\c:1591297158373*62\$GPRMC,185918,A,4452.1261,N,00042.5905,W,0.0,99.8,030119,2.0,W,A*2B
\c:1591297158432*60\$GPRMB,A,,,,,,,,,,,,V,A*1C
\c:1591297158573*64\$GPGGA,185918,4452.1261,N,00042.5905,W,1,12,1.1,46.2,M,49.8,M,,*66
\c:1591297158704*66\$GPGSA,A,3,01,03,04,11,14,17,19,22,28,31,32,49,1.8,1.1,1.4*37
\c:1591297158850*68\$GPGSV,3,1,12,01,62,096,00,03,81,320,00,04,34,177,00,11,34,139,00*77
\c:1591297158947*6F\$GPGLL,4452.1261,N,00042.5905,W,185918,A,A*55
\c:1591297158987*63\$GPBOD,,T,,M,,*47
\c:1591297159066*64\$GPVTG,99.8,T,101.8,M,0.0,N,0.0,K*7E
\c:1591297159104*61\$GPRTE,1,1,c,*37
\c:1591297159478*6F\$GPWPL,4730.358,N,00228.640,W,POI_GO*5C
\c:1591297159523*60\$GPBWC,185919.00,4730.358,N,00228.640,W,335.7,T,,M,174.5,N,POI_GO*1C
\c:1591297159523*60\$GPBWR,185919.00,4730.358,N,00228.640,W,335.1,T,,M,174.5,N,POI_GO*0B
\c:1591297159523*60\$GPRMB,A,0,L,POI_GO,LauBen,4730.358,N,00228.640,W,174.5,335.7,0.0,V,%14*17
\c:1591297160379*63\$GPRMC,185920,A,4452.1261,N,00042.5905,W,0.0,99.8,030119,2.0,W,A*20
\c:1591297160436*6F\$GPRMB,A,,,,,,,,,,,,V,A*1C
\c:1591297160578*64\$GPGGA,185920,4452.1261,N,00042.5905,W,1,12,1.1,46.2,M,49.8,M,,*6D
\c:1591297160710*68\$GPGSA,A,3,01,03,04,11,14,17,19,22,28,31,32,49,1.8,1.1,1.4*37
\c:1591297160856*65\$GPGSV,3,2,12,14,25,046,00,17,42,303,00,19,23,317,00,22,65,054,00*75
\c:1591297160953*61\$GPGLL,4452.1261,N,00042.5905,W,185920,A,A*5E
\c:1591297160993*6D\$GPBOD,,T,,M,,*47
\c:1591297161071*69\$GPVTG,99.8,T,101.8,M,0.0,N,0.0,K*7E
\c:1591297161110*6F\$GPRTE,1,1,c,*37
\c:1591297162339*65\$GPRMC,185922,A,4452.1261,N,00042.5905,W,0.0,99.8,030119,2.0,W,A*22
\c:1591297162397*61\$GPRMB,A,,,,,,,,,,,,V,A*1C
\c:1591297162473*6C\$GPWPL,4730.358,N,00228.640,W,POI_GO*5C
\c:1591297162474*6B\$GPBWC,185922.00,4730.358,N,00228.640,W,335.7,T,,M,174.5,N,POI_GO*14
\c:1591297162474*6B\$GPBWR,185922.00,4730.358,N,00228.640,W,335.1,T,,M,174.5,N,POI_GO*03
\c:1591297162474*6B\$GPRMB,A,0,L,POI_GO,LauBen,4730.358,N,00228.640,W,174.5,335.7,0.0,V,%14*17
\c:1591297162538*62\$GPGGA,185922,4452.1261,N,00042.5905,W,1,12,0.9,46.2,M,49.8,M,,*66
\c:1591297162670*6D\$GPGSA,A,3,01,03,04,11,14,17,19,22,28,31,32,49,1.4,0.9,1.1*37
\c:1591297162815*60\$GPGSV,3,3,12,28,14,258,00,31,10,079,00,32,07,036,00,49,36,199,00*7D
\c:1591297162913*67\$GPGLL,4452.1261,N,00042.5905,W,185922,A,A*5C
\c:1591297162954*64\$GPBOD,,T,,M,,*47
\c:1591297163032*6C\$GPVTG,99.8,T,101.8,M,0.0,N,0.0,K*7E
\c:1591297163069*62\$GPRTE,1,1,c,*37
\c:1591297164321*6A\$GPRMC,185924,A,4452.1261,N,00042.5905,W,0.0,99.8,030119,2.0,W,A*24
\c:1591297164380*61\$GPRMB,A,,,,,,,,,,,,V,A*1C
\c:1591297164521*6C\$GPGGA,185924,4452.1261,N,00042.5905,W,1,12,0.9,46.2,M,49.8,M,,*60
\c:1591297164653*6A\$GPGSA,A,3,01,03,04,11,14,17,19,22,28,31,32,49,1.4,0.9,1.1*37
\c:1591297164799*6D\$GPGSV,3,1,12,01,62,096,00,03,81,320,00,04,34,177,00,11,34,139,00*77
\c:1591297164896*6D\$GPGLL,4452.1261,N,00042.5905,W,185924,A,A*5A
\c:1591297164936*66\$GPBOD,,T,,M,,*47
\c:1591297165015*6F\$GPVTG,99.8,T,101.8,M,0.0,N,0.0,K*7E
\c:1591297165052*6C\$GPRTE,1,1,c,*37
\c:1591297165488*6F\$GPWPL,4730.358,N,00228.640,W,POI_GO*5C
\c:1591297165490*66\$GPBWC,185925.00,4730.358,N,00228.640,W,335.7,T,,M,174.5,N,POI_GO*13
\c:1591297165490*66\$GPBWR,185925.00,4730.358,N,00228.640,W,335.1,T,,M,174.5,N,POI_GO*04
\c:1591297165490*66\$GPRMB,A,0,L,POI_GO,LauBen,4730.358,N,00228.640,W,174.5,335.7,0.0,V,%14*17
\c:1591297166313*69\$GPRMC,185926,A,4452.1261,N,00042.5905,W,0.0,99.8,030119,2.0,W,A*26
\c:1591297166370*6C\$GPRMB,A,,,,,,,,,,,,V,A*1C
\c:1591297166512*6E\$GPGGA,185926,4452.1261,N,00042.5905,W,1,12,0.9,46.2,M,49.8,M,,*62
\c:1591297166644*6E\$GPGSA,A,3,01,03,04,11,14,17,19,22,28,31,32,49,1.4,0.9,1.1*37
\c:1591297166789*6E\$GPGSV,3,2,12,14,25,046,00,17,42,303,00,19,23,317,00,22,65,054,00*75
\c:1591297166887*6F\$GPGLL,4452.1261,N,00042.5905,W,185926,A,A*58
\c:1591297166927*64\$GPBOD,,T,,M,,*47
\c:1591297167006*6F\$GPVTG,99.8,T,101.8,M,0.0,N,0.0,K*7E
\c:1591297167043*6E\$GPRTE,1,1,c,*37
\c:1591297168354*64\$GPRMC,185928,A,4452.1261,N,00042.5905,W,0.0,99.8,030119,2.0,W,A*28
\c:1591297168413*60\$GPRMB,A,,,,,,,,,,,,V,A*1C
\c:1591297168497*6C\$GPWPL,4730.358,N,00228.640,W,POI_GO*5C
\c:1591297168499*62\$GPBWC,185928.00,4730.358,N,00228.640,W,335.7,T,,M,174.5,N,POI_GO*1E
\c:1591297168500*63\$GPBWR,185928.00,4730.358,N,00228.640,W,335.1,T,,M,174.5,N,POI_GO*09
\c:1591297168502*61\$GPRMB,A,0,L,POI_GO,LauBen,4730.358,N,00228.640,W,174.5,335.7,0.0,V,%14*17
\c:1591297168555*63\$GPGGA,185928,4452.1261,N,00042.5905,W,1,12,0.9,46.2,M,49.8,M,,*6C
\c:1591297168686*6E\$GPGSA,A,3,01,03,04,11,14,17,19,22,28,31,32,49,1.4,0.9,1.1*37
\c:1591297168831*6C\$GPGSV,3,3,12,28,14,258,00,31,10,079,00,32,07,036,00,49,36,199,00*7D
\c:1591297168930*6C\$GPGLL,4452.1261,N,00042.5905,W,185928,A,A*56
\c:1591297168969*60\$GPBOD,,T,,M,,*47
\c:1591297169048*6B\$GPVTG,99.8,T,101.8,M,0.0,N,0.0,K*7E
\c:1591297169086*69\$GPRTE,1,1,c,*37
\c:1591297170349*61\$GPRMC,185930,A,4452.1261,N,00042.5905,W,0.0,99.8,030119,2.0,W,A*21
\c:1591297170408*63\$GPRMB,A,,,,,,,,,,,,V,A*1C
\c:1591297170549*67\$GPGGA,185930,4452.1261,N,00042.5905,W,1,12,1.1,46.2,M,49.8,M,,*6C
\c:1591297170681*60\$GPGSA,A,3,01,03,04,08,11,14,17,19,22,31,32,49,1.8,1.1,1.4*35
\c:1591297170826*63\$GPGSV,3,1,12,01,62,096,00,03,81,320,00,04,34,177,00,08,05,163,00*72
\c:1591297170924*60\$GPGLL,4452.1261,N,00042.5905,W,185930,A,A*5F
\c:1591297170964*64\$GPBOD,,T,,M,,*47
\c:1591297171042*68\$GPVTG,99.8,T,101.8,M,0.0,N,0.0,K*7E
\c:1591297171080*66\$GPRTE,1,1,c,*37
\c:1591297171488*6A\$GPWPL,4730.358,N,00228.640,W,POI_GO*5C
\c:1591297171489*6B\$GPBWC,185931.00,4730.358,N,00228.640,W,335.7,T,,M,174.5,N,POI_GO*16
\c:1591297171489*6B\$GPBWR,185931.00,4730.358,N,00228.640,W,335.1,T,,M,174.5,N,POI_GO*01
\c:1591297171490*63\$GPRMB,A,0,L,POI_GO,LauBen,4730.358,N,00228.640,W,174.5,335.7,0.0,V,%14*17
\c:1591297172325*69\$GPRMC,185932,A,4452.1261,N,00042.5905,W,0.0,99.8,030119,2.0,W,A*23
\c:1591297172383*65\$GPRMB,A,,,,,,,,,,,,V,A*1C
\c:1591297172524*6E\$GPGGA,185932,4452.1261,N,00042.5905,W,1,12,1.1,46.2,M,49.8,M,,*6E
\c:1591297172656*68\$GPGSA,A,3,01,03,04,08,11,14,17,19,22,31,32,49,1.8,1.1,1.4*35
\c:1591297172801*64\$GPGSV,3,2,12,11,34,139,00,14,25,046,00,17,42,303,00,19,23,317,00*7B
\c:1591297172899*65\$GPGLL,4452.1261,N,00042.5905,W,185932,A,A*5D
\c:1591297172938*6F\$GPBOD,,T,,M,,*47
\c:1591297173018*65\$GPVTG,99.8,T,101.8,M,0.0,N,0.0,K*7E
\c:1591297173055*6C\$GPRTE,1,1,c,*37
\c:1591297174391*60\$GPRMC,185934,A,4452.1261,N,00042.5905,W,0.0,99.8,030119,2.0,W,A*25
\c:1591297174449*62\$GPRMB,A,,,,,,,,,,,,V,A*1C
\c:1591297174591*66\$GPGGA,185934,4452.1261,N,00042.5905,W,1,12,1.1,46.2,M,49.8,M,,*68
\c:1591297174723*6D\$GPGSA,A,3,01,03,04,08,11,14,17,19,22,31,32,49,1.8,1.1,1.4*35
\c:1591297174853*65\$GPWPL,4730.358,N,00228.640,W,POI_GO*5C
\c:1591297174853*65\$GPBWC,185934.00,4730.358,N,00228.640,W,335.7,T,,M,174.5,N,POI_GO*13
\c:1591297174854*62\$GPBWR,185934.00,4730.358,N,00228.640,W,335.1,T,,M,174.5,N,POI_GO*04
\c:1591297174854*62\$GPRMB,A,0,L,POI_GO,LauBen,4730.358,N,00228.640,W,174.5,335.7,0.0,V,%14*17
\c:1591297174869*6C\$GPGSV,3,3,12,22,65,054,00,31,10,079,00,32,07,036,00,49,36,199,00*7F
\c:1591297174968*6C\$GPGLL,4452.1261,N,00042.5905,W,185934,A,A*5B
\c:1591297175007*6D\$GPBOD,,T,,M,,*47
\c:1591297175087*65\$GPVTG,99.8,T,101.8,M,0.0,N,0.0,K*7E
\c:1591297175123*6A\$GPRTE,1,1,c,*37
\c:1591297176363*6F\$GPRMC,185936,A,4452.1261,N,00042.5905,W,0.0,99.8,030119,2.0,W,A*27
\c:1591297176420*6F\$GPRMB,A,,,,,,,,,,,,V,A*1C
\c:1591297176562*68\$GPGGA,185936,4452.1261,N,00042.5905,W,1,12,1.1,46.2,M,49.8,M,,*6A
\c:1591297176693*65\$GPGSA,A,3,01,03,04,08,11,14,17,19,22,31,32,49,1.8,1.1,1.4*35
\c:1591297176839*6B\$GPGSV,3,1,12,01,62,096,00,03,81,320,00,04,34,177,00,08,05,163,00*72
\c:1591297176936*65\$GPGLL,4452.1261,N,00042.5905,W,185936,A,A*59
\c:1591297176976*61\$GPBOD,,T,,M,,*47
\c:1591297177056*6B\$GPVTG,99.8,T,101.8,M,0.0,N,0.0,K*7E
\c:1591297177093*62\$GPRTE,1,1,c,*37
\c:1591297177499*6C\$GPWPL,4730.358,N,00228.640,W,POI_GO*5C
\c:1591297177543*6A\$GPBWC,185937.00,4730.358,N,00228.640,W,335.7,T,,M,174.5,N,POI_GO*10
\c:1591297177543*6A\$GPBWR,185937.00,4730.358,N,00228.640,W,335.1,T,,M,174.5,N,POI_GO*07
\c:1591297177543*6A\$GPRMB,A,0,L,POI_GO,LauBen,4730.358,N,00228.640,W,174.5,335.7,0.0,V,%14*17
\c:1591297178328*6E\$GPRMC,185938,A,4452.1261,N,00042.5905,W,0.0,99.8,030119,2.0,W,A*29
\c:1591297178387*6B\$GPRMB,A,,,,,,,,,,,,V,A*1C
\c:1591297178529*69\$GPGGA,185938,4452.1261,N,00042.5905,W,1,12,1.1,46.2,M,49.8,M,,*64
\c:1591297178659*6D\$GPGSA,A,3,01,03,04,08,11,14,17,19,22,31,32,49,1.8,1.1,1.4*35
\c:1591297178806*69\$GPGSV,3,2,12,11,34,139,00,14,25,046,00,17,43,303,00,19,24,317,00*7D
\c:1591297178903*6D\$GPGLL,4452.1261,N,00042.5905,W,185938,A,A*57
\c:1591297178943*69\$GPBOD,,T,,M,,*47
\c:1591297179021*65\$GPVTG,99.8,T,101.8,M,0.0,N,0.0,K*7E
\c:1591297179060*60\$GPRTE,1,1,c,*37
\c:1591297180324*65\$GPRMC,185940,A,4452.1261,N,00042.5905,W,0.0,99.8,030119,2.0,W,A*26
\c:1591297180382*69\$GPRMB,A,,,,,,,,,,,,V,A*1C
\c:1591297180505*60\$GPWPL,4730.358,N,00228.640,W,POI_GO*5C
\c:1591297180505*60\$GPBWC,185940.00,4730.358,N,00228.640,W,335.7,T,,M,174.5,N,POI_GO*10
\c:1591297180505*60\$GPBWR,185940.00,4730.358,N,00228.640,W,335.1,T,,M,174.5,N,POI_GO*07
\c:1591297180505*60\$GPRMB,A,0,L,POI_GO,LauBen,4730.358,N,00228.640,W,174.5,335.7,0.0,V,%14*17
\c:1591297180523*64\$GPGGA,185940,4452.1261,N,00042.5905,W,1,12,0.9,46.2,M,49.8,M,,*62
\c:1591297180654*67\$GPGSA,A,3,01,03,04,11,14,17,19,22,28,31,32,49,1.4,0.9,1.1*37
\c:1591297180800*68\$GPGSV,3,3,12,28,14,258,00,31,10,079,00,32,07,036,00,49,36,199,00*7D
\c:1591297180898*69\$GPGLL,4452.1261,N,00042.5905,W,185940,A,A*58
\c:1591297180937*6D\$GPBOD,,T,,M,,*47
\c:1591297181016*66\$GPVTG,99.8,T,101.8,M,0.0,N,0.0,K*7E
\c:1591297181054*60\$GPRTE,1,1,c,*37
\c:1591297182323*60\$GPRMC,185942,A,4452.1261,N,00042.5905,W,0.0,99.8,030119,2.0,W,A*24
\c:1591297182381*68\$GPRMB,A,,,,,,,,,,,,V,A*1C
\c:1591297182522*67\$GPGGA,185942,4452.1261,N,00042.5905,W,1,12,0.9,46.2,M,49.8,M,,*60
\c:1591297182654*65\$GPGSA,A,3,01,03,04,08,11,14,17,22,28,31,32,49,1.4,0.9,1.1*37
\c:1591297182799*65\$GPGSV,3,1,12,01,62,096,00,03,81,320,00,04,34,177,00,08,05,163,00*72
\c:1591297182897*64\$GPGLL,4452.1261,N,00042.5905,W,185942,A,A*5A
\c:1591297182937*6F\$GPBOD,,T,,M,,*47
\c:1591297183016*64\$GPVTG,99.8,T,101.8,M,0.0,N,0.0,K*7E
\c:1591297183053*65\$GPRTE,1,1,c,*37
\c:1591297183478*68\$GPWPL,4730.358,N,00228.640,W,POI_GO*5C
\c:1591297183523*67\$GPBWC,185943.00,4730.358,N,00228.640,W,335.7,T,,M,174.5,N,POI_GO*13
\c:1591297183523*67\$GPBWR,185943.00,4730.358,N,00228.640,W,335.1,T,,M,174.5,N,POI_GO*04
\c:1591297183523*67\$GPRMB,A,0,L,POI_GO,LauBen,4730.358,N,00228.640,W,174.5,335.7,0.0,V,%14*17
\c:1591297184374*64\$GPRMC,185944,A,4452.1261,N,00042.5905,W,0.0,99.8,030119,2.0,W,A*22
\c:1591297184431*62\$GPRMB,A,,,,,,,,,,,,V,A*1C
\c:1591297184574*62\$GPGGA,185944,4452.1261,N,00042.5905,W,1,12,0.9,46.2,M,49.8,M,,*66
\c:1591297184705*66\$GPGSA,A,3,01,03,04,11,14,17,19,22,28,31,32,49,1.4,0.9,1.1*37
\c:1591297184850*69\$GPGSV,3,2,12,14,25,046,00,17,43,303,00,19,24,317,00,22,64,054,00*72
\c:1591297184949*60\$GPGLL,4452.1261,N,00042.5905,W,185944,A,A*5C
\c:1591297184988*6D\$GPBOD,,T,,M,,*47
\c:1591297185067*64\$GPVTG,99.8,T,101.8,M,0.0,N,0.0,K*7E
\c:1591297185104*60\$GPRTE,1,1,c,*37
\c:1591297186380*6D\$GPRMC,185946,A,4452.1261,N,00042.5905,W,0.0,99.8,030119,2.0,W,A*20
\c:1591297186438*69\$GPRMB,A,,,,,,,,,,,,V,A*1C
\c:1591297186579*6D\$GPGGA,185946,4452.1261,N,00042.5905,W,1,12,0.9,46.2,M,49.8,M,,*64
\c:1591297186611*60\$GPWPL,4730.358,N,00228.640,W,POI_GO*5C
\c:1591297186612*63\$GPBWC,185946.00,4730.358,N,00228.640,W,335.7,T,,M,174.5,N,POI_GO*16
\c:1591297186613*62\$GPBWR,185946.00,4730.358,N,00228.640,W,335.1,T,,M,174.5,N,POI_GO*01
\c:1591297186613*62\$GPRMB,A,0,L,POI_GO,LauBen,4730.358,N,00228.640,W,174.5,335.7,0.0,V,%14*17
\c:1591297186711*61\$GPGSA,A,3,01,03,04,11,14,17,19,22,28,31,32,49,1.4,0.9,1.1*37
\c:1591297186857*6C\$GPGSV,3,3,12,28,14,258,00,31,10,079,00,32,07,036,00,49,36,199,00*7D
\c:1591297186954*6E\$GPGLL,4452.1261,N,00042.5905,W,185946,A,A*5E
\c:1591297186994*62\$GPBOD,,T,,M,,*47
\c:1591297187073*63\$GPVTG,99.8,T,101.8,M,0.0,N,0.0,K*7E
\c:1591297187110*67\$GPRTE,1,1,c,*37
\c:1591297188354*6A\$GPRMC,185948,A,4452.1261,N,00042.5905,W,0.0,99.8,030119,2.0,W,A*2E
\c:1591297188411*6C\$GPRMB,A,,,,,,,,,,,,V,A*1C
\c:1591297188553*6B\$GPGGA,185948,4452.1261,N,00042.5905,W,1,12,1.1,46.2,M,49.8,M,,*63
\c:1591297188684*62\$GPGSA,A,3,01,03,04,08,11,14,17,19,22,31,32,49,1.8,1.1,1.4*35
\c:1591297188831*62\$GPGSV,3,1,12,01,62,096,00,03,81,320,00,04,34,177,00,08,05,163,00*72
\c:1591297188929*6A\$GPGLL,4452.1261,N,00042.5905,W,185948,A,A*50
\c:1591297188967*60\$GPBOD,,T,,M,,*47
\c:1591297189047*6A\$GPVTG,99.8,T,101.8,M,0.0,N,0.0,K*7E
\c:1591297189085*64\$GPRTE,1,1,c,*37
\c:1591297189801*60\$GPWPL,4730.358,N,00228.640,W,POI_GO*5C
\c:1591297189802*63\$GPBWC,185949.00,4730.358,N,00228.640,W,335.7,T,,M,174.5,N,POI_GO*19
\c:1591297189802*63\$GPBWR,185949.00,4730.358,N,00228.640,W,335.1,T,,M,174.5,N,POI_GO*0E
\c:1591297189803*62\$GPRMB,A,0,L,POI_GO,LauBen,4730.358,N,00228.640,W,174.5,335.7,0.0,V,%14*17
\c:1591297190331*60\$GPRMC,185950,A,4452.1261,N,00042.5905,W,0.0,99.8,030119,2.0,W,A*27
\c:1591297190389*63\$GPRMB,A,,,,,,,,,,,,V,A*1C
\c:1591297190531*66\$GPGGA,185950,4452.1261,N,00042.5905,W,1,12,0.9,46.2,M,49.8,M,,*63
\c:1591297190661*60\$GPGSA,A,3,01,03,04,11,14,17,19,22,28,31,32,33,1.4,0.9,1.1*3A
\c:1591297190809*60\$GPGSV,3,2,12,14,25,046,00,17,43,303,00,19,24,317,00,22,64,054,00*72
\c:1591297190906*6E\$GPGLL,4452.1261,N,00042.5905,W,185950,A,A*59
\c:1591297190945*69\$GPBOD,,T,,M,,*47
\c:1591297191025*67\$GPVTG,99.8,T,101.8,M,0.0,N,0.0,K*7E
\c:1591297191061*67\$GPRTE,1,1,c,*37
\c:1591297192399*60\$GPRMC,185952,A,4452.1261,N,00042.5905,W,0.0,99.8,030119,2.0,W,A*25
\c:1591297192458*6A\$GPRMB,A,,,,,,,,,,,,V,A*1C
\c:1591297192580*6E\$GPWPL,4730.358,N,00228.640,W,POI_GO*5C
\c:1591297192581*6F\$GPBWC,185952.00,4730.358,N,00228.640,W,335.7,T,,M,174.5,N,POI_GO*13
\c:1591297192581*6F\$GPBWR,185952.00,4730.358,N,00228.640,W,335.1,T,,M,174.5,N,POI_GO*04
\c:1591297192582*6C\$GPRMB,A,0,L,POI_GO,LauBen,4730.358,N,00228.640,W,174.5,335.7,0.0,V,%14*17
\c:1591297192599*66\$GPGGA,185952,4452.1261,N,00042.5905,W,1,12,0.9,46.2,M,49.8,M,,*61
\c:1591297192730*67\$GPGSA,A,3,01,03,04,11,14,17,19,22,28,31,32,33,1.4,0.9,1.1*3A
\c:1591297192876*6A\$GPGSV,3,3,12,28,14,258,00,31,10,079,00,32,07,036,00,33,36,199,00*70
\c:1591297192973*6E\$GPGLL,4452.1261,N,00042.5905,W,185952,A,A*5B
\c:1591297193013*60\$GPBOD,,T,,M,,*47
\c:1591297193093*68\$GPVTG,99.8,T,101.8,M,0.0,N,0.0,K*7E
\c:1591297193130*60\$GPRTE,1,1,c,*37
\c:1591297194347*65\$GPRMC,185954,A,4452.1261,N,00042.5905,W,0.0,99.8,030119,2.0,W,A*23
\c:1591297194406*67\$GPRMB,A,,,,,,,,,,,,V,A*1C
\c:1591297194548*6C\$GPGGA,185954,4452.1261,N,00042.5905,W,1,12,0.9,46.2,M,49.8,M,,*67
\c:1591297194679*6D\$GPGSA,A,3,01,03,04,11,14,17,19,22,28,31,32,33,1.4,0.9,1.1*3A
\c:1591297194825*6A\$GPGSV,3,1,12,01,62,096,00,03,81,320,00,04,34,177,00,11,34,139,00*77
\c:1591297194922*6C\$GPGLL,4452.1261,N,00042.5905,W,185954,A,A*5D
\c:1591297194962*68\$GPBOD,,T,,M,,*47
\c:1591297195042*62\$GPVTG,99.8,T,101.8,M,0.0,N,0.0,K*7E
\c:1591297195079*6A\$GPRTE,1,1,c,*37
\c:1591297195486*6E\$GPWPL,4730.358,N,00228.640,W,POI_GO*5C
\c:1591297195533*61\$GPBWC,185955.00,4730.358,N,00228.640,W,335.7,T,,M,174.5,N,POI_GO*14
\c:1591297195535*67\$GPBWR,185955.00,4730.358,N,00228.640,W,335.1,T,,M,174.5,N,POI_GO*03
\c:1591297195535*67\$GPRMB,A,0,L,POI_GO,LauBen,4730.358,N,00228.640,W,174.5,335.7,0.0,V,%14*17
\c:1591297196322*64\$GPRMC,185956,A,4452.1262,N,00042.5903,W,0.0,99.8,030119,2.0,W,A*24
\c:1591297196380*6C\$GPRMB,A,,,,,,,,,,,,V,A*1C
\c:1591297196522*62\$GPGGA,185956,4452.1262,N,00042.5903,W,1,12,0.9,46.3,M,49.8,M,,*61
\c:1591297196653*67\$GPGSA,A,3,01,03,04,11,14,17,19,22,28,31,32,33,1.4,0.9,1.1*3A
\c:1591297196799*60\$GPGSV,3,2,12,14,25,046,00,17,43,303,00,19,24,317,00,22,64,054,00*72
\c:1591297196896*60\$GPGLL,4452.1262,N,00042.5903,W,185956,A,A*5A
\c:1591297196936*6B\$GPBOD,,T,,M,,*47
\c:1591297197015*62\$GPVTG,99.8,T,101.8,M,0.0,N,0.0,K*7E
\c:1591297197053*60\$GPRTE,1,1,c,*37
\c:1591297198333*6A\$GPRMC,185958,A,4452.1262,N,00042.5903,W,0.0,99.8,030119,2.0,W,A*2A
\c:1591297198392*61\$GPRMB,A,,,,,,,,,,,,V,A*1C
\c:1591297198471*6B\$GPWPL,4730.358,N,00228.640,W,POI_GO*5C
\c:1591297198472*68\$GPBWC,185958.00,4730.358,N,00228.640,W,335.7,T,,M,174.5,N,POI_GO*19
\c:1591297198472*68\$GPBWR,185958.00,4730.358,N,00228.640,W,335.1,T,,M,174.5,N,POI_GO*0E
\c:1591297198472*68\$GPRMB,A,0,L,POI_GO,LauBen,4730.358,N,00228.640,W,174.5,335.7,0.0,V,%14*17
\c:1591297198534*6B\$GPGGA,185958,4452.1262,N,00042.5903,W,1,12,0.9,46.3,M,49.8,M,,*6F
\c:1591297198665*6C\$GPGSA,A,3,01,03,04,11,14,17,19,22,28,31,32,33,1.4,0.9,1.1*3A
\c:1591297198811*61\$GPGSV,3,3,12,28,13,258,00,31,10,079,00,32,07,036,00,33,36,199,00*77
\c:1591297198909*69\$GPGLL,4452.1262,N,00042.5903,W,185958,A,A*54
\c:1591297198948*6C\$GPBOD,,T,,M,,*47
\c:1591297199028*62\$GPVTG,99.8,T,101.8,M,0.0,N,0.0,K*7E
\c:1591297199065*6B\$GPRTE,1,1,c,*37
\c:1591297200392*63\$GPRMC,190000,A,4452.1262,N,00042.5903,W,0.0,99.8,030119,2.0,W,A*2A
\c:1591297200450*6A\$GPRMB,A,,,,,,,,,,,,V,A*1C
\c:1591297200593*64\$GPGGA,190000,4452.1262,N,00042.5903,W,1,12,0.9,46.3,M,49.8,M,,*6F
\c:1591297200724*6A\$GPGSA,A,3,01,03,04,11,14,17,19,22,28,31,32,33,1.4,0.9,1.1*3A
\c:1591297200869*6C\$GPGSV,3,1,12,01,62,096,00,03,81,320,00,04,34,177,00,11,34,139,00*77
\c:1591297200968*6C\$GPGLL,4452.1262,N,00042.5903,W,190000,A,A*54
\c:1591297201006*6C\$GPBOD,,T,,M,,*47
\c:1591297201086*64\$GPVTG,99.8,T,101.8,M,0.0,N,0.0,K*7E
\c:1591297201123*6A\$GPRTE,1,1,c,*37
\c:1591297201878*6D\$GPWPL,4730.358,N,00228.640,W,POI_GO*5C
\c:1591297201878*6D\$GPBWC,190001.00,4730.358,N,00228.640,W,335.7,T,,M,174.5,N,POI_GO*18
\c:1591297201878*6D\$GPBWR,190001.00,4730.358,N,00228.640,W,335.1,T,,M,174.5,N,POI_GO*0F
\c:1591297201878*6D\$GPRMB,A,0,L,POI_GO,LauBen,4730.358,N,00228.640,W,174.5,335.7,0.0,V,%14*17
\c:1591297202393*60\$GPRMC,190002,A,4452.1262,N,00042.5903,W,0.0,99.8,030119,2.0,W,A*28
\c:1591297202452*6A\$GPRMB,A,,,,,,,,,,,,V,A*1C
\c:1591297202594*61\$GPGGA,190002,4452.1262,N,00042.5903,W,1,12,0.9,46.3,M,49.8,M,,*6D
\c:1591297202724*68\$GPGSA,A,3,01,03,04,11,14,17,19,22,28,31,32,33,1.4,0.9,1.1*3A
\c:1591297202871*67\$GPGSV,3,2,12,14,25,046,00,17,43,303,00,19,24,317,00,22,64,054,00*72
\c:1591297202969*6F\$GPGLL,4452.1262,N,00042.5903,W,190002,A,A*56
\c:1591297203008*60\$GPBOD,,T,,M,,*47
\c:1591297203088*68\$GPVTG,99.8,T,101.8,M,0.0,N,0.0,K*7E
\c:1591297203125*6E\$GPRTE,1,1,c,*37
\c:1591297204358*61\$GPRMC,190004,A,4452.1262,N,00042.5903,W,0.0,99.8,030119,2.0,W,A*2E
\c:1591297204415*6F\$GPRMB,A,,,,,,,,,,,,V,A*1C
\c:1591297204485*66\$GPWPL,4730.358,N,00228.640,W,POI_GO*5C
\c:1591297204486*65\$GPBWC,190004.00,4730.358,N,00228.640,W,335.7,T,,M,174.5,N,POI_GO*1D
\c:1591297204486*65\$GPBWR,190004.00,4730.358,N,00228.640,W,335.1,T,,M,174.5,N,POI_GO*0A
\c:1591297204487*64\$GPRMB,A,0,L,POI_GO,LauBen,4730.358,N,00228.640,W,174.5,335.7,0.0,V,%14*17
\c:1591297204558*67\$GPGGA,190004,4452.1262,N,00042.5903,W,1,12,0.9,46.3,M,49.8,M,,*6B
\c:1591297204688*69\$GPGSA,A,3,01,03,04,11,14,17,19,22,28,31,32,33,1.4,0.9,1.1*3A
\c:1591297204835*61\$GPGSV,3,3,12,28,13,258,00,31,10,079,00,32,07,036,00,33,36,199,00*77
\c:1591297204931*64\$GPGLL,4452.1262,N,00042.5903,W,190004,A,A*50
\c:1591297204971*60\$GPBOD,,T,,M,,*47
\c:1591297205049*63\$GPVTG,99.8,T,101.8,M,0.0,N,0.0,K*7E
\c:1591297205088*6E\$GPRTE,1,1,c,*37
\c:1591297206348*62\$GPRMC,190006,A,4452.1262,N,00042.5903,W,0.0,99.8,030119,2.0,W,A*2C
\c:1591297206406*6F\$GPRMB,A,,,,,,,,,,,,V,A*1C
\c:1591297206548*64\$GPGGA,190006,4452.1262,N,00042.5903,W,1,12,0.9,46.3,M,49.8,M,,*69
\c:1591297206679*65\$GPGSA,A,3,01,03,04,11,14,17,19,22,28,31,32,33,1.4,0.9,1.1*3A
\c:1591297206825*62\$GPGSV,3,1,12,01,62,097,00,03,81,320,00,04,34,177,00,11,34,139,00*76
\c:1591297206922*64\$GPGLL,4452.1262,N,00042.5903,W,190006,A,A*52
\c:1591297206962*60\$GPBOD,,T,,M,,*47
\c:1591297207041*69\$GPVTG,99.8,T,101.8,M,0.0,N,0.0,K*7E
\c:1591297207079*62\$GPRTE,1,1,c,*37
\c:1591297207474*6B\$GPWPL,4730.358,N,00228.640,W,POI_GO*5C
\c:1591297207475*6A\$GPBWC,190007.00,4730.358,N,00228.640,W,335.7,T,,M,174.5,N,POI_GO*1E
\c:1591297207475*6A\$GPBWR,190007.00,4730.358,N,00228.640,W,335.1,T,,M,174.5,N,POI_GO*09
\c:1591297207475*6A\$GPRMB,A,0,L,POI_GO,LauBen,4730.358,N,00228.640,W,174.5,335.7,0.0,V,%14*17
\c:1591297208404*63\$GPRMC,190008,A,4452.1262,N,00042.5903,W,0.0,99.8,030119,2.0,W,A*22
\c:1591297208462*63\$GPRMB,A,,,,,,,,,,,,V,A*1C
\c:1591297208605*60\$GPGGA,190008,4452.1262,N,00042.5903,W,1,12,0.9,46.3,M,49.8,M,,*67
\c:1591297208735*62\$GPGSA,A,3,01,03,04,11,14,17,19,22,28,31,32,33,1.4,0.9,1.1*3A
\c:1591297208881*62\$GPGSV,3,2,12,14,25,046,00,17,43,303,00,19,24,317,00,22,64,054,00*72
\c:1591297208978*65\$GPGLL,4452.1262,N,00042.5903,W,190008,A,A*5C
\c:1591297209018*6B\$GPBOD,,T,,M,,*47
\c:1591297209097*6C\$GPVTG,99.8,T,101.8,M,0.0,N,0.0,K*7E
\c:1591297209135*65\$GPRTE,1,1,c,*37
\c:1591297210405*6B\$GPRMC,190010,A,4452.1262,N,00042.5903,W,0.0,99.8,030119,2.0,W,A*2B
\c:1591297210464*6C\$GPRMB,A,,,,,,,,,,,,V,A*1C
\c:1591297210499*6E\$GPWPL,4730.358,N,00228.640,W,POI_GO*5C
\c:1591297210500*6F\$GPBWC,190010.00,4730.358,N,00228.640,W,335.7,T,,M,174.5,N,POI_GO*18
\c:1591297210500*6F\$GPBWR,190010.00,4730.358,N,00228.640,W,335.1,T,,M,174.5,N,POI_GO*0F
\c:1591297210501*6E\$GPRMB,A,0,L,POI_GO,LauBen,4730.358,N,00228.640,W,174.5,335.7,0.0,V,%14*17
\c:1591297210605*69\$GPGGA,190010,4452.1262,N,00042.5903,W,1,12,0.9,46.3,M,49.8,M,,*6E
\c:1591297210736*68\$GPGSA,A,3,01,03,04,11,14,17,19,22,28,31,32,33,1.4,0.9,1.1*3A
\c:1591297210882*68\$GPGSV,3,3,12,28,13,258,00,31,10,079,00,32,07,036,00,33,36,199,00*77
\c:1591297210979*6D\$GPGLL,4452.1262,N,00042.5903,W,190010,A,A*55
\c:1591297211019*63\$GPBOD,,T,,M,,*47
\c:1591297211098*6A\$GPVTG,99.8,T,101.8,M,0.0,N,0.0,K*7E
\c:1591297211136*6F\$GPRTE,1,1,c,*37
\c:1591297212355*6B\$GPRMC,190012,A,4452.1262,N,00042.5903,W,0.0,99.8,030119,2.0,W,A*29
\c:1591297212412*6F\$GPRMB,A,,,,,,,,,,,,V,A*1C
\c:1591297212555*6D\$GPGGA,190012,4452.1262,N,00042.5903,W,1,12,0.9,46.3,M,49.8,M,,*6C
\c:1591297212685*63\$GPGSA,A,3,01,03,04,08,11,14,17,22,28,31,32,33,1.4,0.9,1.1*3A
\c:1591297212831*62\$GPGSV,3,1,12,01,62,097,00,03,81,323,00,04,34,177,00,08,05,163,00*70
\c:1591297212929*6A\$GPGLL,4452.1262,N,00042.5903,W,190012,A,A*57
\c:1591297212969*6E\$GPBOD,,T,,M,,*47
\c:1591297213047*6A\$GPVTG,99.8,T,101.8,M,0.0,N,0.0,K*7E
\c:1591297213085*64\$GPRTE,1,1,c,*37
\c:1591297213504*68\$GPWPL,4730.358,N,00228.640,W,POI_GO*5C
\c:1591297213505*69\$GPBWC,190013.00,4730.358,N,00228.640,W,335.7,T,,M,174.5,N,POI_GO*1B
\c:1591297213506*6A\$GPBWR,190013.00,4730.358,N,00228.640,W,335.1,T,,M,174.5,N,POI_GO*0C
\c:1591297213506*6A\$GPRMB,A,0,L,POI_GO,LauBen,4730.358,N,00228.640,W,174.5,335.7,0.0,V,%14*17
\c:1591297214371*6B\$GPRMC,190014,A,4452.1262,N,00042.5903,W,0.0,99.8,030119,2.0,W,A*2F
\c:1591297214429*61\$GPRMB,A,,,,,,,,,,,,V,A*1C
\c:1591297214570*6C\$GPGGA,190014,4452.1262,N,00042.5903,W,1,12,0.9,46.3,M,49.8,M,,*6A
\c:1591297214702*6B\$GPGSA,A,3,01,03,04,11,14,17,19,22,28,31,32,33,1.4,0.9,1.1*3A
\c:1591297214847*65\$GPGSV,3,2,12,14,25,046,00,17,43,303,00,19,24,317,00,22,64,054,00*72
\c:1591297214945*66\$GPGLL,4452.1262,N,00042.5903,W,190014,A,A*51
\c:1591297214985*6A\$GPBOD,,T,,M,,*47
\c:1591297215064*6D\$GPVTG,99.8,T,101.8,M,0.0,N,0.0,K*7E
\c:1591297215102*6C\$GPRTE,1,1,c,*37
\c:1591297216357*6D\$GPRMC,190016,A,4452.1262,N,00042.5903,W,0.0,99.8,030119,2.0,W,A*2D
\c:1591297216416*6F\$GPRMB,A,,,,,,,,,,,,V,A*1C
\c:1591297216481*61\$GPWPL,4730.358,N,00228.640,W,POI_GO*5C
\c:1591297216482*62\$GPBWC,190016.00,4730.358,N,00228.640,W,335.7,T,,M,174.5,N,POI_GO*1E
\c:1591297216482*62\$GPBWR,190016.00,4730.358,N,00228.640,W,335.1,T,,M,174.5,N,POI_GO*09
\c:1591297216482*62\$GPRMB,A,0,L,POI_GO,LauBen,4730.358,N,00228.640,W,174.5,335.7,0.0,V,%14*17
\c:1591297216558*64\$GPGGA,190016,4452.1262,N,00042.5903,W,1,12,0.9,46.3,M,49.8,M,,*68
\c:1591297216688*6A\$GPGSA,A,3,01,03,04,11,14,17,19,22,28,31,32,33,1.4,0.9,1.1*3A
\c:1591297216835*62\$GPGSV,3,3,12,28,13,258,00,31,10,079,00,32,07,036,00,33,36,199,00*77
\c:1591297216932*64\$GPGLL,4452.1262,N,00042.5903,W,190016,A,A*53
\c:1591297216971*63\$GPBOD,,T,,M,,*47
\c:1591297217051*69\$GPVTG,99.8,T,101.8,M,0.0,N,0.0,K*7E
\c:1591297217088*6D\$GPRTE,1,1,c,*37
\c:1591297218402*64\$GPRMC,190018,A,4452.1262,N,00042.5903,W,0.0,99.8,030119,2.0,W,A*23
\c:1591297218461*61\$GPRMB,A,,,,,,,,,,,,V,A*1C
\c:1591297218602*66\$GPGGA,190018,4452.1262,N,00042.5903,W,1,12,0.9,46.3,M,49.8,M,,*66
\c:1591297218734*62\$GPGSA,A,3,01,03,04,11,14,17,19,22,28,31,32,33,1.5,0.9,1.3*39
\c:1591297218879*64\$GPGSV,3,1,12,01,62,097,00,03,81,323,00,04,34,177,00,11,34,139,00*75
\c:1591297218978*64\$GPGLL,4452.1262,N,00042.5903,W,190018,A,A*5D
\c:1591297219016*64\$GPBOD,,T,,M,,*47
\c:1591297219096*6C\$GPVTG,99.8,T,101.8,M,0.0,N,0.0,K*7E
\c:1591297219133*62\$GPRTE,1,1,c,*37
\c:1591297219498*66\$GPWPL,4730.358,N,00228.640,W,POI_GO*5C
\c:1591297219504*62\$GPBWC,190019.00,4730.358,N,00228.640,W,335.7,T,,M,174.5,N,POI_GO*11
\c:1591297219505*63\$GPBWR,190019.00,4730.358,N,00228.640,W,335.1,T,,M,174.5,N,POI_GO*06
\c:1591297219505*63\$GPRMB,A,0,L,POI_GO,LauBen,4730.358,N,00228.640,W,174.5,335.7,0.0,V,%14*17
\c:1591297220358*67\$GPRMC,190020,A,4452.1262,N,00042.5903,W,0.0,99.8,030119,2.0,W,A*28
\c:1591297220417*6B\$GPRMB,A,,,,,,,,,,,,V,A*1C
\c:1591297220558*61\$GPGGA,190020,4452.1262,N,00042.5903,W,1,12,0.9,46.3,M,49.8,M,,*6D
\c:1591297220690*66\$GPGSA,A,3,01,03,04,11,14,17,19,22,28,31,32,33,1.5,0.9,1.3*39
\c:1591297220835*67\$GPGSV,3,2,12,14,25,046,00,17,43,303,00,19,24,317,00,22,64,054,00*72
\c:1591297220934*67\$GPGLL,4452.1262,N,00042.5903,W,190020,A,A*56
\c:1591297220973*64\$GPBOD,,T,,M,,*47
\c:1591297221053*6E\$GPVTG,99.8,T,101.8,M,0.0,N,0.0,K*7E
\c:1591297221090*61\$GPRTE,1,1,c,*37
\c:1591297222351*6C\$GPRMC,190022,A,4452.1262,N,00042.5903,W,0.0,99.8,030119,2.0,W,A*2A
\c:1591297222409*66\$GPRMB,A,,,,,,,,,,,,V,A*1C
\c:1591297222499*6F\$GPWPL,4730.358,N,00228.640,W,POI_GO*5C
\c:1591297222501*6F\$GPBWC,190022.00,4730.358,N,00228.640,W,335.7,T,,M,174.5,N,POI_GO*19
\c:1591297222501*6F\$GPBWR,190022.00,4730.358,N,00228.640,W,335.1,T,,M,174.5,N,POI_GO*0E
\c:1591297222501*6F\$GPRMB,A,0,L,POI_GO,LauBen,4730.358,N,00228.640,W,174.5,335.7,0.0,V,%14*17
\c:1591297222550*6B\$GPGGA,190022,4452.1262,N,00042.5903,W,1,12,0.9,46.3,M,49.8,M,,*6F
\c:1591297222681*64\$GPGSA,A,3,01,03,04,11,14,17,19,22,28,31,32,33,1.5,0.9,1.3*39
\c:1591297222828*69\$GPGSV,3,3,12,28,13,258,00,31,10,079,00,32,07,036,00,33,36,199,00*77
\c:1591297222925*65\$GPGLL,4452.1262,N,00042.5903,W,190022,A,A*54
\c:1591297222964*60\$GPBOD,,T,,M,,*47
\c:1591297223044*6A\$GPVTG,99.8,T,101.8,M,0.0,N,0.0,K*7E
\c:1591297223081*63\$GPRTE,1,1,c,*37
\c:1591297224320*6C\$GPRMC,190024,A,4452.1262,N,00042.5903,W,0.0,99.8,030119,2.0,W,A*2C
\c:1591297224377*6E\$GPRMB,A,,,,,,,,,,,,V,A*1C
\c:1591297224519*60\$GPGGA,190024,4452.1262,N,00042.5903,W,1,12,0.9,46.3,M,49.8,M,,*69
\c:1591297224651*6F\$GPGSA,A,3,01,03,04,11,14,17,19,22,28,31,32,33,1.5,0.9,1.3*39
\c:1591297224796*65\$GPGSV,3,1,12,01,62,097,00,03,81,323,00,04,34,177,00,11,34,139,00*75
\c:1591297224894*68\$GPGLL,4452.1262,N,00042.5903,W,190024,A,A*52
\c:1591297224934*63\$GPBOD,,T,,M,,*47
\c:1591297225013*6E\$GPVTG,99.8,T,101.8,M,0.0,N,0.0,K*7E
\c:1591297225050*69\$GPRTE,1,1,c,*37
\c:1591297225505*6C\$GPWPL,4730.358,N,00228.640,W,POI_GO*5C
\c:1591297225506*6F\$GPBWC,190025.00,4730.358,N,00228.640,W,335.7,T,,M,174.5,N,POI_GO*1E
\c:1591297225506*6F\$GPBWR,190025.00,4730.358,N,00228.640,W,335.1,T,,M,174.5,N,POI_GO*09
\c:1591297225507*6E\$GPRMB,A,0,L,POI_GO,LauBen,4730.358,N,00228.640,W,174.5,335.7,0.0,V,%14*17
\c:1591297226367*6D\$GPRMC,190026,A,4452.1262,N,00042.5903,W,0.0,99.8,030119,2.0,W,A*2E
\c:1591297226425*6C\$GPRMB,A,,,,,,,,,,,,V,A*1C
\c:1591297226567*6B\$GPGGA,190026,4452.1262,N,00042.5903,W,1,12,0.9,46.3,M,49.8,M,,*6B
\c:1591297226697*67\$GPGSA,A,3,01,03,04,11,14,17,19,22,28,31,32,33,1.4,0.9,1.1*3A
\c:1591297226844*67\$GPGSV,3,2,12,14,25,046,00,17,43,303,00,19,24,317,00,22,64,054,00*72
\c:1591297226941*63\$GPGLL,4452.1262,N,00042.5903,W,190026,A,A*50
\c:1591297226981*6F\$GPBOD,,T,,M,,*47
\c:1591297227059*62\$GPVTG,99.8,T,101.8,M,0.0,N,0.0,K*7E
\c:1591297227097*60\$GPRTE,1,1,c,*37
\c:1591297228355*62\$GPRMC,190028,A,4452.1262,N,00042.5903,W,0.0,99.8,030119,2.0,W,A*20
\c:1591297228413*67\$GPRMB,A,,,,,,,,,,,,V,A*1C
\c:1591297228501*65\$GPWPL,4730.358,N,00228.640,W,POI_GO*5C
\c:1591297228502*66\$GPBWC,190028.00,4730.358,N,00228.640,W,335.7,T,,M,174.5,N,POI_GO*13
\c:1591297228503*67\$GPBWR,190028.00,4730.358,N,00228.640,W,335.1,T,,M,174.5,N,POI_GO*04
\c:1591297228503*67\$GPRMB,A,0,L,POI_GO,LauBen,4730.358,N,00228.640,W,174.5,335.7,0.0,V,%14*17
\c:1591297228555*64\$GPGGA,190028,4452.1262,N,00042.5903,W,1,12,0.9,46.3,M,49.8,M,,*65
\c:1591297228685*6A\$GPGSA,A,3,01,03,04,11,14,17,19,22,28,31,32,33,1.4,0.9,1.1*3A
\c:1591297228832*68\$GPGSV,3,3,12,28,13,258,00,31,10,079,00,32,07,036,00,33,36,199,00*77
\c:1591297228929*63\$GPGLL,4452.1262,N,00042.5903,W,190028,A,A*5E
\c:1591297228969*67\$GPBOD,,T,,M,,*47
\c:1591297229047*63\$GPVTG,99.8,T,101.8,M,0.0,N,0.0,K*7E
\c:1591297229086*6E\$GPRTE,1,1,c,*37
\c:1591297230348*67\$GPRMC,190030,A,4452.1262,N,00042.5903,W,0.0,99.8,030119,2.0,W,A*29
\c:1591297230407*6B\$GPRMB,A,,,,,,,,,,,,V,A*1C
\c:1591297230548*61\$GPGGA,190030,4452.1262,N,00042.5903,W,1,12,0.9,46.3,M,49.8,M,,*6C
\c:1591297230679*60\$GPGSA,A,3,01,03,04,11,14,17,19,22,28,31,32,33,1.4,0.9,1.1*3A
\c:1591297230824*66\$GPGSV,3,1,12,01,62,097,00,03,81,323,00,04,34,177,00,11,33,139,00*72
\c:1591297230923*60\$GPGLL,4452.1262,N,00042.5903,W,190030,A,A*57
\c:1591297230963*64\$GPBOD,,T,,M,,*47
\c:1591297231041*6C\$GPVTG,99.8,T,101.8,M,0.0,N,0.0,K*7E
\c:1591297231079*67\$GPRTE,1,1,c,*37
\c:1591297231501*6D\$GPWPL,4730.358,N,00228.640,W,POI_GO*5C
\c:1591297231502*6E\$GPBWC,190031.00,4730.358,N,00228.640,W,335.7,T,,M,174.5,N,POI_GO*1B
\c:1591297231503*6F\$GPBWR,190031.00,4730.358,N,00228.640,W,335.1,T,,M,174.5,N,POI_GO*0C
\c:1591297231503*6F\$GPRMB,A,0,L,POI_GO,LauBen,4730.358,N,00228.640,W,174.5,335.7,0.0,V,%14*17
\c:1591297232374*6A\$GPRMC,190032,A,4452.1262,N,00042.5903,W,0.0,99.8,030119,2.0,W,A*2B
\c:1591297232433*6E\$GPRMB,A,,,,,,,,,,,,V,A*1C
\c:1591297232574*6C\$GPGGA,190032,4452.1262,N,00042.5903,W,1,12,0.9,46.3,M,49.8,M,,*6E
\c:1591297232705*68\$GPGSA,A,3,01,03,04,11,14,17,19,22,28,31,32,33,1.4,0.9,1.1*3A
\c:1591297232852*65\$GPGSV,3,2,12,14,25,046,00,17,43,303,00,19,24,317,00,22,64,054,00*72
