\c:1591634442806*68\$GPGLL,4729.97707,N,00222.58473,W,164131.00,A,A*72
\c:1591634442947*6C\$GPRMC,164132.00,A,4729.97708,N,00222.58469,W,0.013,,080620,,,A*62
\c:1591634443020*65\$GPVTG,,T,,M,0.013,N,0.024,K,A*27
\c:1591634443174*65\$GPGGA,164132.00,4729.97708,N,00222.58469,W,1,09,0.96,-0.2,M,48.7,M,,*62
\c:1591634443299*65\$GPGSA,A,3,03,08,10,11,14,22,32,27,28,,,,1.89,0.96,1.63*08
\c:1591634443444*63\$GPGSV,3,1,12,01,63,292,45,03,31,214,44,08,57,152,47,10,17,048,38*7D
\c:1591634443586*6C\$GPGSV,3,2,12,11,87,054,46,14,29,105,41,17,01,312,,22,57,210,44*7E
\c:1591634443732*61\$GPGSV,3,3,12,27,24,140,42,28,27,308,42,32,32,081,47,39,29,145,39*79
\c:1591634443840*6B\$GPGLL,4729.97708,N,00222.58469,W,164132.00,A,A*75
\c:1591634443981*67\$GPRMC,164133.00,A,4729.97709,N,00222.58464,W,0.003,,080620,,,A*6E
\c:1591634444054*61\$GPVTG,,T,,M,0.003,N,0.006,K,A*26
\c:1591634444209*6B\$GPGGA,164133.00,4729.97709,N,00222.58464,W,1,09,0.96,-0.3,M,48.7,M,,*6E
\c:1591634444334*64\$GPGSA,A,3,03,08,10,11,14,22,32,27,28,,,,1.89,0.96,1.63*08
\c:1591634444479*6A\$GPGSV,3,1,12,01,63,292,45,03,31,214,44,08,57,152,47,10,17,048,39*7C
\c:1591634444621*65\$GPGSV,3,2,12,11,87,054,46,14,29,105,41,17,01,312,,22,57,210,44*7E
\c:1591634444766*67\$GPGSV,3,3,12,27,24,140,42,28,27,308,42,32,32,081,47,39,29,145,38*78
\c:1591634444875*6A\$GPGLL,4729.97709,N,00222.58464,W,164133.00,A,A*78
\c:1591634445017*67\$GPRMC,164134.00,A,4729.97710,N,00222.58460,W,0.015,,080620,,,A*62
\c:1591634445090*68\$GPVTG,,T,,M,0.015,N,0.027,K,A*22
\c:1591634445243*64\$GPGGA,164134.00,4729.97710,N,00222.58460,W,1,09,0.96,-0.3,M,48.7,M,,*65
\c:1591634445368*6C\$GPGSA,A,3,03,08,10,11,14,22,32,27,28,,,,1.89,0.96,1.63*08
\c:1591634445514*61\$GPGSV,3,1,12,01,63,292,44,03,31,214,45,08,57,152,47,10,17,048,40*72
\c:1591634445656*64\$GPGSV,3,2,12,11,87,054,46,14,29,105,40,17,01,312,,22,57,210,43*78
\c:1591634445801*68\$GPGSV,3,3,12,27,24,140,41,28,27,308,42,32,32,081,46,39,29,145,38*7A
\c:1591634445910*69\$GPGLL,4729.97710,N,00222.58460,W,164134.00,A,A*73
\c:1591634446051*66\$GPRMC,164135.00,A,4729.97711,N,00222.58456,W,0.028,,080620,,,A*69
\c:1591634446124*65\$GPVTG,,T,,M,0.028,N,0.052,K,A*2E
\c:1591634446278*6F\$GPGGA,164135.00,4729.97711,N,00222.58456,W,1,09,0.96,-0.4,M,48.7,M,,*67
\c:1591634446403*65\$GPGSA,A,3,03,08,10,11,14,22,32,27,28,,,,1.89,0.96,1.63*08
\c:1591634446548*6B\$GPGSV,3,1,12,01,63,292,44,03,31,214,44,08,57,152,47,10,17,048,39*7D
\c:1591634446691*6C\$GPGSV,3,2,12,11,87,054,45,14,29,105,39,17,01,312,,22,57,210,43*75
\c:1591634446836*6F\$GPGSV,3,3,12,27,24,140,41,28,27,308,40,32,32,081,46,39,29,145,38*78
\c:1591634446944*6B\$GPGLL,4729.97711,N,00222.58456,W,164135.00,A,A*76
\c:1591634447086*6D\$GPRMC,164136.00,A,4729.97712,N,00222.58454,W,0.014,,080620,,,A*64
\c:1591634447159*6E\$GPVTG,,T,,M,0.014,N,0.025,K,A*21
\c:1591634447313*62\$GPGGA,164136.00,4729.97712,N,00222.58454,W,1,09,0.96,-0.5,M,48.7,M,,*64
\c:1591634447438*6C\$GPGSA,A,3,03,08,10,11,14,22,32,27,28,,,,1.89,0.96,1.63*08
\c:1591634447583*6D\$GPGSV,3,1,12,01,63,292,44,03,31,214,44,08,57,152,47,10,17,048,39*7D
\c:1591634447726*60\$GPGSV,3,2,12,11,87,054,45,14,29,105,40,17,01,312,,22,57,210,43*7B
\c:1591634447871*6D\$GPGSV,3,3,12,27,24,140,40,28,27,308,40,32,32,081,46,39,29,145,37*76
\c:1591634447980*62\$GPGLL,4729.97712,N,00222.58454,W,164136.00,A,A*74
\c:1591634448121*6E\$GPRMC,164137.00,A,4729.97714,N,00222.58452,W,0.024,,080620,,,A*66
\c:1591634448194*60\$GPVTG,,T,,M,0.024,N,0.044,K,A*25
\c:1591634448348*63\$GPGGA,164137.00,4729.97714,N,00222.58452,W,1,09,0.96,-0.5,M,48.7,M,,*65
\c:1591634448473*6C\$GPGSA,A,3,03,08,10,11,14,22,32,27,28,,,,1.89,0.96,1.63*08
\c:1591634448618*63\$GPGSV,3,1,12,01,63,292,45,03,31,214,44,08,57,152,47,10,17,048,40*72
\c:1591634448759*67\$GPGSV,3,2,12,11,87,054,45,14,29,105,40,17,01,312,,22,57,210,42*7A
\c:1591634448906*63\$GPGSV,3,3,12,27,24,140,41,28,27,308,40,32,32,081,46,39,29,145,37*77
\c:1591634449013*6F\$GPGLL,4729.97714,N,00222.58452,W,164137.00,A,A*75
\c:1591634449156*6F\$GPRMC,164138.00,A,4729.97715,N,00222.58451,W,0.020,,080620,,,A*6F
\c:1591634449229*64\$GPVTG,,T,,M,0.020,N,0.036,K,A*24
\c:1591634449383*65\$GPGGA,164138.00,4729.97715,N,00222.58451,W,1,09,0.96,-0.5,M,48.7,M,,*68
\c:1591634449507*6F\$GPGSA,A,3,03,08,10,11,14,22,32,27,28,,,,1.89,0.96,1.63*08
\c:1591634449653*6D\$GPGSV,3,1,12,01,63,292,45,03,31,215,44,08,57,152,47,10,17,048,40*73
\c:1591634449794*67\$GPGSV,3,2,12,11,87,054,45,14,29,105,40,17,01,312,,22,57,210,43*7B
\c:1591634449941*61\$GPGSV,3,3,12,27,24,140,41,28,27,308,40,32,32,081,46,39,29,145,37*77
\c:1591634450049*68\$GPGLL,4729.97715,N,00222.58451,W,164138.00,A,A*78
\c:1591634450190*6D\$GPRMC,164139.00,A,4729.97716,N,00222.58450,W,0.028,,080620,,,A*64
\c:1591634450263*62\$GPVTG,,T,,M,0.028,N,0.052,K,A*2E
\c:1591634450417*67\$GPGGA,164139.00,4729.97716,N,00222.58450,W,1,09,0.96,-0.5,M,48.7,M,,*6B
\c:1591634450543*67\$GPGSA,A,3,03,08,10,11,14,22,32,27,28,,,,1.89,0.96,1.63*08
\c:1591634450688*63\$GPGSV,3,1,12,01,63,292,45,03,31,215,43,08,57,152,47,10,17,048,40*74
\c:1591634450829*66\$GPGSV,3,2,12,11,87,054,45,14,29,105,40,17,01,312,,22,57,210,43*7B
\c:1591634450975*6E\$GPGSV,3,3,12,27,24,140,41,28,27,308,41,32,32,081,47,39,29,145,37*77
\c:1591634451083*6F\$GPGLL,4729.97716,N,00222.58450,W,164139.00,A,A*7B
\c:1591634451225*61\$GPRMC,164140.00,A,4729.97716,N,00222.58450,W,0.020,,080620,,,A*62
\c:1591634451299*66\$GPVTG,,T,,M,0.020,N,0.037,K,A*25
\c:1591634451452*67\$GPGGA,164140.00,4729.97716,N,00222.58450,W,1,09,0.96,-0.5,M,48.7,M,,*65
\c:1591634451577*61\$GPGSA,A,3,03,08,10,11,14,22,32,27,28,,,,1.89,0.96,1.63*08
\c:1591634451724*65\$GPGSV,3,1,12,01,63,292,45,03,31,215,43,08,57,152,47,10,17,048,40*74
\c:1591634451865*6F\$GPGSV,3,2,12,11,87,054,45,14,29,105,41,17,01,312,,22,57,210,43*7A
\c:1591634452010*66\$GPGSV,3,3,12,27,24,140,40,28,27,308,40,32,32,081,48,39,29,145,38*77
\c:1591634452119*6E\$GPGLL,4729.97716,N,00222.58450,W,164140.00,A,A*75
\c:1591634452260*63\$GPRMC,164141.00,A,4729.97715,N,00222.58450,W,0.029,,080620,,,A*69
\c:1591634452333*64\$GPVTG,,T,,M,0.029,N,0.054,K,A*29
\c:1591634452487*6C\$GPGGA,164141.00,4729.97715,N,00222.58450,W,1,09,0.96,-0.5,M,48.7,M,,*67
\c:1591634452612*62\$GPGSA,A,3,03,08,10,11,14,22,32,27,28,,,,1.89,0.96,1.63*08
\c:1591634452758*6D\$GPGSV,3,1,12,01,63,292,45,03,31,215,43,08,57,152,47,10,17,048,40*74
\c:1591634452900*6E\$GPGSV,3,2,12,11,87,054,45,14,29,105,41,17,01,312,,22,57,210,43*7A
\c:1591634453045*67\$GPGSV,3,3,12,27,24,140,40,28,27,308,40,32,32,081,48,39,29,145,37*78
\c:1591634453153*61\$GPGLL,4729.97715,N,00222.58450,W,164141.00,A,A*77
\c:1591634453294*69\$GPRMC,164142.00,A,4729.97713,N,00222.58450,W,0.011,,080620,,,A*67
\c:1591634453368*6B\$GPVTG,,T,,M,0.011,N,0.020,K,A*21
\c:1591634453522*63\$GPGGA,164142.00,4729.97713,N,00222.58450,W,1,09,0.96,-0.5,M,48.7,M,,*62
\c:1591634453647*63\$GPGSA,A,3,03,08,10,11,14,22,32,27,28,,,,1.89,0.96,1.63*08
\c:1591634453793*6B\$GPGSV,3,1,12,01,63,292,45,03,31,215,43,08,57,152,47,10,17,048,40*74
\c:1591634453934*68\$GPGSV,3,2,12,11,87,054,45,14,29,105,41,17,01,312,,22,57,210,43*7A
\c:1591634454080*69\$GPGSV,3,3,12,27,24,140,40,28,27,308,40,32,32,081,48,39,29,145,37*78
\c:1591634454188*60\$GPGLL,4729.97713,N,00222.58450,W,164142.00,A,A*72
\c:1591634454330*61\$GPRMC,164143.00,A,4729.97712,N,00222.58449,W,0.019,,080620,,,A*67
\c:1591634454403*66\$GPVTG,,T,,M,0.019,N,0.036,K,A*2E
\c:1591634454556*67\$GPGGA,164143.00,4729.97712,N,00222.58449,W,1,09,0.96,-0.6,M,48.7,M,,*69
\c:1591634454681*6E\$GPGSA,A,3,03,08,10,11,14,22,32,27,28,,,,1.89,0.96,1.63*08
\c:1591634454827*6C\$GPGSV,3,1,12,01,63,292,46,03,31,215,43,08,57,152,47,10,17,048,40*77
\c:1591634454970*6F\$GPGSV,3,2,12,11,87,054,46,14,29,105,41,17,01,312,,22,57,210,43*79
\c:1591634455114*64\$GPGSV,3,3,12,27,24,140,40,28,27,308,40,32,32,081,48,39,29,145,37*78
\c:1591634455222*62\$GPGLL,4729.97712,N,00222.58449,W,164143.00,A,A*7A
\c:1591634455365*60\$GPRMC,164144.00,A,4729.97710,N,00222.58447,W,0.003,,080620,,,A*67
\c:1591634455437*60\$GPVTG,,T,,M,0.003,N,0.005,K,A*25
\c:1591634455591*6D\$GPGGA,164144.00,4729.97710,N,00222.58447,W,1,09,0.96,-0.6,M,48.7,M,,*62
\c:1591634455716*60\$GPGSA,A,3,03,08,10,11,14,22,32,27,28,,,,1.89,0.96,1.63*08
\c:1591634455863*6D\$GPGSV,3,1,12,01,63,292,45,03,31,215,42,08,57,152,47,10,17,048,40*75
\c:1591634456008*6B\$GPGSV,3,2,12,11,87,054,46,14,29,105,41,17,01,312,23,22,57,210,44*7F
\c:1591634456153*64\$GPGSV,3,3,12,27,24,140,40,28,27,308,41,32,32,081,48,39,29,145,36*78
\c:1591634456262*65\$GPGLL,4729.97710,N,00222.58447,W,164144.00,A,A*71
\c:1591634456403*64\$GPRMC,164145.00,A,4729.97709,N,00222.58444,W,0.007,,080620,,,A*69
\c:1591634456476*66\$GPVTG,,T,,M,0.007,N,0.012,K,A*27
\c:1591634456631*67\$GPGGA,164145.00,4729.97709,N,00222.58444,W,1,09,0.96,-0.6,M,48.7,M,,*68
\c:1591634456756*67\$GPGSA,A,3,03,08,10,11,14,22,32,27,28,,,,1.89,0.96,1.63*08
\c:1591634456901*6B\$GPGSV,3,1,12,01,63,292,46,03,31,215,43,08,57,152,47,10,17,048,41*76
\c:1591634457047*61\$GPGSV,3,2,12,11,87,054,45,14,29,105,40,17,01,312,22,22,57,210,44*7C
\c:1591634457193*69\$GPGSV,3,3,12,27,24,140,40,28,27,308,42,32,32,081,49,39,29,145,36*7A
\c:1591634457301*60\$GPGLL,4729.97709,N,00222.58444,W,164145.00,A,A*7B
\c:1591634457442*60\$GPRMC,164146.00,A,4729.97707,N,00222.58442,W,0.022,,080620,,,A*65
\c:1591634457515*63\$GPVTG,,T,,M,0.022,N,0.040,K,A*27
\c:1591634457670*63\$GPGGA,164146.00,4729.97707,N,00222.58442,W,1,09,0.96,-0.7,M,48.7,M,,*62
\c:1591634457795*69\$GPGSA,A,3,03,08,10,11,14,22,32,27,28,,,,1.89,0.96,1.63*08
\c:1591634457940*6F\$GPGSV,3,1,12,01,63,292,45,03,31,215,43,08,57,152,47,10,17,048,41*75
\c:1591634458085*60\$GPGSV,3,2,12,11,87,059,46,14,29,105,40,17,01,312,22,22,57,210,44*72
\c:1591634458232*6E\$GPGSV,3,3,12,27,24,140,40,28,27,308,42,32,32,081,49,39,29,145,36*7A
\c:1591634458339*64\$GPGLL,4729.97707,N,00222.58442,W,164146.00,A,A*70
\c:1591634458482*63\$GPRMC,164147.00,A,4729.97704,N,00222.58439,W,0.034,,080620,,,A*6C
\c:1591634458554*69\$GPVTG,,T,,M,0.034,N,0.063,K,A*21
\c:1591634458708*62\$GPGGA,164147.00,4729.97704,N,00222.58439,W,1,09,0.96,-0.7,M,48.7,M,,*6C
\c:1591634458834*62\$GPGSA,A,3,03,08,10,11,14,22,32,27,28,,,,1.89,0.96,1.63*08
\c:1591634458979*6A\$GPGSV,3,1,12,01,63,292,45,03,31,215,42,08,57,152,47,10,17,048,40*75
\c:1591634459125*6A\$GPGSV,3,2,12,11,87,059,46,14,29,105,42,17,01,312,21,22,57,210,44*73
\c:1591634459271*68\$GPGSV,3,3,12,27,24,140,40,28,27,308,42,32,32,081,50,39,29,145,36*72
\c:1591634459379*61\$GPGLL,4729.97704,N,00222.58439,W,164147.00,A,A*7E
\c:1591634459520*6B\$GPRMC,164148.00,A,4729.97702,N,00222.58438,W,0.025,,080620,,,A*64
\c:1591634459593*63\$GPVTG,,T,,M,0.025,N,0.046,K,A*26
\c:1591634459748*67\$GPGGA,164148.00,4729.97702,N,00222.58438,W,1,09,0.96,-0.7,M,48.7,M,,*64
\c:1591634459873*60\$GPGSA,A,3,03,08,10,11,14,22,32,27,28,,,,1.89,0.96,1.63*08
\c:1591634460018*6F\$GPGSV,3,1,12,01,63,292,45,03,31,215,42,08,57,152,47,10,17,048,40*75
\c:1591634460163*62\$GPGSV,3,2,12,11,87,059,46,14,29,105,42,17,01,312,21,22,57,210,44*73
\c:1591634460310*64\$GPGSV,3,3,12,27,24,140,40,28,27,308,42,32,32,081,50,39,29,145,36*72
\c:1591634460417*64\$GPGLL,4729.97702,N,00222.58438,W,164148.00,A,A*76
\c:1591634460560*65\$GPRMC,164149.00,A,4729.97699,N,00222.58435,W,0.014,,080620,,,A*69
\c:1591634460632*61\$GPVTG,,T,,M,0.014,N,0.026,K,A*22
\c:1591634460786*6F\$GPGGA,164149.00,4729.97699,N,00222.58435,W,1,09,0.96,-0.8,M,48.7,M,,*64
\c:1591634460911*6F\$GPGSA,A,3,03,08,10,11,14,22,32,27,28,,,,1.89,0.96,1.63*08
\c:1591634461057*65\$GPGSV,3,1,12,01,63,292,45,03,31,215,43,08,57,152,46,10,17,048,42*77
\c:1591634461203*66\$GPGSV,3,2,12,11,87,059,46,14,29,105,41,17,01,312,20,22,57,210,44*71
\c:1591634461349*69\$GPGSV,3,3,12,27,24,140,42,28,27,308,41,32,32,081,50,39,29,145,35*70
\c:1591634461457*61\$GPGLL,4729.97699,N,00222.58435,W,164149.00,A,A*79
\c:1591634461598*63\$GPRMC,164150.00,A,4729.97697,N,00222.58432,W,0.015,,080620,,,A*69
\c:1591634461671*67\$GPVTG,,T,,M,0.015,N,0.029,K,A*2C
\c:1591634461825*68\$GPGGA,164150.00,4729.97697,N,00222.58432,W,1,09,0.96,-0.8,M,48.7,M,,*65
\c:1591634461950*6B\$GPGSA,A,3,03,08,10,11,14,22,32,27,28,,,,1.89,0.96,1.63*08
\c:1591634462096*6B\$GPGSV,3,1,12,01,63,292,45,03,31,215,43,08,57,152,47,10,17,048,41*75
\c:1591634462241*63\$GPGSV,3,2,12,11,87,059,46,14,29,105,40,17,01,312,18,22,57,210,44*7B
\c:1591634462388*67\$GPGSV,3,3,12,27,24,140,41,28,27,308,41,32,32,081,50,39,29,145,34*72
\c:1591634462495*6C\$GPGLL,4729.97697,N,00222.58432,W,164150.00,A,A*78
\c:1591634462638*69\$GPRMC,164151.00,A,4729.97694,N,00222.58428,W,0.012,,080620,,,A*67
\c:1591634462710*62\$GPVTG,,T,,M,0.012,N,0.022,K,A*20
\c:1591634462864*6E\$GPGGA,164151.00,4729.97694,N,00222.58428,W,1,09,0.96,-0.8,M,48.7,M,,*6C
\c:1591634462989*6C\$GPGSA,A,3,03,08,10,11,14,22,32,27,28,,,,1.89,0.96,1.63*08
\c:1591634463136*61\$GPGSV,3,1,12,01,63,292,45,03,31,215,43,08,57,152,46,10,17,048,42*77
\c:1591634463281*6E\$GPGSV,3,2,12,11,87,059,46,14,29,105,40,17,01,312,17,22,57,210,44*74
\c:1591634463427*64\$GPGSV,3,3,12,27,24,140,41,28,27,308,41,32,32,081,50,39,29,145,33*75
\c:1591634463535*66\$GPGLL,4729.97694,N,00222.58428,W,164151.00,A,A*71
\c:1591634463676*62\$GPRMC,164152.00,A,4729.97691,N,00222.58424,W,0.031,,080620,,,A*6C
\c:1591634463749*6F\$GPVTG,,T,,M,0.031,N,0.058,K,A*2C
\c:1591634463903*6F\$GPGGA,164152.00,4729.97691,N,00222.58424,W,1,09,0.96,-0.8,M,48.7,M,,*66
\c:1591634464028*68\$GPGSA,A,3,03,08,10,11,14,22,32,27,28,,,,1.89,0.96,1.63*08
\c:1591634464174*60\$GPGSV,3,1,12,01,63,292,45,03,31,215,43,08,57,152,47,10,17,048,42*76
\c:1591634464320*63\$GPGSV,3,2,12,11,87,059,46,14,29,105,39,17,01,312,16,22,57,210,44*7B
\c:1591634464465*65\$GPGSV,3,3,12,27,24,140,41,28,27,308,41,32,32,081,50,39,29,145,33*75
\c:1591634464574*64\$GPGLL,4729.97691,N,00222.58424,W,164152.00,A,A*7B
\c:1591634464715*61\$GPRMC,164153.00,A,4729.97688,N,00222.58420,W,0.019,,080620,,,A*6B
\c:1591634464788*65\$GPVTG,,T,,M,0.019,N,0.034,K,A*2C
\c:1591634464942*6D\$GPGGA,164153.00,4729.97688,N,00222.58420,W,1,09,0.96,-0.8,M,48.7,M,,*6B
\c:1591634465068*6D\$GPGSA,A,3,03,08,10,11,14,22,32,27,28,,,,1.89,0.96,1.63*08
\c:1591634465213*63\$GPGSV,3,1,12,01,63,292,44,03,31,215,44,08,57,152,46,10,17,048,43*70
\c:1591634465355*60\$GPGSV,3,2,12,11,87,059,46,14,29,105,39,17,01,312,,22,57,210,43*7B
\c:1591634465500*66\$GPGSV,3,3,12,27,24,140,42,28,27,308,41,32,32,081,50,39,29,145,31*74
\c:1591634465609*6C\$GPGLL,4729.97688,N,00222.58420,W,164153.00,A,A*76
\c:1591634465750*61\$GPRMC,164154.00,A,4729.97687,N,00222.58418,W,0.017,,080620,,,A*66
\c:1591634465824*6D\$GPVTG,,T,,M,0.017,N,0.032,K,A*24
\c:1591634465977*6A\$GPGGA,164154.00,4729.97687,N,00222.58418,W,1,09,0.96,-0.8,M,48.7,M,,*68
\c:1591634466102*63\$GPGSA,A,3,03,08,10,11,14,22,32,27,28,,,,1.89,0.96,1.63*08
\c:1591634466247*61\$GPGSV,3,1,12,01,63,292,44,03,31,215,44,08,57,152,46,10,17,048,44*77
\c:1591634466390*6A\$GPGSV,3,2,12,11,87,059,46,14,29,105,37,17,01,312,,22,57,210,43*75
\c:1591634466535*63\$GPGSV,3,3,12,27,24,140,42,28,27,308,40,32,32,081,50,39,29,145,30*74
\c:1591634466644*66\$GPGLL,4729.97687,N,00222.58418,W,164154.00,A,A*75
\c:1591634466785*6A\$GPRMC,164155.00,A,4729.97685,N,00222.58415,W,0.013,,080620,,,A*6C
\c:1591634466858*65\$GPVTG,,T,,M,0.013,N,0.023,K,A*20
\c:1591634467012*62\$GPGGA,164155.00,4729.97685,N,00222.58415,W,1,09,0.96,-0.7,M,48.7,M,,*69
\c:1591634467137*64\$GPGSA,A,3,03,08,10,11,14,22,32,27,28,,,,1.89,0.96,1.63*08
\c:1591634467283*68\$GPGSV,3,1,12,01,63,292,44,03,31,215,45,08,57,152,46,10,17,048,44*76
\c:1591634467424*63\$GPGSV,3,2,12,11,87,059,46,14,29,105,38,17,01,312,,22,57,210,44*7D
\c:1591634467570*63\$GPGSV,3,3,12,27,24,140,41,28,27,308,40,32,32,081,49,39,29,145,29*77
\c:1591634467678*68\$GPGLL,4729.97685,N,00222.58415,W,164155.00,A,A*7B
\c:1591634467821*6A\$GPRMC,164156.00,A,4729.97684,N,00222.58415,W,0.014,,080620,,,A*69
\c:1591634467893*63\$GPVTG,,T,,M,0.014,N,0.026,K,A*22
\c:1591634468047*6D\$GPGGA,164156.00,4729.97684,N,00222.58415,W,1,09,0.96,-0.7,M,48.7,M,,*6B
\c:1591634468172*6A\$GPGSA,A,3,03,08,10,11,14,22,32,27,28,,,,1.89,0.96,1.63*08
\c:1591634468317*6B\$GPGSV,3,1,12,01,63,292,43,03,31,215,46,08,57,152,47,10,17,048,44*73
\c:1591634468459*66\$GPGSV,3,2,12,11,87,059,47,14,29,105,37,17,01,312,,22,57,210,44*73
\c:1591634468605*6D\$GPGSV,3,3,12,27,24,140,42,28,27,308,39,32,32,081,50,39,29,145,30*7A
\c:1591634468713*6B\$GPGLL,4729.97684,N,00222.58415,W,164156.00,A,A*79
\c:1591634468854*67\$GPRMC,164157.00,A,4729.97684,N,00222.58415,W,0.014,,080620,,,A*68
\c:1591634468927*62\$GPVTG,,T,,M,0.014,N,0.025,K,A*21
\c:1591634469082*65\$GPGGA,164157.00,4729.97684,N,00222.58415,W,1,09,0.96,-0.7,M,48.7,M,,*6A
\c:1591634469207*6A\$GPGSA,A,3,03,08,10,11,14,22,32,27,28,,,,1.89,0.96,1.63*08
\c:1591634469353*6A\$GPGSV,3,1,12,01,63,292,43,03,31,215,45,08,57,152,46,10,17,048,44*71
\c:1591634469494*66\$GPGSV,3,2,12,11,87,059,47,14,29,105,38,17,01,312,,22,57,210,43*7B
\c:1591634469639*63\$GPGSV,3,3,12,27,24,140,41,28,27,308,40,32,32,081,48,39,29,145,30*7E
\c:1591634469748*64\$GPGLL,4729.97684,N,00222.58415,W,164157.00,A,A*78
\c:1591634469889*66\$GPRMC,164158.00,A,4729.97684,N,00222.58415,W,0.031,,080620,,,A*60
\c:1591634469963*63\$GPVTG,,T,,M,0.031,N,0.058,K,A*2C
\c:1591634470117*60\$GPGGA,164158.00,4729.97684,N,00222.58415,W,1,09,0.96,-0.7,M,48.7,M,,*65
\c:1591634470242*63\$GPGSA,A,3,03,08,10,11,14,22,32,27,28,,,,1.89,0.96,1.63*08
\c:1591634470387*6B\$GPGSV,3,1,12,01,63,292,45,03,31,215,45,08,57,152,47,10,17,048,45*77
\c:1591634470529*69\$GPGSV,3,2,12,11,87,059,47,14,29,105,38,17,01,312,,22,57,210,44*7C
\c:1591634470674*62\$GPGSV,3,3,12,27,24,141,42,28,27,308,41,32,32,081,49,39,29,145,32*7E
\c:1591634470783*6B\$GPGLL,4729.97684,N,00222.58415,W,164158.00,A,A*77
\c:1591634470924*68\$GPRMC,164159.00,A,4729.97686,N,00222.58416,W,0.033,,080620,,,A*62
\c:1591634470998*6F\$GPVTG,,T,,M,0.033,N,0.061,K,A*24
\c:1591634471152*60\$GPGGA,164159.00,4729.97686,N,00222.58416,W,1,09,0.96,-0.7,M,48.7,M,,*65
\c:1591634471276*65\$GPGSA,A,3,03,08,10,11,14,22,32,27,28,,,,1.89,0.96,1.63*08
\c:1591634471422*62\$GPGSV,3,1,12,01,63,292,42,03,31,215,45,08,57,152,47,10,17,048,45*70
\c:1591634471563*66\$GPGSV,3,2,12,11,87,059,46,14,29,105,38,17,01,312,,22,57,210,43*7A
\c:1591634471710*60\$GPGSV,3,3,12,27,24,141,41,28,27,308,39,32,32,081,48,39,29,145,32*73
\c:1591634471817*68\$GPGLL,4729.97686,N,00222.58416,W,164159.00,A,A*77
\c:1591634471959*63\$GPRMC,164200.00,A,4729.97687,N,00222.58418,W,0.034,,080620,,,A*65
\c:1591634472033*65\$GPVTG,,T,,M,0.034,N,0.063,K,A*21
\c:1591634472186*6A\$GPGGA,164200.00,4729.97687,N,00222.58418,W,1,09,0.96,-0.7,M,48.7,M,,*65
\c:1591634472311*66\$GPGSA,A,3,03,08,10,11,14,22,32,27,28,,,,1.89,0.96,1.63*08
\c:1591634472457*63\$GPGSV,3,1,12,01,63,292,41,03,31,215,45,08,57,152,46,10,17,048,44*73
\c:1591634472599*60\$GPGSV,3,2,12,11,87,059,47,14,29,105,39,17,01,312,,22,57,210,43*7A
\c:1591634472745*63\$GPGSV,3,3,12,27,24,141,41,28,27,308,39,32,32,081,48,39,29,145,33*72
\c:1591634472853*6B\$GPGLL,4729.97687,N,00222.58418,W,164200.00,A,A*77
\c:1591634472994*61\$GPRMC,164201.00,A,4729.97686,N,00222.58417,W,0.026,,080620,,,A*69
\c:1591634473067*65\$GPVTG,,T,,M,0.026,N,0.048,K,A*2B
\c:1591634473221*65\$GPGGA,164201.00,4729.97686,N,00222.58417,W,1,09,0.96,-0.6,M,48.7,M,,*6B
\c:1591634473346*65\$GPGSA,A,3,03,08,10,11,14,22,32,27,28,,,,1.89,0.96,1.63*08
\c:1591634473491*68\$GPGSV,3,1,12,01,63,292,44,03,31,215,44,08,57,152,46,10,17,048,44*77
\c:1591634473633*62\$GPGSV,3,2,12,11,87,059,47,14,29,105,39,17,01,312,,22,57,210,43*7A
\c:1591634473779*6D\$GPGSV,3,3,12,27,24,141,42,28,27,308,41,32,32,081,49,39,29,145,35*79
\c:1591634473887*63\$GPGLL,4729.97686,N,00222.58417,W,164201.00,A,A*78
\c:1591634474029*68\$GPRMC,164202.00,A,4729.97686,N,00222.58417,W,0.020,,080620,,,A*6C
\c:1591634474101*63\$GPVTG,,T,,M,0.020,N,0.037,K,A*25
\c:1591634474255*61\$GPGGA,164202.00,4729.97686,N,00222.58417,W,1,09,0.96,-0.6,M,48.7,M,,*68
\c:1591634474380*68\$GPGSA,A,3,03,08,10,11,14,22,32,27,28,,,,1.89,0.96,1.63*08
\c:1591634474527*63\$GPGSV,3,1,12,01,63,292,44,03,31,215,44,08,57,152,47,10,17,048,43*71
\c:1591634474668*6B\$GPGSV,3,2,12,11,87,059,47,14,29,105,37,17,01,312,,22,57,210,43*74
\c:1591634474814*6E\$GPGSV,3,3,12,27,24,141,42,28,27,308,41,32,32,081,49,39,29,145,35*79
\c:1591634474922*6A\$GPGLL,4729.97686,N,00222.58417,W,164202.00,A,A*7B
\c:1591634475064*60\$GPRMC,164203.00,A,4729.97686,N,00222.58416,W,0.037,,080620,,,A*6A
\c:1591634475136*66\$GPVTG,,T,,M,0.037,N,0.068,K,A*29
\c:1591634475290*69\$GPGGA,164203.00,4729.97686,N,00222.58416,W,1,09,0.96,-0.6,M,48.7,M,,*68
\c:1591634475415*62\$GPGSA,A,3,03,08,10,11,14,22,32,27,28,,,,1.89,0.96,1.63*08
\c:1591634475561*60\$GPGSV,3,1,12,01,63,292,44,03,31,215,44,08,57,152,46,10,17,048,43*70
\c:1591634475703*66\$GPGSV,3,2,12,11,87,059,47,14,29,105,37,17,01,312,,22,57,210,43*74
\c:1591634475849*67\$GPGSV,3,3,12,27,24,141,42,28,27,308,41,32,32,080,49,39,29,145,35*78
\c:1591634475957*69\$GPGLL,4729.97686,N,00222.58416,W,164203.00,A,A*7B
\c:1591634476098*60\$GPRMC,164204.00,A,4729.97686,N,00222.58413,W,0.009,,080620,,,A*65
\c:1591634476171*66\$GPVTG,,T,,M,0.009,N,0.016,K,A*2D
\c:1591634476325*65\$GPGGA,164204.00,4729.97686,N,00222.58413,W,1,09,0.96,-0.7,M,48.7,M,,*6B
\c:1591634476450*60\$GPGSA,A,3,03,08,10,11,14,22,32,27,28,,,,1.89,0.96,1.63*08
\c:1591634476596*6B\$GPGSV,3,1,12,01,63,292,44,03,31,215,43,08,57,152,46,10,17,048,43*77
\c:1591634476738*6D\$GPGSV,3,2,12,11,87,059,47,14,29,105,39,17,01,312,,22,57,210,43*7A
\c:1591634476884*65\$GPGSV,3,3,12,27,24,141,41,28,27,308,41,32,32,080,50,39,29,145,35*73
\c:1591634476991*60\$GPGLL,4729.97686,N,00222.58413,W,164204.00,A,A*79
\c:1591634477134*66\$GPRMC,164205.00,A,4729.97686,N,00222.58409,W,0.023,,080620,,,A*67
\c:1591634477206*64\$GPVTG,,T,,M,0.023,N,0.043,K,A*25
\c:1591634477360*65\$GPGGA,164205.00,4729.97686,N,00222.58409,W,1,09,0.96,-0.7,M,48.7,M,,*61
\c:1591634477485*69\$GPGSA,A,3,03,08,10,11,14,22,32,27,28,,,,1.89,0.96,1.63*08
\c:1591634477631*64\$GPGSV,3,1,12,01,63,292,44,03,31,215,44,08,57,152,47,10,17,048,43*71
\c:1591634477772*62\$GPGSV,3,2,12,11,87,059,46,14,29,105,40,17,01,312,,22,57,210,45*73
\c:1591634477919*61\$GPGSV,3,3,12,27,24,141,41,28,27,308,41,32,32,080,50,39,29,145,35*73
\c:1591634478026*6B\$GPGLL,4729.97686,N,00222.58409,W,164205.00,A,A*73
\c:1591634478167*6F\$GPRMC,164206.00,A,4729.97686,N,00222.58407,W,0.023,,080620,,,A*6A
\c:1591634478241*68\$GPVTG,,T,,M,0.023,N,0.042,K,A*24
\c:1591634478395*60\$GPGGA,164206.00,4729.97686,N,00222.58407,W,1,09,0.96,-0.7,M,48.7,M,,*6C
\c:1591634478520*68\$GPGSA,A,3,03,08,10,11,14,22,32,27,28,,,,1.89,0.96,1.63*08
\c:1591634478666*69\$GPGSV,3,1,12,01,63,292,44,03,31,215,43,08,57,152,48,10,17,048,43*79
\c:1591634478807*60\$GPGSV,3,2,12,11,87,059,46,14,29,105,39,17,01,312,,22,57,210,45*7D
\c:1591634478953*60\$GPGSV,3,3,12,27,24,141,40,28,27,308,40,32,32,080,49,39,29,145,36*78
\c:1591634479062*6A\$GPGLL,4729.97686,N,00222.58407,W,164206.00,A,A*7E
\c:1591634479203*6F\$GPRMC,164207.00,A,4729.97686,N,00222.58408,W,0.044,,080620,,,A*65
\c:1591634479276*6D\$GPVTG,,T,,M,0.044,N,0.081,K,A*2A
\c:1591634479430*69\$GPGGA,164207.00,4729.97686,N,00222.58408,W,1,09,0.96,-0.7,M,48.7,M,,*62
\c:1591634479555*6B\$GPGSA,A,3,03,08,10,11,14,22,32,27,28,,,,1.89,0.96,1.63*08
\c:1591634479700*69\$GPGSV,3,1,12,01,63,292,44,03,31,215,40,08,57,152,47,10,17,048,42*74
\c:1591634479846*64\$GPGSV,3,2,12,11,87,059,46,14,29,105,41,17,01,312,25,22,57,210,45*75
\c:1591634479993*6D\$GPGSV,3,3,12,27,24,141,40,28,27,308,39,32,32,080,48,39,29,145,35*74
\c:1591634480100*69\$GPGLL,4729.97686,N,00222.58408,W,164207.00,A,A*70
\c:1591634480242*6C\$GPRMC,164208.00,A,4729.97686,N,00222.58410,W,0.044,,080620,,,A*63
\c:1591634480315*6F\$GPVTG,,T,,M,0.044,N,0.082,K,A*29
\c:1591634480469*63\$GPGGA,164208.00,4729.97686,N,00222.58410,W,1,09,0.96,-0.8,M,48.7,M,,*6B
\c:1591634480594*60\$GPGSA,A,3,03,08,10,11,14,22,32,27,28,,,,1.89,0.96,1.63*08
\c:1591634480739*65\$GPGSV,3,1,12,01,63,292,44,03,31,215,42,08,57,152,48,10,17,048,43*78
\c:1591634480885*6D\$GPGSV,3,2,12,11,87,059,46,14,29,105,39,17,01,312,22,22,57,210,45*7D
\c:1591634481031*6B\$GPGSV,3,3,12,27,24,141,41,28,27,308,40,32,32,080,48,39,29,145,35*7B
\c:1591634481140*6C\$GPGLL,4729.97686,N,00222.58410,W,164208.00,A,A*76
\c:1591634481281*62\$GPRMC,164209.00,A,4729.97687,N,00222.58412,W,0.022,,080620,,,A*61
\c:1591634481354*6B\$GPVTG,,T,,M,0.022,N,0.041,K,A*26
\c:1591634481508*64\$GPGGA,164209.00,4729.97687,N,00222.58412,W,1,09,0.96,-0.9,M,48.7,M,,*68
\c:1591634481633*6F\$GPGSA,A,3,03,08,10,11,14,22,32,27,28,,,,1.89,0.96,1.63*08
\c:1591634481778*61\$GPGSV,3,1,12,01,63,292,44,03,31,215,40,08,57,152,47,10,17,048,43*75
\c:1591634481925*67\$GPGSV,3,2,12,11,87,059,46,14,29,105,37,17,01,312,19,22,57,210,45*7B
\c:1591634482070*6D\$GPGSV,3,3,12,27,24,141,41,28,27,308,40,32,32,080,49,39,29,145,36*79
\c:1591634482179*65\$GPGLL,4729.97687,N,00222.58412,W,164209.00,A,A*74
\c:1591634482320*6B\$GPRMC,164210.00,A,4729.97690,N,00222.58416,W,0.014,,080620,,,A*6E
\c:1591634482393*63\$GPVTG,,T,,M,0.014,N,0.026,K,A*22
\c:1591634482547*6C\$GPGGA,164210.00,4729.97690,N,00222.58416,W,1,09,0.96,-1.0,M,48.7,M,,*6A
\c:1591634482672*69\$GPGSA,A,3,03,08,10,11,14,22,32,27,28,,,,1.89,0.96,1.63*08
\c:1591634482817*64\$GPGSV,3,1,12,01,63,292,44,03,31,215,41,08,57,152,47,10,17,048,43*74
\c:1591634482964*61\$GPGSV,3,2,12,11,87,059,47,14,29,105,39,17,01,312,18,22,57,210,45*75
\c:1591634483109*63\$GPGSV,3,3,12,27,24,141,41,28,27,308,40,32,32,080,49,39,29,145,37*78
\c:1591634483218*60\$GPGLL,4729.97690,N,00222.58416,W,164210.00,A,A*7E
\c:1591634483359*64\$GPRMC,164211.00,A,4729.97691,N,00222.58418,W,0.044,,080620,,,A*65
\c:1591634483432*6E\$GPVTG,,T,,M,0.044,N,0.082,K,A*29
\c:1591634483586*60\$GPGGA,164211.00,4729.97691,N,00222.58418,W,1,09,0.96,-1.0,M,48.7,M,,*64
\c:1591634483711*6C\$GPGSA,A,3,03,08,10,11,14,22,32,27,28,,,,1.89,0.96,1.63*08
\c:1591634483856*60\$GPGSV,3,1,12,01,63,292,44,03,31,215,42,08,57,152,47,10,17,048,44*70
\c:1591634484002*6E\$GPGSV,3,2,12,11,87,059,47,14,29,105,37,17,01,312,18,22,57,210,45*7B
\c:1591634484147*6E\$GPGSV,3,3,12,27,24,141,41,28,27,308,38,32,32,080,49,39,29,145,37*77
\c:1591634484256*6D\$GPGLL,4729.97691,N,00222.58418,W,164211.00,A,A*70
\c:1591634484398*6E\$GPRMC,164212.00,A,4729.97692,N,00222.58422,W,0.013,,080620,,,A*6E
\c:1591634484471*6E\$GPVTG,,T,,M,0.013,N,0.025,K,A*26
\c:1591634484625*6D\$GPGGA,164212.00,4729.97692,N,00222.58422,W,1,09,0.96,-1.1,M,48.7,M,,*6C
\c:1591634484750*6E\$GPGSA,A,3,03,08,10,11,14,22,32,27,28,,,,1.89,0.96,1.63*08
\c:1591634484896*6B\$GPGSV,3,1,12,01,63,292,45,03,31,215,43,08,57,152,47,10,17,048,45*71
\c:1591634485042*6B\$GPGSV,3,2,12,11,87,059,46,14,29,105,39,17,01,312,17,22,57,210,44*7A
\c:1591634485187*63\$GPGSV,3,3,12,27,24,141,40,28,27,308,39,32,32,080,49,39,29,145,36*76
\c:1591634485296*60\$GPGLL,4729.97692,N,00222.58422,W,164212.00,A,A*79
\c:1591634485437*6D\$GPRMC,164213.00,A,4729.97694,N,00222.58427,W,0.043,,080620,,,A*69
\c:1591634485510*69\$GPVTG,,T,,M,0.043,N,0.081,K,A*2D
\c:1591634485664*69\$GPGGA,164213.00,4729.97694,N,00222.58427,W,1,09,0.96,-1.1,M,48.7,M,,*6E
\c:1591634485789*6B\$GPGSA,A,3,03,08,10,11,14,22,32,27,28,,,,1.89,0.96,1.63*08
\c:1591634485935*62\$GPGSV,3,1,12,01,63,292,44,03,31,215,43,08,57,152,46,10,17,048,45*71
\c:1591634486080*66\$GPGSV,3,2,12,11,87,059,46,14,29,105,39,17,01,312,15,22,57,210,44*78
\c:1591634486227*69\$GPGSV,3,3,12,27,24,141,41,28,27,308,40,32,32,080,49,39,29,145,35*7A
\c:1591634486334*6A\$GPGLL,4729.97694,N,00222.58427,W,164213.00,A,A*7B
\c:1591634486476*6B\$GPRMC,164214.00,A,4729.97695,N,00222.58432,W,0.047,,080620,,,A*6F
\c:1591634486549*66\$GPVTG,,T,,M,0.047,N,0.087,K,A*2F
\c:1591634486703*6A\$GPGGA,164214.00,4729.97695,N,00222.58432,W,1,09,0.96,-1.2,M,48.7,M,,*6F
\c:1591634486828*6C\$GPGSA,A,3,03,08,10,11,14,22,32,27,28,,,,1.89,0.96,1.63*08
\c:1591634486974*64\$GPGSV,3,1,12,01,63,292,44,03,31,215,43,08,57,152,46,10,17,048,46*72
\c:1591634487120*6C\$GPGSV,3,2,12,11,87,059,46,14,29,105,41,17,01,312,14,22,57,210,44*76
\c:1591634487265*6E\$GPGSV,3,3,12,27,24,141,41,28,27,308,40,32,32,080,48,39,29,145,35*7B
\c:1591634487374*6F\$GPGLL,4729.97695,N,00222.58432,W,164214.00,A,A*79
\c:1591634487515*6E\$GPRMC,164215.00,A,4729.97694,N,00222.58435,W,0.018,,080620,,,A*62
\c:1591634487588*6A\$GPVTG,,T,,M,0.018,N,0.033,K,A*2A
\c:1591634487742*6E\$GPGGA,164215.00,4729.97694,N,00222.58435,W,1,09,0.96,-1.3,M,48.7,M,,*69
\c:1591634487867*66\$GPGSA,A,3,03,08,10,11,14,22,32,27,28,,,,1.89,0.96,1.63*08
\c:1591634488013*62\$GPGSV,3,1,12,01,63,292,44,03,31,215,42,08,57,152,47,10,17,048,46*72
\c:1591634488159*6D\$GPGSV,3,2,12,11,87,059,46,14,29,105,41,17,01,312,11,22,57,210,45*72
\c:1591634488304*67\$GPGSV,3,3,12,27,24,141,37,28,27,308,41,32,32,080,48,39,29,145,35*7B
\c:1591634488413*66\$GPGLL,4729.97694,N,00222.58435,W,164215.00,A,A*7E
\c:1591634488554*64\$GPRMC,164216.00,A,4729.97691,N,00222.58436,W,0.017,,080620,,,A*68
\c:1591634488627*63\$GPVTG,,T,,M,0.017,N,0.031,K,A*27
\c:1591634488781*6E\$GPGGA,164216.00,4729.97691,N,00222.58436,W,1,09,0.96,-1.3,M,48.7,M,,*6C
\c:1591634488906*6F\$GPGSA,A,3,03,08,10,11,14,22,32,27,28,,,,1.89,0.96,1.63*08
\c:1591634489051*65\$GPGSV,3,1,12,01,63,293,44,03,31,215,42,08,57,152,47,10,17,048,45*70
\c:1591634489197*6E\$GPGSV,3,2,12,11,87,059,46,14,29,105,41,17,01,312,11,22,57,210,45*72
\c:1591634489343*65\$GPGSV,3,3,12,27,24,141,41,28,27,308,41,32,32,080,48,39,29,145,36*79
\c:1591634489451*61\$GPGLL,4729.97691,N,00222.58436,W,164216.00,A,A*7B
\c:1591634489592*6F\$GPRMC,164217.00,A,4729.97689,N,00222.58437,W,0.026,,080620,,,A*63
\c:1591634489665*64\$GPVTG,,T,,M,0.026,N,0.048,K,A*2B
\c:1591634489820*6B\$GPGGA,164217.00,4729.97689,N,00222.58437,W,1,09,0.96,-1.3,M,48.7,M,,*65
\c:1591634489945*69\$GPGSA,A,3,03,08,10,11,14,22,32,27,28,,,,1.89,0.96,1.63*08
\c:1591634490091*61\$GPGSV,3,1,12,01,63,293,45,03,31,215,40,08,57,152,47,10,17,048,44*72
\c:1591634490236*6E\$GPGSV,3,2,12,11,87,059,47,14,29,105,39,17,01,312,11,22,57,210,45*7C
\c:1591634490382*60\$GPGSV,3,3,12,27,24,141,41,28,27,308,41,32,32,080,48,39,29,145,37*78
\c:1591634490490*64\$GPGLL,4729.97689,N,00222.58437,W,164217.00,A,A*72
\c:1591634490631*6D\$GPRMC,164218.00,A,4729.97687,N,00222.58438,W,0.045,,080620,,,A*68
\c:1591634490705*6B\$GPVTG,,T,,M,0.045,N,0.083,K,A*29
\c:1591634490859*6D\$GPGGA,164218.00,4729.97687,N,00222.58438,W,1,09,0.96,-1.4,M,48.7,M,,*6C
\c:1591634490984*6C\$GPGSA,A,3,03,08,10,11,14,22,32,27,28,,,,1.89,0.96,1.63*08
\c:1591634491129*62\$GPGSV,3,1,12,01,63,293,45,03,31,215,41,08,57,152,47,10,17,048,44*73
\c:1591634491275*68\$GPGSV,3,2,12,11,87,059,46,14,29,105,40,17,01,312,10,22,57,210,45*72
\c:1591634491421*6F\$GPGSV,3,3,12,27,24,141,42,28,27,308,41,32,32,080,48,39,29,145,38*74
\c:1591634491529*66\$GPGLL,4729.97687,N,00222.58438,W,164218.00,A,A*7C
\c:1591634491670*69\$GPRMC,164219.00,A,4729.97685,N,00222.58439,W,0.040,,080620,,,A*6F
\c:1591634491743*68\$GPVTG,,T,,M,0.040,N,0.074,K,A*24
\c:1591634491898*61\$GPGGA,164219.00,4729.97685,N,00222.58439,W,1,09,0.96,-1.4,M,48.7,M,,*6E
\c:1591634492023*6A\$GPGSA,A,3,03,08,10,11,14,22,32,27,28,,,,1.89,0.96,1.63*08
\c:1591634492169*65\$GPGSV,3,1,12,01,63,293,45,03,31,215,40,08,57,152,47,10,17,048,44*72
\c:1591634492314*6D\$GPGSV,3,2,12,11,87,059,47,14,29,105,42,17,01,312,10,22,57,210,46*72
\c:1591634492460*69\$GPGSV,3,3,12,27,24,141,43,28,27,308,41,32,32,080,48,39,29,145,39*74
\c:1591634492568*60\$GPGLL,4729.97685,N,00222.58439,W,164219.00,A,A*7E
\c:1591634492709*65\$GPRMC,164220.00,A,4729.97683,N,00222.58439,W,0.009,,080620,,,A*6E
\c:1591634492782*66\$GPVTG,,T,,M,0.009,N,0.016,K,A*2D
\c:1591634492937*66\$GPGGA,164220.00,4729.97683,N,00222.58439,W,1,09,0.96,-1.5,M,48.7,M,,*63
\c:1591634493062*6E\$GPGSA,A,3,03,08,10,11,14,22,32,27,28,,,,1.89,0.96,1.63*08
\c:1591634493207*6F\$GPGSV,3,1,12,01,63,293,46,03,31,215,43,08,57,152,47,10,17,048,44*72
\c:1591634493353*6F\$GPGSV,3,2,12,11,87,059,47,14,29,105,43,17,01,312,10,22,57,210,45*70
\c:1591634493499*6E\$GPGSV,3,3,12,27,24,141,43,28,27,308,42,32,32,080,49,39,29,145,40*78
\c:1591634493566*6F\$GPTXT,01,01,00,txbuf alloc*7F
\c:1591634493707*6A\$GPRMC,164221.00,A,4729.97681,N,00222.58440,W,0.013,,080620,,,A*68
\c:1591634493780*65\$GPVTG,,T,,M,0.013,N,0.025,K,A*26
\c:1591634493934*64\$GPGGA,164221.00,4729.97681,N,00222.58440,W,1,09,0.96,-1.5,M,48.7,M,,*6E
\c:1591634494059*61\$GPGSA,A,3,03,08,10,11,14,22,32,27,28,,,,1.89,0.96,1.63*08
\c:1591634494205*6A\$GPGSV,3,1,12,01,63,293,45,03,31,215,41,08,57,152,47,10,17,048,44*73
\c:1591634494351*6A\$GPGSV,3,2,12,11,87,059,47,14,29,105,41,17,01,312,10,22,57,210,46*71
\c:1591634494496*66\$GPGSV,3,3,12,27,24,141,43,28,27,308,41,32,32,080,49,39,29,145,39*75
\c:1591634494605*6E\$GPGLL,4729.97681,N,00222.58440,W,164221.00,A,A*7F
\c:1591634494746*68\$GPRMC,164222.00,A,4729.97678,N,00222.58440,W,0.020,,080620,,,A*6D
\c:1591634494819*6D\$GPVTG,,T,,M,0.020,N,0.037,K,A*25
\c:1591634494973*60\$GPGGA,164222.00,4729.97678,N,00222.58440,W,1,09,0.96,-1.5,M,48.7,M,,*6B
\c:1591634495098*6D\$GPGSA,A,3,03,08,10,11,14,22,32,27,28,,,,1.89,0.96,1.63*08
\c:1591634495244*6E\$GPGSV,3,1,12,01,63,293,46,03,31,215,41,08,57,152,47,10,17,048,45*71
\c:1591634495390*66\$GPGSV,3,2,12,11,87,059,47,14,29,105,40,17,01,312,10,22,57,210,45*73
\c:1591634495535*6F\$GPGSV,3,3,12,27,24,141,42,28,27,308,41,32,32,080,49,39,29,145,39*74
\c:1591634495644*6A\$GPGLL,4729.97678,N,00222.58440,W,164222.00,A,A*7A
\c:1591634495785*66\$GPRMC,164223.00,A,4729.97674,N,00222.58440,W,0.025,,080620,,,A*65
\c:1591634495858*69\$GPVTG,,T,,M,0.025,N,0.046,K,A*26
\c:1591634496012*6C\$GPGGA,164223.00,4729.97674,N,00222.58440,W,1,09,0.96,-1.6,M,48.7,M,,*65
\c:1591634496137*6A\$GPGSA,A,3,03,08,10,11,14,22,32,27,28,,,,1.89,0.96,1.63*08
\c:1591634496282*67\$GPGSV,3,1,12,01,63,293,46,03,31,215,39,08,56,152,47,10,17,048,46*7C
\c:1591634496428*61\$GPGSV,3,2,12,11,87,059,46,14,29,105,38,17,01,312,10,22,57,210,45*7D
\c:1591634496575*68\$GPGSV,3,3,12,27,24,141,40,28,27,308,41,32,32,080,49,39,29,145,37*78
\c:1591634496682*63\$GPGLL,4729.97674,N,00222.58440,W,164223.00,A,A*77
\c:1591634496823*66\$GPRMC,164224.00,A,4729.97672,N,00222.58441,W,0.024,,080620,,,A*64
\c:1591634496897*69\$GPVTG,,T,,M,0.024,N,0.044,K,A*25
\c:1591634497051*6A\$GPGGA,164224.00,4729.97672,N,00222.58441,W,1,09,0.96,-1.6,M,48.7,M,,*65
\c:1591634497176*6E\$GPGSA,A,3,03,08,10,11,14,22,32,27,28,,,,1.89,0.96,1.63*08
\c:1591634497321*6E\$GPGSV,3,1,12,01,63,293,47,03,31,215,41,08,56,152,47,10,17,048,47*73
\c:1591634497468*64\$GPGSV,3,2,12,11,87,059,46,14,29,105,37,17,01,312,10,22,57,210,44*73
\c:1591634497614*6D\$GPGSV,3,3,12,27,24,141,42,28,27,308,38,32,32,080,50,39,29,145,35*7E
\c:1591634497755*69\$GPRMC,164225.00,A,4729.97670,N,00222.58444,W,0.018,,080620,,,A*6D
\c:1591634497828*6C\$GPVTG,,T,,M,0.018,N,0.033,K,A*2A
\c:1591634497982*6D\$GPGGA,164225.00,4729.97670,N,00222.58444,W,1,09,0.96,-1.6,M,48.7,M,,*63
\c:1591634498107*67\$GPGSA,A,3,03,08,10,11,14,22,32,27,28,,,,1.89,0.96,1.63*08
\c:1591634498252*64\$GPGSV,3,1,12,01,63,293,47,03,31,215,42,08,56,152,47,10,17,048,46*71
\c:1591634498399*62\$GPGSV,3,2,12,11,87,059,46,14,29,105,38,17,01,312,10,22,57,210,44*7C
\c:1591634498544*64\$GPGSV,3,3,12,27,24,141,40,28,27,308,37,32,32,080,49,39,29,145,34*7A
\c:1591634498653*61\$GPGLL,4729.97670,N,00222.58444,W,164225.00,A,A*71
\c:1591634498794*6B\$GPRMC,164226.00,A,4729.97668,N,00222.58445,W,0.017,,080620,,,A*69
\c:1591634498867*68\$GPVTG,,T,,M,0.017,N,0.031,K,A*27
\c:1591634499021*63\$GPGGA,164226.00,4729.97668,N,00222.58445,W,1,09,0.96,-1.5,M,48.7,M,,*6B
\c:1591634499146*63\$GPGSA,A,3,03,08,10,11,14,22,32,27,28,,,,1.89,0.96,1.63*08
\c:1591634499291*6A\$GPGSV,3,1,12,01,63,293,46,03,31,215,42,08,56,152,47,10,17,048,45*73
\c:1591634499437*60\$GPGSV,3,2,12,11,87,064,46,14,29,105,40,17,01,312,10,22,57,210,45*7C
\c:1591634499584*69\$GPGSV,3,3,12,27,24,141,40,28,27,308,38,32,32,080,48,39,29,145,34*74
\c:1591634499691*6E\$GPGLL,4729.97668,N,00222.58445,W,164226.00,A,A*7A
\c:1591634499834*6F\$GPRMC,164227.00,A,4729.97667,N,00222.58447,W,0.024,,080620,,,A*65
\c:1591634499905*6C\$GPVTG,,T,,M,0.024,N,0.044,K,A*25
\c:1591634500060*67\$GPGGA,164227.00,4729.97667,N,00222.58447,W,1,09,0.96,-1.5,M,48.7,M,,*67
\c:1591634500185*6D\$GPGSA,A,3,03,08,10,11,14,22,32,27,28,,,,1.89,0.96,1.63*08
\c:1591634500331*60\$GPGSV,3,1,12,01,63,293,46,03,31,215,42,08,56,152,47,10,17,048,45*73
\c:1591634500476*64\$GPGSV,3,2,12,11,87,064,46,14,29,105,41,17,01,312,10,22,57,210,45*7D
\c:1591634500622*67\$GPGSV,3,3,12,27,24,141,39,28,27,308,37,32,32,080,48,39,29,145,32*73
\c:1591634500763*63\$GPRMC,164228.00,A,4729.97666,N,00222.58451,W,0.022,,080620,,,A*6A
\c:1591634500836*6C\$GPVTG,,T,,M,0.022,N,0.041,K,A*26
\c:1591634500991*60\$GPGGA,164228.00,4729.97666,N,00222.58451,W,1,09,0.96,-1.5,M,48.7,M,,*6E
\c:1591634501116*66\$GPGSA,A,3,03,08,10,11,14,22,32,27,28,,,,1.89,0.96,1.63*08
\c:1591634501261*65\$GPGSV,3,1,12,01,63,293,46,03,31,215,43,08,56,152,46,10,17,048,46*70
\c:1591634501407*63\$GPGSV,3,2,12,11,87,064,47,14,29,105,40,17,01,312,10,22,57,210,44*7C
\c:1591634501553*63\$GPGSV,3,3,12,27,24,141,39,28,27,308,34,32,32,080,49,39,29,145,31*72
\c:1591634501661*61\$GPGLL,4729.97666,N,00222.58451,W,164228.00,A,A*7F
\c:1591634501802*6A\$GPRMC,164229.00,A,4729.97665,N,00222.58456,W,0.028,,080620,,,A*65
\c:1591634501875*6A\$GPVTG,,T,,M,0.028,N,0.052,K,A*2E
\c:1591634502029*68\$GPGGA,164229.00,4729.97665,N,00222.58456,W,1,09,0.96,-1.5,M,48.7,M,,*6B
\c:1591634502155*62\$GPGSA,A,3,03,08,10,11,14,22,32,27,28,,,,1.89,0.96,1.63*08
\c:1591634502301*61\$GPGSV,3,1,12,01,63,293,46,03,31,215,44,08,56,152,46,10,17,048,44*75
\c:1591634502446*65\$GPGSV,3,2,12,11,87,064,46,14,29,105,40,17,01,312,10,22,57,210,45*7C
\c:1591634502592*6D\$GPGSV,3,3,12,27,24,141,39,28,27,308,35,32,32,080,49,39,29,145,31*73
\c:1591634502700*64\$GPGLL,4729.97665,N,00222.58456,W,164229.00,A,A*7A
\c:1591634502841*6E\$GPRMC,164230.00,A,4729.97667,N,00222.58465,W,0.049,,080620,,,A*68
\c:1591634502914*6F\$GPVTG,,T,,M,0.049,N,0.091,K,A*26
\c:1591634503068*6C\$GPGGA,164230.00,4729.97667,N,00222.58465,W,1,09,0.96,-1.6,M,48.7,M,,*62
\c:1591634503193*69\$GPGSA,A,3,03,08,10,11,14,22,32,27,28,,,,1.89,0.96,1.63*08
\c:1591634503340*65\$GPGSV,3,1,12,01,63,293,46,03,31,215,44,08,56,152,45,10,17,048,45*77
\c:1591634503485*6B\$GPGSV,3,2,12,11,87,064,46,14,29,105,38,17,01,312,08,22,57,210,45*7A
\c:1591634503631*66\$GPGSV,3,3,12,27,24,141,39,28,27,308,38,32,32,080,49,39,29,145,31*7E
\c:1591634503739*6F\$GPGLL,4729.97667,N,00222.58465,W,164230.00,A,A*70
\c:1591634503881*63\$GPRMC,164231.00,A,4729.97671,N,00222.58475,W,0.043,,080620,,,A*65
\c:1591634503953*6D\$GPVTG,,T,,M,0.043,N,0.080,K,A*2C
\c:1591634504107*63\$GPGGA,164231.00,4729.97671,N,00222.58475,W,1,09,0.96,-1.6,M,48.7,M,,*65
\c:1591634504232*66\$GPGSA,A,3,03,08,10,11,14,22,32,27,28,,,,1.89,0.96,1.63*08
\c:1591634504379*68\$GPGSV,3,1,12,01,63,293,47,03,31,215,42,08,56,152,46,10,17,048,44*72
\c:1591634504523*61\$GPGSV,3,2,12,11,87,064,46,14,29,105,40,17,01,312,15,22,57,210,45*79
\c:1591634504670*64\$GPGSV,3,3,12,27,24,141,40,28,27,308,38,32,32,080,49,39,29,145,33*72
\c:1591634504736*67\$GPTXT,01,01,00,txbuf alloc*7F
\c:1591634504878*62\$GPRMC,164232.00,A,4729.97673,N,00222.58482,W,0.040,,080620,,,A*6F
\c:1591634504950*69\$GPVTG,,T,,M,0.040,N,0.075,K,A*25
\c:1591634505104*61\$GPGGA,164232.00,4729.97673,N,00222.58482,W,1,09,0.96,-1.6,M,48.7,M,,*6C
\c:1591634505229*6D\$GPGSA,A,3,03,08,10,11,14,22,32,27,28,,,,1.89,0.96,1.63*08
\c:1591634505376*66\$GPGSV,3,1,12,01,63,293,47,03,31,215,41,08,56,152,47,10,17,048,44*70
\c:1591634505521*62\$GPGSV,3,2,12,11,87,064,46,14,29,105,41,17,01,312,17,22,57,210,45*7A
\c:1591634505667*63\$GPGSV,3,3,12,27,24,141,42,28,27,308,40,32,32,080,48,39,29,145,35*78
\c:1591634505808*64\$GPRMC,164233.00,A,4729.97674,N,00222.58485,W,0.027,,080620,,,A*6F
\c:1591634505881*65\$GPVTG,,T,,M,0.027,N,0.050,K,A*23
\c:1591634506035*61\$GPGGA,164233.00,4729.97674,N,00222.58485,W,1,09,0.96,-1.6,M,48.7,M,,*6D
\c:1591634506160*60\$GPGSA,A,3,03,08,10,11,14,22,32,27,28,,,,1.89,0.96,1.63*08
\c:1591634506307*63\$GPGSV,3,1,12,01,63,293,46,03,31,215,40,08,56,152,47,10,17,048,44*70
\c:1591634506452*64\$GPGSV,3,2,12,11,87,064,46,14,29,105,41,17,01,312,16,22,57,210,45*7B
\c:1591634506598*63\$GPGSV,3,3,12,27,24,141,41,28,27,308,41,32,32,080,48,39,29,145,36*79
\c:1591634506706*66\$GPGLL,4729.97674,N,00222.58485,W,164233.00,A,A*7F
\c:1591634506847*6C\$GPRMC,164234.00,A,4729.97673,N,00222.58488,W,0.038,,080620,,,A*6C
\c:1591634506920*6C\$GPVTG,,T,,M,0.038,N,0.070,K,A*2F
\c:1591634507074*65\$GPGGA,164234.00,4729.97673,N,00222.58488,W,1,09,0.96,-1.6,M,48.7,M,,*60
\c:1591634507200*64\$GPGSA,A,3,03,08,10,11,14,22,32,27,28,,,,1.89,0.96,1.63*08
\c:1591634507346*67\$GPGSV,3,1,12,01,63,293,47,03,31,215,39,08,56,152,47,10,17,048,43*78
\c:1591634507492*69\$GPGSV,3,2,12,11,87,064,46,14,29,105,41,17,01,312,12,22,57,210,46*7C
\c:1591634507637*64\$GPGSV,3,3,12,27,24,141,41,28,27,308,42,32,32,080,49,39,29,145,37*7A
\c:1591634507778*6E\$GPRMC,164235.00,A,4729.97671,N,00222.58489,W,0.033,,080620,,,A*65
\c:1591634507852*69\$GPVTG,,T,,M,0.033,N,0.061,K,A*24
\c:1591634508006*6F\$GPGGA,164235.00,4729.97671,N,00222.58489,W,1,09,0.96,-1.5,M,48.7,M,,*61
\c:1591634508131*6A\$GPGSA,A,3,03,08,10,11,14,22,32,27,28,,,,1.89,0.96,1.63*08
\c:1591634508276*6A\$GPGSV,3,1,12,01,63,293,47,03,31,215,39,08,56,152,47,10,17,048,44*7F
\c:1591634508422*6D\$GPGSV,3,2,12,11,87,064,46,14,29,105,40,17,01,312,10,22,57,210,45*7C
\c:1591634508567*6D\$GPGSV,3,3,12,27,24,141,41,28,27,308,42,32,32,080,48,39,29,145,38*74
\c:1591634508676*6E\$GPGLL,4729.97671,N,00222.58489,W,164235.00,A,A*70
\c:1591634508817*67\$GPRMC,164236.00,A,4729.97668,N,00222.58488,W,0.028,,080620,,,A*65
\c:1591634508890*68\$GPVTG,,T,,M,0.028,N,0.052,K,A*2E
\c:1591634509044*68\$GPGGA,164236.00,4729.97668,N,00222.58488,W,1,09,0.96,-1.5,M,48.7,M,,*6B
\c:1591634509169*66\$GPGSA,A,3,03,08,10,11,14,22,32,27,28,,,,1.89,0.96,1.63*08
\c:1591634509314*6E\$GPGSV,3,1,12,01,63,293,46,03,31,215,39,08,56,152,46,10,17,048,44*7F
\c:1591634509461*6B\$GPGSV,3,2,12,11,87,064,46,14,29,105,39,17,01,312,09,22,57,210,46*79
\c:1591634509606*68\$GPGSV,3,3,12,27,24,141,40,28,27,308,42,32,32,080,48,39,29,145,38*75
\c:1591634509715*6B\$GPGLL,4729.97668,N,00222.58488,W,164236.00,A,A*7A
\c:1591634509856*63\$GPRMC,164237.00,A,4729.97665,N,00222.58487,W,0.020,,080620,,,A*6E
\c:1591634509929*6A\$GPVTG,,T,,M,0.020,N,0.038,K,A*2A
\c:1591634510083*6B\$GPGGA,164237.00,4729.97665,N,00222.58487,W,1,09,0.96,-1.5,M,48.7,M,,*68
\c:1591634510208*6A\$GPGSA,A,3,03,08,10,11,14,22,32,27,28,,,,1.89,0.96,1.63*08
\c:1591634510354*62\$GPGSV,3,1,12,01,63,293,47,03,31,215,39,08,56,152,47,10,17,048,44*7F
\c:1591634510500*65\$GPGSV,3,2,12,11,87,064,46,14,29,105,38,17,01,312,09,22,57,210,46*78
\c:1591634510645*67\$GPGSV,3,3,12,27,24,141,39,28,27,308,42,32,32,080,48,39,29,145,38*7B
\c:1591634510788*67\$GPRMC,164238.00,A,4729.97662,N,00222.58487,W,0.019,,080620,,,A*6C
\c:1591634510861*6F\$GPVTG,,T,,M,0.019,N,0.035,K,A*2D
\c:1591634511015*65\$GPGGA,164238.00,4729.97662,N,00222.58487,W,1,09,0.96,-1.5,M,48.7,M,,*60
\c:1591634511139*6A\$GPGSA,A,3,03,08,10,11,14,22,32,27,28,,,,1.89,0.96,1.63*08
\c:1591634511285*6E\$GPGSV,3,1,12,01,63,293,47,03,31,215,39,08,56,152,47,10,17,048,44*7F
\c:1591634511431*67\$GPGSV,3,2,12,11,87,064,46,14,29,105,39,17,01,312,16,22,57,210,46*77
\c:1591634511577*64\$GPGSV,3,3,12,27,24,141,40,28,27,308,41,32,32,080,48,39,29,145,39*77
\c:1591634511685*6A\$GPGLL,4729.97662,N,00222.58487,W,164238.00,A,A*71
\c:1591634511826*6D\$GPRMC,164239.00,A,4729.97659,N,00222.58486,W,0.016,,080620,,,A*6B
\c:1591634511899*69\$GPVTG,,T,,M,0.016,N,0.030,K,A*27
\c:1591634512053*64\$GPGGA,164239.00,4729.97659,N,00222.58486,W,1,09,0.96,-1.5,M,48.7,M,,*68
\c:1591634512178*6C\$GPGSA,A,3,03,08,10,11,14,22,32,27,28,,,,1.89,0.96,1.63*08
\c:1591634512323*60\$GPGSV,3,1,12,01,63,293,46,03,31,215,39,08,56,152,46,10,17,048,44*7F
\c:1591634512470*61\$GPGSV,3,2,12,11,87,064,47,14,29,105,40,17,01,312,09,22,57,210,46*76
\c:1591634512615*60\$GPGSV,3,3,12,27,24,141,38,28,27,308,41,32,32,080,48,39,29,145,39*78
\c:1591634512724*63\$GPGLL,4729.97659,N,00222.58486,W,164239.00,A,A*79
\c:1591634512865*69\$GPRMC,164240.00,A,4729.97656,N,00222.58484,W,0.034,,080620,,,A*68
\c:1591634512938*60\$GPVTG,,T,,M,0.034,N,0.063,K,A*21
\c:1591634513092*68\$GPGGA,164240.00,4729.97656,N,00222.58484,W,1,09,0.96,-1.5,M,48.7,M,,*6B
\c:1591634513217*67\$GPGSA,A,3,03,08,10,11,14,22,32,27,28,,,,1.89,0.96,1.63*08
\c:1591634513362*64\$GPGSV,3,1,12,01,63,293,47,03,31,215,40,08,56,152,47,10,17,048,45*70
\c:1591634513508*6E\$GPGSV,3,2,12,11,87,064,47,14,29,105,39,17,01,312,14,22,57,210,46*74
\c:1591634513654*64\$GPGSV,3,3,12,27,24,141,39,28,27,308,41,32,32,080,47,39,29,145,38*77
\c:1591634513796*6B\$GPRMC,164241.00,A,4729.97656,N,00222.58480,W,0.040,,080620,,,A*6E
\c:1591634513869*64\$GPVTG,,T,,M,0.040,N,0.074,K,A*24
\c:1591634514023*65\$GPGGA,164241.00,4729.97656,N,00222.58480,W,1,09,0.96,-1.5,M,48.7,M,,*6E
\c:1591634514147*66\$GPGSA,A,3,03,08,10,11,14,22,32,27,28,,,,1.89,0.96,1.63*08
\c:1591634514293*6C\$GPGSV,3,1,12,01,63,293,47,03,31,215,41,08,56,152,48,10,17,048,46*7D
\c:1591634514439*6A\$GPGSV,3,2,12,11,87,064,46,14,29,105,38,17,01,312,19,22,57,210,45*7A
\c:1591634514584*6D\$GPGSV,3,3,12,27,24,141,41,28,27,308,41,32,32,080,47,39,29,145,39*79
\c:1591634514693*68\$GPGLL,4729.97656,N,00222.58480,W,164241.00,A,A*7F
\c:1591634514834*6B\$GPRMC,164242.00,A,4729.97656,N,00222.58475,W,0.021,,080620,,,A*60
\c:1591634514907*6A\$GPVTG,,T,,M,0.021,N,0.040,K,A*24
\c:1591634515062*61\$GPGGA,164242.00,4729.97656,N,00222.58475,W,1,09,0.96,-1.4,M,48.7,M,,*66
\c:1591634515187*6B\$GPGSA,A,3,03,08,10,11,14,22,32,27,28,,,,1.89,0.96,1.63*08
\c:1591634515332*67\$GPGSV,3,1,12,01,63,293,46,03,31,215,42,08,56,152,48,10,17,048,47*7E
\c:1591634515478*6E\$GPGSV,3,2,12,11,87,064,46,14,29,105,40,17,01,312,22,22,57,210,45*7D
\c:1591634515624*65\$GPGSV,3,3,12,27,24,141,42,28,27,308,41,32,32,080,47,39,29,145,38*7B
\c:1591634515691*6B\$GPTXT,01,01,00,txbuf alloc*7F
\c:1591634515832*6C\$GPRMC,164243.00,A,4729.97657,N,00222.58472,W,0.012,,080620,,,A*67
\c:1591634515905*69\$GPVTG,,T,,M,0.012,N,0.022,K,A*20
\c:1591634516059*6A\$GPGGA,164243.00,4729.97657,N,00222.58472,W,1,09,0.97,-1.3,M,48.7,M,,*67
\c:1591634516184*6B\$GPGSA,A,3,03,08,10,11,14,22,32,27,28,,,,1.89,0.97,1.63*09
\c:1591634516329*6E\$GPGSV,3,1,12,01,63,293,46,03,31,215,43,08,56,152,48,10,17,048,47*7F
\c:1591634516476*63\$GPGSV,3,2,12,11,86,065,46,14,29,105,40,17,01,312,22,22,57,210,46*7E
\c:1591634516621*63\$GPGSV,3,3,12,27,24,141,42,28,27,308,41,32,32,080,47,39,29,145,37*74
\c:1591634516730*62\$GPGLL,4729.97657,N,00222.58472,W,164243.00,A,A*71
\c:1591634516871*68\$GPRMC,164244.00,A,4729.97657,N,00222.58468,W,0.028,,080620,,,A*62
\c:1591634516944*6F\$GPVTG,,T,,M,0.028,N,0.052,K,A*2E
\c:1591634517098*66\$GPGGA,164244.00,4729.97657,N,00222.58468,W,1,09,0.97,-1.2,M,48.7,M,,*6A
\c:1591634517223*64\$GPGSA,A,3,03,08,10,11,14,22,32,27,28,,,,1.89,0.97,1.63*09
\c:1591634517368*6A\$GPGSV,3,1,12,01,63,293,46,03,31,215,44,08,56,152,47,10,17,048,48*78
\c:1591634517511*62\$GPGSV,3,2,12,11,86,065,46,14,29,105,41,17,01,312,,22,57,210,45*7C
\c:1591634517656*62\$GPGSV,3,3,12,27,24,141,41,28,27,308,41,32,32,080,47,39,29,145,37*77
\c:1591634517798*61\$GPRMC,164245.00,A,4729.97658,N,00222.58464,W,0.062,,080620,,,A*6E
\c:1591634517871*69\$GPVTG,,T,,M,0.062,N,0.114,K,A*23
\c:1591634518024*6E\$GPGGA,164245.00,4729.97658,N,00222.58464,W,1,09,0.97,-1.1,M,48.7,M,,*6B
\c:1591634518149*64\$GPGSA,A,3,03,08,10,11,14,22,32,27,28,,,,1.89,0.97,1.63*09
\c:1591634518295*66\$GPGSV,3,1,12,01,63,293,46,03,31,215,41,08,56,152,46,10,17,048,49*7D
\c:1591634518436*69\$GPGSV,3,2,12,11,86,065,45,14,29,105,41,17,01,312,,22,57,210,45*7F
\c:1591634518583*66\$GPGSV,3,3,12,27,24,141,41,28,27,308,40,32,32,080,47,39,29,145,33*72
\c:1591634518691*66\$GPGLL,4729.97658,N,00222.58464,W,164245.00,A,A*7F
\c:1591634518833*60\$GPRMC,164246.00,A,4729.97659,N,00222.58461,W,0.051,,080620,,,A*69
\c:1591634518906*67\$GPVTG,,T,,M,0.051,N,0.095,K,A*2B
\c:1591634519059*65\$GPGGA,164246.00,4729.97659,N,00222.58461,W,1,09,0.97,-1.0,M,48.7,M,,*6D
\c:1591634519184*64\$GPGSA,A,3,03,08,10,11,14,22,32,27,28,,,,1.89,0.97,1.63*09
\c:1591634519330*69\$GPGSV,3,1,12,01,63,293,47,03,31,215,41,08,56,152,45,10,17,048,48*7E
\c:1591634519475*6F\$GPGSV,3,2,12,11,86,065,46,14,29,105,44,17,01,312,24,22,57,210,46*7C
\c:1591634519622*6F\$GPGSV,3,3,12,27,24,141,42,28,27,308,43,32,32,080,48,39,29,145,32*7C
\c:1591634519763*6B\$GPRMC,164247.00,A,4729.97657,N,00222.58460,W,0.082,,080620,,,A*69
\c:1591634519836*64\$GPVTG,,T,,M,0.082,N,0.153,K,A*2E
\c:1591634519990*69\$GPGGA,164247.00,4729.97657,N,00222.58460,W,1,09,0.97,-0.9,M,48.7,M,,*6B
\c:1591634520115*66\$GPGSA,A,3,03,08,10,11,14,22,32,27,28,,,,1.89,0.97,1.63*09
\c:1591634520261*66\$GPGSV,3,1,12,01,63,293,48,03,31,215,43,08,56,152,45,10,17,048,48*73
\c:1591634520406*61\$GPGSV,3,2,12,11,86,065,45,14,29,105,42,17,01,312,24,22,57,210,44*7B
\c:1591634520553*60\$GPGSV,3,3,12,27,24,141,41,28,27,308,41,32,32,080,48,39,29,145,33*7C
\c:1591634520660*63\$GPGLL,4729.97657,N,00222.58460,W,164247.00,A,A*76
\c:1591634520802*69\$GPRMC,164248.00,A,4729.97654,N,00222.58457,W,0.091,,080620,,,A*63
\c:1591634520875*69\$GPVTG,,T,,M,0.091,N,0.168,K,A*24
\c:1591634521029*69\$GPGGA,164248.00,4729.97654,N,00222.58457,W,1,09,0.97,-0.8,M,48.7,M,,*62
\c:1591634521154*62\$GPGSA,A,3,03,08,10,11,14,22,32,27,28,,,,1.89,0.97,1.63*09
\c:1591634521300*61\$GPGSV,3,1,12,01,63,293,45,03,31,215,44,08,56,152,46,10,17,048,48*7A
\c:1591634521445*67\$GPGSV,3,2,12,11,86,065,46,14,29,105,39,17,01,312,22,22,57,210,44*72
\c:1591634521592*6C\$GPGSV,3,3,12,27,24,141,43,28,27,308,43,32,32,080,47,39,29,145,35*75
\c:1591634521699*64\$GPGLL,4729.97654,N,00222.58457,W,164248.00,A,A*7E
\c:1591634521841*6F\$GPRMC,164249.00,A,4729.97655,N,00222.58452,W,0.050,,080620,,,A*6B
\c:1591634521914*6E\$GPVTG,,T,,M,0.050,N,0.093,K,A*2C
\c:1591634522068*6F\$GPGGA,164249.00,4729.97655,N,00222.58452,W,1,09,0.97,-0.8,M,48.7,M,,*67
\c:1591634522193*6A\$GPGSA,A,3,03,08,10,11,14,22,32,27,28,,,,1.89,0.97,1.63*09
\c:1591634522339*68\$GPGSV,3,1,12,01,63,293,44,03,31,215,44,08,56,152,46,10,17,048,46*75
\c:1591634522484*69\$GPGSV,3,2,12,11,86,065,46,14,29,105,38,17,01,312,22,22,57,210,44*73
\c:1591634522631*65\$GPGSV,3,3,12,27,24,141,41,28,27,308,37,32,32,080,47,39,29,145,32*73
\c:1591634522772*63\$GPRMC,164250.00,A,4729.97658,N,00222.58452,W,0.022,,080620,,,A*6B
\c:1591634522845*68\$GPVTG,,T,,M,0.022,N,0.041,K,A*26
\c:1591634522999*68\$GPGGA,164250.00,4729.97658,N,00222.58452,W,1,09,0.97,-0.8,M,48.7,M,,*62
\c:1591634523124*67\$GPGSA,A,3,03,08,10,11,14,22,32,27,28,,,,1.89,0.97,1.63*09
\c:1591634523269*6D\$GPGSV,3,1,12,01,63,293,47,03,31,215,45,08,56,152,46,10,17,048,46*77
\c:1591634523415*60\$GPGSV,3,2,12,11,86,065,46,14,29,105,41,17,01,312,22,22,57,210,44*7D
\c:1591634523560*63\$GPGSV,3,3,12,27,24,141,42,28,27,308,37,32,32,080,48,39,29,145,32*7F
\c:1591634523670*61\$GPGLL,4729.97658,N,00222.58452,W,164250.00,A,A*7E
\c:1591634523811*68\$GPRMC,164251.00,A,4729.97662,N,00222.58457,W,0.030,,080620,,,A*65
\c:1591634523884*64\$GPVTG,,T,,M,0.030,N,0.056,K,A*23
\c:1591634524038*6C\$GPGGA,164251.00,4729.97662,N,00222.58457,W,1,09,0.97,-0.8,M,48.7,M,,*6F
\c:1591634524162*62\$GPGSA,A,3,03,08,10,11,14,22,32,27,28,,,,1.89,0.97,1.63*09
\c:1591634524308*6C\$GPGSV,3,1,12,01,63,293,45,03,31,215,45,08,56,152,45,10,17,048,46*76
\c:1591634524455*63\$GPGSV,3,2,12,11,86,065,46,14,29,105,42,17,01,312,23,22,57,210,43*78
\c:1591634524600*61\$GPGSV,3,3,12,27,24,141,42,28,27,308,38,32,32,080,48,39,29,145,33*71
\c:1591634524709*69\$GPGLL,4729.97662,N,00222.58457,W,164251.00,A,A*73
\c:1591634524850*6A\$GPRMC,164252.00,A,4729.97670,N,00222.58468,W,0.032,,080620,,,A*6B
\c:1591634524923*6F\$GPVTG,,T,,M,0.032,N,0.060,K,A*24
\c:1591634525077*66\$GPGGA,164252.00,4729.97670,N,00222.58468,W,1,09,0.97,-0.9,M,48.7,M,,*62
\c:1591634525202*66\$GPGSA,A,3,03,08,10,11,14,22,32,27,28,,,,1.89,0.97,1.63*09
\c:1591634525347*66\$GPGSV,3,1,12,01,63,293,45,03,31,215,45,08,56,152,46,10,17,048,46*75
\c:1591634525493*68\$GPGSV,3,2,12,11,86,065,46,14,29,105,42,17,01,312,21,22,57,210,42*7B
\c:1591634525640*64\$GPGSV,3,3,12,27,24,141,42,28,27,308,40,32,32,080,48,39,29,145,34*79
\c:1591634525781*68\$GPRMC,164253.00,A,4729.97674,N,00222.58473,W,0.068,,080620,,,A*6B
\c:1591634525854*6F\$GPVTG,,T,,M,0.068,N,0.127,K,A*29
\c:1591634526007*62\$GPGGA,164253.00,4729.97674,N,00222.58473,W,1,09,0.97,-0.8,M,48.7,M,,*6C
\c:1591634526132*65\$GPGSA,A,3,03,08,10,11,14,22,32,27,28,,,,1.89,0.97,1.63*09
\c:1591634526278*68\$GPGSV,3,1,12,01,63,293,46,03,31,215,45,08,56,152,44,10,17,048,47*75
\c:1591634526425*66\$GPGSV,3,2,12,11,86,065,45,14,29,105,44,17,01,312,20,22,57,210,45*78
\c:1591634526569*6F\$GPGSV,3,3,12,27,24,141,41,28,27,308,35,32,32,080,47,39,29,145,34*77
\c:1591634526636*66\$GPTXT,01,01,00,txbuf alloc*7F
\c:1591634526778*6D\$GPRMC,164254.00,A,4729.97683,N,00222.58482,W,0.059,,080620,,,A*68
\c:1591634526850*68\$GPVTG,,T,,M,0.059,N,0.108,K,A*26
\c:1591634527005*61\$GPGGA,164254.00,4729.97683,N,00222.58482,W,1,09,0.97,-0.7,M,48.7,M,,*62
\c:1591634527130*66\$GPGSA,A,3,03,08,10,11,14,22,32,27,28,,,,1.89,0.97,1.63*09
\c:1591634527276*67\$GPGSV,3,1,12,01,63,293,46,03,31,215,45,08,56,152,45,10,17,048,47*74
\c:1591634527421*63\$GPGSV,3,2,12,11,86,065,45,14,29,105,42,17,01,312,21,22,57,210,46*7C
\c:1591634527567*60\$GPGSV,3,3,12,27,24,141,43,28,27,308,40,32,32,080,48,39,29,145,33*7F
\c:1591634527675*60\$GPGLL,4729.97683,N,00222.58482,W,164254.00,A,A*71
\c:1591634527817*6A\$GPRMC,164255.00,A,4729.97687,N,00222.58484,W,0.049,,080620,,,A*6A
\c:1591634527890*65\$GPVTG,,T,,M,0.049,N,0.092,K,A*25
\c:1591634528044*6B\$GPGGA,164255.00,4729.97687,N,00222.58484,W,1,09,0.97,-0.6,M,48.7,M,,*60
\c:1591634528169*65\$GPGSA,A,3,03,08,10,11,14,22,32,27,28,,,,1.89,0.97,1.63*09
\c:1591634528314*6D\$GPGSV,3,1,12,01,63,293,45,03,31,215,45,08,56,152,44,10,17,048,47*76
\c:1591634528460*69\$GPGSV,3,2,12,11,86,065,45,14,29,105,40,17,01,312,22,22,57,210,46*7D
\c:1591634528606*6B\$GPGSV,3,3,12,27,24,141,43,28,27,308,42,32,32,080,47,39,29,145,33*72
\c:1591634528714*69\$GPGLL,4729.97687,N,00222.58484,W,164255.00,A,A*72
\c:1591634528857*61\$GPRMC,164256.00,A,4729.97688,N,00222.58482,W,0.051,,080620,,,A*69
\c:1591634528929*69\$GPVTG,,T,,M,0.051,N,0.095,K,A*2B
\c:1591634529083*61\$GPGGA,164256.00,4729.97688,N,00222.58482,W,1,09,0.97,-0.4,M,48.7,M,,*68
\c:1591634529208*60\$GPGSA,A,3,03,08,10,11,14,22,32,27,28,,,,1.89,0.97,1.63*09
\c:1591634529353*6F\$GPGSV,3,1,12,01,64,293,46,03,31,215,45,08,56,152,45,10,17,048,48*7C
\c:1591634529499*6E\$GPGSV,3,2,12,11,86,065,45,14,29,105,39,17,01,312,22,22,57,210,47*72
\c:1591634529645*6D\$GPGSV,3,3,12,27,24,141,42,28,27,308,43,32,32,080,49,39,29,145,36*79
\c:1591634529786*63\$GPRMC,164257.00,A,4729.97689,N,00222.58479,W,0.030,,080620,,,A*6A
\c:1591634529860*64\$GPVTG,,T,,M,0.030,N,0.056,K,A*23
\c:1591634530014*67\$GPGGA,164257.00,4729.97689,N,00222.58479,W,1,09,0.97,-0.3,M,48.7,M,,*6B
\c:1591634530138*68\$GPGSA,A,3,03,08,10,11,14,22,32,27,28,,,,1.89,0.97,1.63*09
\c:1591634530284*6C\$GPGSV,3,1,12,01,64,293,47,03,31,215,44,08,56,152,45,10,17,048,48*7C
\c:1591634530430*65\$GPGSV,3,2,12,11,86,065,45,14,29,105,38,17,01,312,21,22,57,210,46*71
\c:1591634530575*65\$GPGSV,3,3,12,27,24,141,44,28,27,308,44,32,32,080,48,39,29,145,35*7A
\c:1591634530684*68\$GPGLL,4729.97689,N,00222.58479,W,164257.00,A,A*7C
\c:1591634530826*6E\$GPRMC,164258.00,A,4729.97688,N,00222.58476,W,0.044,,080620,,,A*68
\c:1591634530899*6A\$GPVTG,,T,,M,0.044,N,0.082,K,A*29
\c:1591634531053*65\$GPGGA,164258.00,4729.97688,N,00222.58476,W,1,09,0.97,-0.1,M,48.7,M,,*68
\c:1591634531177*62\$GPGSA,A,3,03,08,10,11,14,22,32,27,28,,,,1.89,0.97,1.63*09
\c:1591634531323*61\$GPGSV,3,1,12,01,64,293,46,03,31,215,44,08,56,152,45,10,17,048,49*7C
\c:1591634531469*68\$GPGSV,3,2,12,11,86,065,45,14,29,105,37,17,01,312,18,22,57,210,45*77
\c:1591634531614*60\$GPGSV,3,3,12,27,24,141,44,28,27,308,44,32,32,080,48,39,29,145,34*7B
\c:1591634531723*65\$GPGLL,4729.97688,N,00222.58476,W,164258.00,A,A*7D
\c:1591634531864*69\$GPRMC,164259.00,A,4729.97688,N,00222.58473,W,0.009,,080620,,,A*65
\c:1591634531938*61\$GPVTG,,T,,M,0.009,N,0.016,K,A*2D
\c:1591634532089*61\$GPGGA,164259.00,4729.97688,N,00222.58473,W,1,09,0.97,0.1,M,48.7,M,,*41
\c:1591634532214*67\$GPGSA,A,3,03,08,10,11,14,22,32,27,28,,,,1.89,0.97,1.63*09
\c:1591634532360*65\$GPGSV,3,1,12,01,64,293,46,03,31,215,44,08,56,152,46,10,17,048,50*77
\c:1591634532506*63\$GPGSV,3,2,12,11,86,065,45,14,29,105,39,17,01,312,14,22,57,210,44*74
\c:1591634532651*62\$GPGSV,3,3,12,27,24,141,43,28,27,308,44,32,32,080,47,39,29,145,33*74
\c:1591634532793*6D\$GPRMC,164300.00,A,4729.97687,N,00222.58471,W,0.013,,080620,,,A*6E
\c:1591634532865*6B\$GPVTG,,T,,M,0.013,N,0.024,K,A*27
\c:1591634533019*69\$GPGGA,164300.00,4729.97687,N,00222.58471,W,1,09,0.97,0.2,M,48.7,M,,*42
\c:1591634533142*66\$GPGSA,A,3,03,08,10,11,14,22,32,27,28,,,,1.89,0.97,1.63*09
\c:1591634533289*62\$GPGSV,3,1,12,01,64,293,46,03,31,215,41,08,56,152,45,10,17,048,48*78
\c:1591634533435*63\$GPGSV,3,2,12,11,86,065,44,14,29,105,37,17,01,312,13,22,57,210,44*7C
\c:1591634533580*6C\$GPGSV,3,3,12,27,24,141,42,28,27,308,43,32,32,080,47,39,29,145,32*73
\c:1591634533689*66\$GPGLL,4729.97687,N,00222.58471,W,164300.00,A,A*79
\c:1591634533830*6A\$GPRMC,164301.00,A,4729.97685,N,00222.58469,W,0.027,,080620,,,A*63
\c:1591634533903*6B\$GPVTG,,T,,M,0.027,N,0.050,K,A*23
\c:1591634534055*66\$GPGGA,164301.00,4729.97685,N,00222.58469,W,1,09,0.97,0.3,M,48.7,M,,*49
\c:1591634534180*6F\$GPGSA,A,3,03,08,10,11,14,22,32,27,28,,,,1.89,0.97,1.63*09
\c:1591634534326*61\$GPGSV,3,1,12,01,64,293,46,03,31,215,42,08,56,152,46,10,17,048,48*78
\c:1591634534471*64\$GPGSV,3,2,12,11,86,065,45,14,29,105,38,17,01,312,12,22,57,210,43*74
\c:1591634534617*66\$GPGSV,3,3,12,27,24,141,40,28,27,308,43,32,32,080,48,39,29,145,31*7D
\c:1591634534758*6C\$GPRMC,164302.00,A,4729.97683,N,00222.58466,W,0.035,,080620,,,A*6A
\c:1591634534832*6F\$GPVTG,,T,,M,0.035,N,0.065,K,A*26
\c:1591634534983*64\$GPGGA,164302.00,4729.97683,N,00222.58466,W,1,09,0.97,0.5,M,48.7,M,,*45
\c:1591634535108*6E\$GPGSA,A,3,03,08,10,11,14,22,32,27,28,,,,1.89,0.97,1.63*09
\c:1591634535254*64\$GPGSV,3,1,12,01,64,293,44,03,31,215,44,08,56,152,46,10,17,048,48*7C
\c:1591634535399*64\$GPGSV,3,2,12,11,86,065,45,14,29,105,37,17,01,312,09,22,57,210,42*70
\c:1591634535546*60\$GPGSV,3,3,12,27,24,141,40,28,27,308,42,32,32,080,47,39,29,145,30*72
\c:1591634535653*67\$GPGLL,4729.97683,N,00222.58466,W,164302.00,A,A*79
\c:1591634535796*6F\$GPRMC,164303.00,A,4729.97681,N,00222.58464,W,0.015,,080620,,,A*69
\c:1591634535869*60\$GPVTG,,T,,M,0.015,N,0.027,K,A*22
\c:1591634536021*67\$GPGGA,164303.00,4729.97681,N,00222.58464,W,1,09,0.97,0.6,M,48.7,M,,*47
\c:1591634536146*67\$GPGSA,A,3,03,08,10,11,14,22,32,27,28,,,,1.89,0.97,1.63*09
\c:1591634536291*6E\$GPGSV,3,1,12,01,64,293,44,03,31,215,44,08,56,152,47,10,17,048,48*7D
\c:1591634536437*64\$GPGSV,3,2,12,11,86,065,45,14,29,105,29,17,01,312,09,22,57,210,43*7E
\c:1591634536582*6B\$GPGSV,3,3,12,27,24,141,41,28,27,308,42,32,32,080,48,39,29,145,31*7D
\c:1591634536691*6A\$GPGLL,4729.97681,N,00222.58464,W,164303.00,A,A*78
\c:1591634536832*6D\$GPRMC,164304.00,A,4729.97681,N,00222.58463,W,0.022,,080620,,,A*6D
\c:1591634536905*68\$GPVTG,,T,,M,0.022,N,0.040,K,A*27
\c:1591634537057*67\$GPGGA,164304.00,4729.97681,N,00222.58463,W,1,09,0.97,0.8,M,48.7,M,,*49
\c:1591634537182*6E\$GPGSA,A,3,03,08,10,11,14,22,32,27,28,,,,1.89,0.97,1.63*09
\c:1591634537328*6C\$GPGSV,3,1,12,01,64,293,45,03,31,215,44,08,56,152,46,10,17,048,48*7D
\c:1591634537473*65\$GPGSV,3,2,12,11,86,065,45,14,29,105,34,17,01,312,09,22,57,210,43*72
\c:1591634537620*61\$GPGSV,3,3,12,27,24,141,41,28,27,308,42,32,32,080,48,39,29,145,30*7C
\c:1591634537686*6D\$GPTXT,01,01,00,txbuf alloc*7F
\c:1591634537827*68\$GPRMC,164305.00,A,4729.97681,N,00222.58460,W,0.037,,080620,,,A*6B
\c:1591634537901*6D\$GPVTG,,T,,M,0.037,N,0.069,K,A*28
\c:1591634538052*6D\$GPGGA,164305.00,4729.97681,N,00222.58460,W,1,09,0.97,0.9,M,48.7,M,,*4A
\c:1591634538177*6B\$GPGSA,A,3,03,08,10,11,14,22,32,27,28,,,,1.89,0.97,1.63*09
\c:1591634538323*68\$GPGSV,3,1,12,01,64,293,45,03,31,215,44,08,56,152,47,10,16,048,48*7D
