\c:1597506584064*6B\$IIZDA,155047,15,08,2020,,*51
\c:1597506584122*68\$GPVTG,,T,,M,0.013,N,0.024,K,A*27
\c:1597506584143*6F\$IIVTG,,T,,M,0.0,N,0.0,K,A*34
\c:1597506584247*68\$IIVHW,,T,237,M,0.00,N,0.00,K*63
\c:1597506584248*67\$IIHDG,237,,,,*51
\c:1597506584248*67\$IIHDM,237,M*3A
\c:1597506584263*6E\$IIMWV,204,R,6.1,N,A*22
\c:1597506584263*6E\$IIVWR,156,L,6.1,N,3.1,M,11.3,K*7D
\c:1597506584273*6F\$GPGGA,155047.00,4729.97666,N,00222.58432,W,1,10,0.89,4.1,M,48.7,M,,*48
\c:1597506584314*6F\$IIGLL,4729.9767,N,00222.5843,W,155047,A,A*4F
\c:1597506584314*6F\$IIRMC,155047,A,4729.9767,N,00222.5843,W,,150820,,,A*5A
\c:1597506584314*6F\$IIDPT,4.8,,*4E
\c:1597506584314*6F\$IIDBT,15.7,f,4.8,M,,*46
\c:1597506584402*6F\$GPGSA,A,3,03,04,17,19,22,31,09,01,06,02,,,1.63,0.89,1.37*05
\c:1597506584425*6A\$GPGSA,A,3,03,04,17,19,22,31,09,01,06,02,,,1.63,0.89,1.37*05
\c:1597506584548*60\$GPGSV,3,1,11,01,18,136,40,02,08,312,33,03,47,074,45,04,74,116,45*7B
\c:1597506584569*63\$GPGSV,3,1,11,01,18,136,40,02,08,312,33,03,47,074,45,04,74,116,45*7B
\c:1597506584690*66\$GPGSV,3,2,11,06,46,306,43,09,51,204,49,12,01,322,,17,39,236,44*72
\c:1597506584714*6B\$GPGSV,3,2,11,06,46,306,43,09,51,204,49,12,01,322,,17,39,236,44*72
\c:1597506584808*69\$GPGSV,3,3,11,19,43,261,49,22,27,085,45,31,11,034,40*46
\c:1597506584825*66\$GPGSV,3,3,11,19,43,261,49,22,27,085,45,31,11,034,40*46
\c:1597506584916*67\$GPGLL,4729.97666,N,00222.58432,W,155047.00,A,A*73
\c:1597506584953*66\$IIVLW,37.00,N,0.00,N*79
\c:1597506584985*6D\$IIMWV,204,T,6.1,N,A*24
\c:1597506584985*6D\$IIVWT,156,L,6.1,N,3.1,M,11.3,K*7B
\c:1597506585033*68\$IIMWD,,T,81,M,6.1,N,3.1,M*48
\c:1597506585058*65\$GPRMC,155048.00,A,4729.97666,N,00222.58435,W,0.027,,150820,,,A*69
\c:1597506585081*61\$IIZDA,155048,15,08,2020,,*5E
\c:1597506585131*6B\$GPVTG,,T,,M,0.027,N,0.050,K,A*23
\c:1597506585145*68\$IIVTG,,T,,M,0.0,N,0.1,K,A*35
\c:1597506585177*69\$IIMWV,205,R,6.1,N,A*23
\c:1597506585178*66\$IIVWR,155,L,6.1,N,3.1,M,11.3,K*7E
\c:1597506585283*61\$GPGGA,155048.00,4729.97666,N,00222.58435,W,1,10,0.89,4.1,M,48.7,M,,*40
\c:1597506585311*6B\$IIGLL,4729.9767,N,00222.5844,W,155048,A,A*47
\c:1597506585311*6B\$IIRMC,155048,A,4729.9767,N,00222.5844,W,,150820,,,A*52
\c:1597506585412*6F\$GPGSA,A,3,03,04,17,19,22,31,09,01,06,02,,,1.63,0.89,1.37*05
\c:1597506585437*68\$GPGSA,A,3,03,04,17,19,22,31,09,01,06,02,,,1.63,0.89,1.37*05
\c:1597506585558*60\$GPGSV,3,1,11,01,18,136,38,02,08,312,32,03,47,074,46,04,74,116,44*77
\c:1597506585582*67\$GPGSV,3,1,11,01,18,136,38,02,08,312,32,03,47,074,46,04,74,116,44*77
\c:1597506585700*6F\$GPGSV,3,2,11,06,46,306,43,09,51,204,50,12,01,322,,17,39,236,43*7D
\c:1597506585723*6E\$GPGSV,3,2,11,06,46,306,43,09,51,204,50,12,01,322,,17,39,236,43*7D
\c:1597506585818*69\$GPGSV,3,3,11,19,43,261,49,22,27,085,46,31,11,034,41*44
\c:1597506585836*65\$GPGSV,3,3,11,19,43,261,49,22,27,085,46,31,11,034,41*44
\c:1597506585927*64\$GPGLL,4729.97666,N,00222.58435,W,155048.00,A,A*7B
\c:1597506585948*6D\$IIMWV,205,T,6.1,N,A*25
\c:1597506585948*6D\$IIVWT,155,L,6.1,N,3.1,M,11.3,K*78
\c:1597506585948*6D\$IIMWD,,T,82,M,6.1,N,3.1,M*4B
\c:1597506586068*65\$GPRMC,155049.00,A,4729.97667,N,00222.58436,W,0.020,,150820,,,A*6D
\c:1597506586091*63\$IIZDA,155049,15,08,2020,,*5F
\c:1597506586141*6F\$GPVTG,,T,,M,0.020,N,0.038,K,A*2A
\c:1597506586156*69\$IIVTG,,T,,M,0.0,N,0.0,K,A*34
\c:1597506586293*63\$GPGGA,155049.00,4729.97667,N,00222.58436,W,1,10,0.89,4.1,M,48.7,M,,*43
\c:1597506586421*6C\$GPGSA,A,3,03,04,17,19,22,31,09,01,06,02,,,1.63,0.89,1.37*05
\c:1597506586443*68\$GPGSA,A,3,03,04,17,19,22,31,09,01,06,02,,,1.63,0.89,1.37*05
\c:1597506586568*60\$GPGSV,3,1,11,01,18,136,40,02,08,312,34,03,47,074,45,04,74,116,45*7C
\c:1597506586587*61\$GPGSV,3,1,11,01,18,136,40,02,08,312,34,03,47,074,45,04,74,116,45*7C
\c:1597506586709*65\$GPGSV,3,2,11,06,46,306,43,09,51,204,49,12,01,322,,17,39,236,44*72
\c:1597506586742*6A\$GPGSV,3,2,11,06,46,306,43,09,51,204,49,12,01,322,,17,39,236,44*72
\c:1597506586742*6A\$IIVHW,,T,237,M,0.00,N,0.00,K*63
\c:1597506586742*6A\$IIHDG,237,,,,*51
\c:1597506586742*6A\$IIHDM,237,M*3A
\c:1597506586829*68\$GPGSV,3,3,11,19,43,261,48,22,27,085,45,31,11,034,40*47
\c:1597506586837*67\$GPGSV,3,3,11,19,43,261,48,22,27,085,45,31,11,034,40*47
\c:1597506586936*67\$GPGLL,4729.97667,N,00222.58436,W,155049.00,A,A*78
\c:1597506587077*6A\$GPRMC,155050.00,A,4729.97665,N,00222.58437,W,0.023,,150820,,,A*65
\c:1597506587093*60\$IIZDA,155050,15,08,2020,,*57
\c:1597506587150*6E\$GPVTG,,T,,M,0.023,N,0.043,K,A*25
\c:1597506587302*6B\$GPGGA,155050.00,4729.97665,N,00222.58437,W,1,10,0.89,4.1,M,48.7,M,,*48
\c:1597506587431*6C\$GPGSA,A,3,03,04,17,19,22,31,09,01,06,02,,,1.63,0.89,1.36*04
\c:1597506587457*6C\$GPGSA,A,3,03,04,17,19,22,31,09,01,06,02,,,1.63,0.89,1.36*04
\c:1597506587577*6F\$GPGSV,3,1,11,01,18,136,39,02,08,312,34,03,47,074,46,04,74,116,44*70
\c:1597506587601*6D\$GPGSV,3,1,11,01,18,136,39,02,08,312,34,03,47,074,46,04,74,116,44*70
\c:1597506587720*6F\$GPGSV,3,2,11,06,46,306,42,09,51,204,50,12,01,322,,17,39,236,42*7D
\c:1597506587744*6D\$GPGSV,3,2,11,06,46,306,42,09,51,204,50,12,01,322,,17,39,236,42*7D
\c:1597506587838*69\$GPGSV,3,3,11,19,43,261,48,22,27,085,46,31,11,034,40*44
\c:1597506587856*61\$GPGSV,3,3,11,19,43,261,48,22,27,085,46,31,11,034,40*44
\c:1597506587946*61\$GPGLL,4729.97665,N,00222.58437,W,155050.00,A,A*73
\c:1597506588088*65\$GPRMC,155051.00,A,4729.97666,N,00222.58439,W,0.020,,150820,,,A*6A
\c:1597506588096*6A\$IIZDA,155051,15,08,2020,,*56
\c:1597506588160*62\$GPVTG,,T,,M,0.020,N,0.038,K,A*2A
\c:1597506588193*6E\$IIRSA,-37.0,A,,V*60
\c:1597506588313*64\$GPGGA,155051.00,4729.97666,N,00222.58439,W,1,10,0.89,4.1,M,48.7,M,,*44
\c:1597506588442*67\$GPGSA,A,3,03,04,17,19,22,31,09,01,06,02,,,1.63,0.89,1.36*04
\c:1597506588464*63\$GPGSA,A,3,03,04,17,19,22,31,09,01,06,02,,,1.63,0.89,1.36*04
\c:1597506588587*6F\$GPGSV,3,1,11,01,18,136,40,02,08,312,34,03,47,074,46,04,74,116,45*7F
\c:1597506588608*6B\$GPGSV,3,1,11,01,18,136,40,02,08,312,34,03,47,074,46,04,74,116,45*7F
\c:1597506588729*69\$GPGSV,3,2,11,06,46,306,43,09,51,204,50,12,01,322,,17,39,236,44*7A
\c:1597506588751*66\$GPGSV,3,2,11,06,46,306,43,09,51,204,50,12,01,322,,17,39,236,44*7A
\c:1597506588848*61\$GPGSV,3,3,11,19,43,261,48,22,27,085,45,31,11,034,40*47
\c:1597506588848*61\$IIMWV,204,R,6.1,N,A*22
\c:1597506588848*61\$IIVWR,156,L,6.1,N,3.1,M,11.3,K*7D
\c:1597506588863*68\$GPGSV,3,3,11,19,43,261,48,22,27,085,45,31,11,034,40*47
\c:1597506588955*6C\$GPGLL,4729.97666,N,00222.58439,W,155051.00,A,A*7F
\c:1597506589098*65\$GPRMC,155052.00,A,4729.97666,N,00222.58442,W,0.021,,150820,,,A*64
\c:1597506589119*6D\$IIZDA,155052,15,08,2020,,*55
\c:1597506589171*63\$GPVTG,,T,,M,0.021,N,0.038,K,A*2B
\c:1597506589215*62\$IIMTW,28.8,C*11
\c:1597506589244*66\$IIVHW,,T,237,M,0.00,N,0.00,K*63
\c:1597506589244*66\$IIHDG,237,,,,*51
\c:1597506589244*66\$IIHDM,237,M*3A
\c:1597506589322*67\$GPGGA,155052.00,4729.97666,N,00222.58442,W,1,10,0.89,4.0,M,48.7,M,,*4A
\c:1597506589451*64\$GPGSA,A,3,03,04,17,19,22,31,09,01,06,02,,,1.63,0.89,1.36*04
\c:1597506589476*61\$GPGSA,A,3,03,04,17,19,22,31,09,01,06,02,,,1.63,0.89,1.36*04
\c:1597506589598*60\$GPGSV,3,1,11,01,18,136,40,02,08,312,33,03,47,074,45,04,74,116,44*7A
\c:1597506589619*6A\$GPGSV,3,1,11,01,18,136,40,02,08,312,33,03,47,074,45,04,74,116,44*7A
\c:1597506589716*64\$IIXDR,C,31.3,C,AirTemp*27
\c:1597506589739*69\$GPGSV,3,2,11,06,46,306,44,09,51,204,50,12,01,322,,17,39,236,44*7D
\c:1597506589764*61\$GPGSV,3,2,11,06,46,306,44,09,51,204,50,12,01,322,,17,39,236,44*7D
\c:1597506589857*6E\$GPGSV,3,3,11,19,43,261,48,22,27,085,46,31,11,034,40*44
\c:1597506589875*6E\$GPGSV,3,3,11,19,43,261,48,22,27,085,46,31,11,034,40*44
\c:1597506589966*6D\$GPGLL,4729.97666,N,00222.58442,W,155052.00,A,A*70
\c:1597506590059*60\$IIMWV,204,T,6.1,N,A*24
\c:1597506590059*60\$IIVWT,156,L,6.1,N,3.1,M,11.3,K*7B
\c:1597506590059*60\$IIMWD,,T,81,M,6.1,N,3.1,M*48
\c:1597506590076*6D\$IIDPT,4.7,,*41
\c:1597506590091*64\$IIDBT,15.4,f,4.7,M,,*4A
\c:1597506590107*6A\$GPRMC,155053.00,A,4729.97669,N,00222.58447,W,0.017,,150820,,,A*6A
\c:1597506590123*6C\$IIZDA,155053,15,08,2020,,*54
\c:1597506590180*65\$GPVTG,,T,,M,0.017,N,0.032,K,A*24
\c:1597506590188*6D\$IIVTG,,T,,M,0.0,N,0.0,K,A*34
\c:1597506590236*6B\$IIMWV,203,R,6.1,N,A*25
\c:1597506590236*6B\$IIVWR,157,L,6.1,N,3.1,M,11.3,K*7C
\c:1597506590332*6E\$GPGGA,155053.00,4729.97669,N,00222.58447,W,1,10,0.89,4.0,M,48.7,M,,*41
\c:1597506590360*69\$IIGLL,4729.9767,N,00222.5845,W,155053,A,A*4C
\c:1597506590360*69\$IIRMC,155053,A,4729.9767,N,00222.5845,W,,150820,,,A*59
\c:1597506590461*6F\$GPGSA,A,3,03,04,17,19,22,31,09,01,06,02,,,1.63,0.89,1.36*04
\c:1597506590486*66\$GPGSA,A,3,03,04,17,19,22,31,09,01,06,02,,,1.63,0.89,1.36*04
\c:1597506590607*6D\$GPGSV,3,1,11,01,18,136,40,02,08,312,37,03,47,074,45,04,74,116,45*7F
\c:1597506590631*68\$GPGSV,3,1,11,01,18,136,40,02,08,312,37,03,47,074,45,04,74,116,45*7F
\c:1597506590748*67\$GPGSV,3,2,11,06,46,306,42,09,51,204,50,12,01,322,,17,39,236,43*7C
\c:1597506590774*68\$GPGSV,3,2,11,06,46,306,42,09,51,204,50,12,01,322,,17,39,236,43*7C
\c:1597506590816*63\$GPTXT,01,01,00,txbuf alloc*7F
\c:1597506590821*67\$GPTXT,01,01,00,txbuf alloc*7F
\c:1597506590957*67\$GPRMC,155054.00,A,4729.97673,N,00222.58451,W,0.016,,150820,,,A*60
\c:1597506590965*66\$IIMWV,203,T,6.1,N,A*23
\c:1597506590965*66\$IIVWT,157,L,6.1,N,3.1,M,11.3,K*7A
\c:1597506590965*66\$IIMWD,,T,80,M,6.1,N,3.1,M*49
\c:1597506590980*6D\$IIZDA,155054,15,08,2020,,*53
\c:1597506591030*6E\$GPVTG,,T,,M,0.016,N,0.030,K,A*27
\c:1597506591045*6C\$IIDPT,4.9,,*4F
\c:1597506591061*6A\$IIDBT,16.1,f,4.9,M,,*42
\c:1597506591076*6C\$IIXDR,U,12.033,V,BatWiFi*16
\c:1597506591182*66\$GPGGA,155054.00,4729.97673,N,00222.58451,W,1,10,0.89,4.0,M,48.7,M,,*4A
\c:1597506591311*6E\$GPGSA,A,3,03,04,17,19,22,31,09,01,06,02,,,1.63,0.89,1.36*04
\c:1597506591332*6F\$GPGSA,A,3,03,04,17,19,22,31,09,01,06,02,,,1.63,0.89,1.36*04
\c:1597506591457*6B\$GPGSV,3,1,11,01,18,136,41,02,08,312,34,03,47,074,46,04,74,116,44*7F
\c:1597506591482*63\$GPGSV,3,1,11,01,18,136,41,02,08,312,34,03,47,074,46,04,74,116,44*7F
\c:1597506591598*69\$GPGSV,3,2,11,06,46,306,42,09,51,204,50,12,01,322,,17,38,235,44*79
\c:1597506591624*6D\$GPGSV,3,2,11,06,46,306,42,09,51,204,50,12,01,322,,17,38,235,44*79
\c:1597506591716*6D\$GPGSV,3,3,11,19,43,261,48,22,27,085,46,31,11,034,41*45
\c:1597506591744*6A\$GPGSV,3,3,11,19,43,261,48,22,27,085,46,31,11,034,41*45
\c:1597506591744*6A\$IIVHW,,T,237,M,0.00,N,0.00,K*63
\c:1597506591744*6A\$IIHDG,237,,,,*51
\c:1597506591744*6A\$IIHDM,237,M*3A
\c:1597506591825*62\$GPGLL,4729.97673,N,00222.58451,W,155054.00,A,A*70
\c:1597506591966*64\$GPRMC,155055.00,A,4729.97678,N,00222.58455,W,0.020,,150820,,,A*6B
\c:1597506591983*6F\$IIZDA,155055,15,08,2020,,*52
\c:1597506592015*6A\$IIDPT,4.8,,*4E
\c:1597506592031*6C\$IIDBT,15.7,f,4.8,M,,*46
\c:1597506592039*64\$GPVTG,,T,,M,0.020,N,0.037,K,A*25
\c:1597506592048*62\$IIVTG,,T,,M,0.0,N,0.0,K,A*34
\c:1597506592191*67\$GPGGA,155055.00,4729.97678,N,00222.58455,W,1,10,0.89,4.1,M,48.7,M,,*45
\c:1597506592222*6C\$IIVLW,37.00,N,0.00,N*79
\c:1597506592222*6C\$IIGLL,4729.9768,N,00222.5846,W,155055,A,A*46
\c:1597506592222*6C\$IIRMC,155055,A,4729.9768,N,00222.5846,W,,150820,,,A*53
\c:1597506592320*6F\$GPGSA,A,3,03,04,17,19,22,31,09,01,06,02,,,1.63,0.89,1.36*04
\c:1597506592346*6F\$GPGSA,A,3,03,04,17,19,22,31,09,01,06,02,,,1.63,0.89,1.36*04
\c:1597506592467*6B\$GPGSV,3,1,11,01,18,136,41,02,08,312,35,03,47,074,45,04,74,116,44*7D
\c:1597506592490*63\$GPGSV,3,1,11,01,18,136,41,02,08,312,35,03,47,074,45,04,74,116,44*7D
\c:1597506592607*6F\$GPGSV,3,2,11,06,46,306,43,09,51,204,50,12,01,322,,17,38,235,44*78
\c:1597506592632*69\$GPGSV,3,2,11,06,46,306,43,09,51,204,50,12,01,322,,17,38,235,44*78
\c:1597506592727*6C\$GPGSV,3,3,11,19,43,261,48,22,27,085,45,31,11,034,41*46
\c:1597506592744*69\$GPGSV,3,3,11,19,43,261,48,22,27,085,45,31,11,034,41*46
\c:1597506592835*60\$GPGLL,4729.97678,N,00222.58455,W,155055.00,A,A*7E
\c:1597506592976*66\$GPRMC,155056.00,A,4729.97681,N,00222.58458,W,0.012,,150820,,,A*62
\c:1597506593008*67\$IIZDA,155056,15,08,2020,,*51
\c:1597506593008*67\$IIDPT,4.9,,*4F
\c:1597506593008*67\$IIDBT,16.1,f,4.9,M,,*42
\c:1597506593008*67\$IIMWV,202,R,6.1,N,A*24
\c:1597506593008*67\$IIVWR,158,L,6.1,N,3.1,M,11.3,K*73
\c:1597506593049*62\$GPVTG,,T,,M,0.012,N,0.022,K,A*20
\c:1597506593072*6A\$IIVTG,,T,,M,0.0,N,0.0,K,A*34
\c:1597506593202*6F\$GPGGA,155056.00,4729.97681,N,00222.58458,W,1,10,0.89,4.1,M,48.7,M,,*4D
\c:1597506593331*6E\$GPGSA,A,3,03,04,17,19,22,31,09,01,06,02,,,1.63,0.89,1.36*04
\c:1597506593356*6F\$GPGSA,A,3,03,04,17,19,22,31,09,01,06,02,,,1.63,0.89,1.36*04
\c:1597506593476*6A\$GPGSV,3,1,11,01,18,136,41,02,08,312,35,03,47,074,47,04,74,116,45*7E
\c:1597506593499*6B\$GPGSV,3,1,11,01,18,136,41,02,08,312,35,03,47,074,47,04,74,116,45*7E
\c:1597506593618*60\$GPGSV,3,2,11,06,46,306,43,09,51,204,50,12,01,322,,17,38,235,43*7F
\c:1597506593642*6F\$GPGSV,3,2,11,06,46,306,43,09,51,204,50,12,01,322,,17,38,235,43*7F
\c:1597506593735*6E\$IIMWV,202,T,6.1,N,A*22
\c:1597506593735*6E\$IIVWT,158,L,6.1,N,3.1,M,11.3,K*75
\c:1597506593735*6E\$IIMWD,,T,79,M,6.1,N,3.1,M*4F
\c:1597506593736*6D\$GPGSV,3,3,11,19,43,260,48,22,27,085,46,31,11,034,40*45
\c:1597506593751*6C\$GPGSV,3,3,11,19,43,260,48,22,27,085,46,31,11,034,40*45
\c:1597506593844*67\$GPGLL,4729.97681,N,00222.58458,W,155056.00,A,A*76
\c:1597506593911*66\$IIMWV,203,R,6.1,N,A*25
\c:1597506593911*66\$IIVWR,157,L,6.1,N,3.1,M,11.3,K*7C
\c:1597506593986*68\$GPRMC,155057.00,A,4729.97686,N,00222.58462,W,0.025,,150820,,,A*69
\c:1597506594016*6F\$IIZDA,155057,15,08,2020,,*50
\c:1597506594016*6F\$IIDPT,4.7,,*41
\c:1597506594016*6F\$IIDBT,15.4,f,4.7,M,,*4A
\c:1597506594060*6E\$GPVTG,,T,,M,0.025,N,0.046,K,A*26
\c:1597506594080*60\$IIVTG,,T,,M,0.0,N,0.1,K,A*35
\c:1597506594211*6A\$GPGGA,155057.00,4729.97686,N,00222.58462,W,1,10,0.89,4.1,M,48.7,M,,*42
\c:1597506594244*6A\$IIGLL,4729.9769,N,00222.5846,W,155057,A,A*45
\c:1597506594244*6A\$IIRMC,155057,A,4729.9769,N,00222.5846,W,,150820,,,A*50
\c:1597506594244*6A\$IIVHW,,T,237,M,0.00,N,0.00,K*63
\c:1597506594244*6A\$IIHDG,237,,,,*51
\c:1597506594244*6A\$IIHDM,237,M*3A
\c:1597506594340*6F\$GPGSA,A,3,03,04,17,19,22,31,09,01,06,02,,,1.63,0.89,1.36*04
\c:1597506594365*68\$GPGSA,A,3,03,04,17,19,22,31,09,01,06,02,,,1.63,0.89,1.36*04
\c:1597506594486*62\$GPGSV,3,1,11,01,18,136,40,02,08,312,36,03,47,074,46,04,74,116,45*7D
\c:1597506594510*6C\$GPGSV,3,1,11,01,18,136,40,02,08,312,36,03,47,074,46,04,74,116,45*7D
\c:1597506594627*6B\$GPGSV,3,2,11,06,46,306,41,09,51,204,50,12,01,322,,17,38,235,42*7C
\c:1597506594654*6F\$GPGSV,3,2,11,06,46,306,41,09,51,204,50,12,01,322,,17,38,235,42*7C
\c:1597506594746*6D\$GPGSV,3,3,11,19,43,260,48,22,27,085,46,31,11,034,40*45
\c:1597506594766*6F\$GPGSV,3,3,11,19,43,260,48,22,27,085,46,31,11,034,40*45
\c:1597506594855*60\$GPGLL,4729.97686,N,00222.58462,W,155057.00,A,A*79
\c:1597506594972*64\$IIDPT,4.8,,*4E
\c:1597506594973*65\$IIDBT,15.7,f,4.8,M,,*46
\c:1597506594996*6E\$GPRMC,155058.00,A,4729.97689,N,00222.58466,W,0.019,,150820,,,A*62
\c:1597506595005*6C\$IIZDA,155058,15,08,2020,,*5F
\c:1597506595069*66\$GPVTG,,T,,M,0.019,N,0.036,K,A*2E
\c:1597506595085*64\$IIVTG,,T,,M,0.0,N,0.0,K,A*34
\c:1597506595117*6E\$IIMWV,203,T,6.1,N,A*23
\c:1597506595117*6E\$IIVWT,157,L,6.1,N,3.1,M,11.3,K*7A
\c:1597506595117*6E\$IIMWD,,T,80,M,6.1,N,3.1,M*49
\c:1597506595221*68\$GPGGA,155058.00,4729.97689,N,00222.58466,W,1,10,0.89,4.2,M,48.7,M,,*45
\c:1597506595251*6F\$IIGLL,4729.9769,N,00222.5847,W,155058,A,A*4B
\c:1597506595251*6F\$IIRMC,155058,A,4729.9769,N,00222.5847,W,,150820,,,A*5E
\c:1597506595350*6F\$GPGSA,A,3,03,04,17,19,22,31,09,01,06,02,,,1.63,0.89,1.36*04
\c:1597506595374*69\$GPGSA,A,3,03,04,17,19,22,31,09,01,06,02,,,1.63,0.89,1.36*04
\c:1597506595496*62\$GPGSV,3,1,11,01,18,136,41,02,08,312,36,03,47,074,46,04,74,116,45*7C
\c:1597506595518*65\$GPGSV,3,1,11,01,18,136,41,02,08,312,36,03,47,074,46,04,74,116,45*7C
\c:1597506595637*6B\$GPGSV,3,2,11,06,46,306,44,09,51,204,50,12,01,322,,17,38,235,44*7F
\c:1597506595662*6B\$GPGSV,3,2,11,06,46,306,44,09,51,204,50,12,01,322,,17,38,235,44*7F
\c:1597506595694*62\$IIRSA,-37.0,A,,V*60
\c:1597506595757*6C\$GPGSV,3,3,11,19,43,260,49,22,27,085,46,31,11,034,41*45
\c:1597506595774*6D\$GPGSV,3,3,11,19,43,260,49,22,27,085,46,31,11,034,41*45
\c:1597506595822*61\$IIDPT,4.7,,*41
\c:1597506595839*6B\$IIDBT,15.4,f,4.7,M,,*4A
\c:1597506595864*63\$GPGLL,4729.97689,N,00222.58466,W,155058.00,A,A*7D
\c:1597506596006*6C\$GPRMC,155059.00,A,4729.97691,N,00222.58469,W,0.002,,150820,,,A*6F
\c:1597506596030*69\$IIZDA,155059,15,08,2020,,*5E
\c:1597506596079*64\$GPVTG,,T,,M,0.002,N,0.004,K,A*25
\c:1597506596094*67\$IIVTG,,T,,M,0.0,N,0.0,K,A*34
\c:1597506596230*6B\$GPGGA,155059.00,4729.97691,N,00222.58469,W,1,10,0.89,4.2,M,48.7,M,,*42
\c:1597506596359*65\$GPGSA,A,3,03,04,17,19,22,31,09,01,06,02,,,1.63,0.89,1.36*04
\c:1597506596381*60\$GPGSA,A,3,03,04,17,19,22,31,09,01,06,02,,,1.63,0.89,1.36*04
\c:1597506596506*69\$GPGSV,3,1,11,01,18,136,40,02,08,312,36,03,47,074,46,04,74,116,45*7D
\c:1597506596525*68\$GPGSV,3,1,11,01,18,136,40,02,08,312,36,03,47,074,46,04,74,116,45*7D
\c:1597506596637*68\$IIMWV,204,R,6.1,N,A*22
\c:1597506596637*68\$IIVWR,156,L,6.1,N,3.1,M,11.3,K*7D
\c:1597506596648*60\$GPGSV,3,2,11,06,46,306,44,09,51,204,50,12,01,322,,17,38,235,44*7F
\c:1597506596670*6B\$GPGSV,3,2,11,06,46,306,44,09,51,204,50,12,01,322,,17,38,235,44*7F
\c:1597506596718*64\$IIMTW,28.8,C*11
\c:1597506596745*6C\$IIVHW,,T,237,M,0.00,N,0.00,K*63
\c:1597506596746*6F\$IIHDG,237,,,,*51
\c:1597506596746*6F\$IIHDM,237,M*3A
\c:1597506596766*6D\$GPGSV,3,3,11,19,43,260,49,22,27,085,46,31,11,034,41*45
\c:1597506596777*6D\$GPGSV,3,3,11,19,43,260,49,22,27,085,46,31,11,034,41*45
\c:1597506596793*67\$IIDPT,4.8,,*4E
\c:1597506596793*67\$IIDBT,15.7,f,4.8,M,,*46
\c:1597506596874*61\$GPGLL,4729.97691,N,00222.58469,W,155059.00,A,A*7A
\c:1597506596934*64\$IIMWV,204,T,6.1,N,A*24
\c:1597506596935*65\$IIVWT,156,L,6.1,N,3.1,M,11.3,K*7B
\c:1597506596935*65\$IIMWD,,T,81,M,6.1,N,3.1,M*48
\c:1597506597016*6C\$GPRMC,155100.00,A,4729.97691,N,00222.58472,W,0.026,,150820,,,A*6E
\c:1597506597030*68\$IIZDA,155100,15,08,2020,,*53
\c:1597506597088*6B\$GPVTG,,T,,M,0.026,N,0.049,K,A*2A
\c:1597506597111*6A\$IIVTG,,T,,M,0.0,N,0.1,K,A*35
\c:1597506597223*68\$IIXDR,C,31.3,C,AirTemp*27
\c:1597506597241*6C\$GPGGA,155100.00,4729.97691,N,00222.58472,W,1,10,0.89,4.1,M,48.7,M,,*46
\c:1597506597370*6F\$GPGSA,A,3,03,04,17,19,22,31,09,01,06,02,,,1.63,0.89,1.36*04
\c:1597506597394*65\$GPGSA,A,3,03,04,17,19,22,31,09,01,06,02,,,1.63,0.89,1.36*04
\c:1597506597515*6A\$GPGSV,3,1,11,01,18,136,40,02,08,312,35,03,47,074,45,04,74,116,45*7D
\c:1597506597547*6D\$GPGSV,3,1,11,01,18,136,40,02,08,312,35,03,47,074,45,04,74,116,45*7D
\c:1597506597547*6D\$IIMWV,204,R,6.2,N,A*21
\c:1597506597547*6D\$IIVWR,156,L,6.2,N,3.2,M,11.5,K*7B
\c:1597506597657*6F\$GPGSV,3,2,11,06,46,306,44,09,51,204,50,12,01,322,,17,38,235,44*7F
\c:1597506597682*67\$GPGSV,3,2,11,06,46,306,44,09,51,204,50,12,01,322,,17,38,235,44*7F
\c:1597506597776*6D\$GPGSV,3,3,11,19,43,260,49,22,27,085,44,31,11,034,40*46
\c:1597506597794*61\$GPGSV,3,3,11,19,43,260,49,22,27,085,44,31,11,034,40*46
\c:1597506597842*65\$IIMWV,204,T,6.2,N,A*27
\c:1597506597842*65\$IIVWT,156,L,6.2,N,3.2,M,11.5,K*7D
\c:1597506597842*65\$IIMWD,,T,81,M,6.2,N,3.2,M*48
\c:1597506597885*6E\$GPGLL,4729.97691,N,00222.58472,W,155100.00,A,A*7D
\c:1597506598026*60\$GPRMC,155101.00,A,4729.97690,N,00222.58474,W,0.003,,150820,,,A*6F
\c:1597506598048*68\$IIZDA,155101,15,08,2020,,*52
\c:1597506598099*64\$GPVTG,,T,,M,0.003,N,0.006,K,A*26
\c:1597506598113*67\$IIVTG,,T,,M,0.0,N,0.0,K,A*34
\c:1597506598250*63\$GPGGA,155101.00,4729.97690,N,00222.58474,W,1,10,0.89,4.1,M,48.7,M,,*40
\c:1597506598379*69\$GPGSA,A,3,03,04,17,19,22,31,09,01,06,02,,,1.63,0.89,1.36*04
\c:1597506598400*60\$GPGSA,A,3,03,04,17,19,22,31,09,01,06,02,,,1.63,0.89,1.36*04
\c:1597506598526*65\$GPGSV,3,1,11,01,18,136,39,02,08,312,32,03,47,074,47,04,74,116,44*77
\c:1597506598551*65\$GPGSV,3,1,11,01,18,136,39,02,08,312,32,03,47,074,47,04,74,116,44*77
\c:1597506598667*63\$GPGSV,3,2,11,06,46,306,43,09,51,204,50,12,01,322,,17,38,235,43*7F
\c:1597506598692*69\$GPGSV,3,2,11,06,46,306,43,09,51,204,50,12,01,322,,17,38,235,43*7F
\c:1597506598772*66\$IIDPT,4.7,,*41
\c:1597506598772*66\$IIDBT,15.4,f,4.7,M,,*4A
\c:1597506598785*6E\$GPGSV,3,3,11,19,43,260,48,22,27,085,45,31,11,034,41*47
\c:1597506598805*69\$GPGSV,3,3,11,19,43,260,48,22,27,085,45,31,11,034,41*47
\c:1597506598851*68\$IIXDR,C,31.3,C,AirTemp*27
\c:1597506598893*66\$GPGLL,4729.97690,N,00222.58474,W,155101.00,A,A*7B
\c:1597506599036*60\$GPRMC,155102.00,A,4729.97690,N,00222.58477,W,0.018,,150820,,,A*65
\c:1597506599044*65\$IIZDA,155102,15,08,2020,,*51
\c:1597506599108*6C\$GPVTG,,T,,M,0.018,N,0.033,K,A*2A
\c:1597506599124*62\$IIVTG,,T,,M,0.0,N,0.0,K,A*34
\c:1597506599245*66\$IIVHW,,T,237,M,0.00,N,0.00,K*63
\c:1597506599245*66\$IIHDG,237,,,,*51
\c:1597506599245*66\$IIHDM,237,M*3A
\c:1597506599260*61\$GPGGA,155102.00,4729.97690,N,00222.58477,W,1,10,0.89,4.1,M,48.7,M,,*40
\c:1597506599288*67\$IIGLL,4729.9769,N,00222.5848,W,155102,A,A*4A
\c:1597506599288*67\$IIRMC,155102,A,4729.9769,N,00222.5848,W,,150820,,,A*5F
\c:1597506599390*6F\$GPGSA,A,3,03,04,17,19,22,31,09,01,06,02,,,1.63,0.89,1.36*04
\c:1597506599414*64\$IIMWV,203,R,6.2,N,A*26
\c:1597506599414*64\$GPGSA,A,3,03,04,17,19,22,31,09,01,06,02,,,1.63,0.89,1.36*04
\c:1597506599414*64\$IIVWR,157,L,6.2,N,3.2,M,11.5,K*7A
\c:1597506599536*65\$GPGSV,3,1,11,01,18,136,39,02,08,312,35,03,47,074,45,04,74,116,45*73
\c:1597506599558*6D\$GPGSV,3,1,11,01,18,136,39,02,08,312,35,03,47,074,45,04,74,116,45*73
\c:1597506599677*63\$GPGSV,3,2,11,06,46,306,43,09,51,204,50,12,01,322,,17,38,235,43*7F
\c:1597506599701*63\$GPGSV,3,2,11,06,46,306,43,09,51,204,50,12,01,322,,17,38,235,43*7F
\c:1597506599701*63\$IIVLW,37.00,N,0.00,N*79
\c:1597506599733*62\$IIDPT,4.8,,*4E
\c:1597506599749*6F\$IIDBT,15.7,f,4.8,M,,*46
\c:1597506599795*6E\$GPGSV,3,3,11,19,43,260,49,22,27,085,45,31,11,034,40*47
\c:1597506599813*6F\$GPGSV,3,3,11,19,43,260,49,22,27,085,45,31,11,034,40*47
\c:1597506599904*68\$GPGLL,4729.97690,N,00222.58477,W,155102.00,A,A*7B
\c:1597506600045*67\$GPRMC,155103.00,A,4729.97689,N,00222.58480,W,0.014,,150820,,,A*68
\c:1597506600069*69\$IIZDA,155103,15,08,2020,,*50
\c:1597506600118*6E\$GPVTG,,T,,M,0.014,N,0.026,K,A*22
\c:1597506600134*60\$IIVWT,157,L,6.2,N,3.2,M,11.5,K*7C
\c:1597506600134*60\$IIMWD,,T,80,M,6.2,N,3.2,M*49
\c:1597506600270*63\$GPGGA,155103.00,4729.97689,N,00222.58480,W,1,10,0.89,4.0,M,48.7,M,,*40
\c:1597506600399*65\$GPGSA,A,3,03,04,17,19,22,31,09,01,06,02,,,1.63,0.89,1.36*04
\c:1597506600421*61\$GPGSA,A,3,03,04,17,19,22,31,09,01,06,02,,,1.63,0.89,1.36*04
\c:1597506600545*62\$GPGSV,3,1,11,01,18,136,40,02,08,312,35,03,47,074,46,04,74,116,44*7F
\c:1597506600571*65\$GPGSV,3,1,11,01,18,136,40,02,08,312,35,03,47,074,46,04,74,116,44*7F
\c:1597506600687*6F\$GPGSV,3,2,11,06,46,306,44,09,51,204,50,12,01,322,,17,38,235,43*78
\c:1597506600712*62\$GPGSV,3,2,11,06,46,306,44,09,51,204,50,12,01,322,,17,38,235,43*78
\c:1597506600712*62\$IIDPT,4.7,,*41
\c:1597506600712*62\$IIDBT,15.4,f,4.7,M,,*4A
\c:1597506600805*6B\$GPGSV,3,3,11,19,43,260,49,22,27,085,45,31,11,034,40*47
\c:1597506600824*68\$GPGSV,3,3,11,19,43,260,49,22,27,085,45,31,11,034,40*47
\c:1597506600914*6A\$GPGLL,4729.97689,N,00222.58480,W,155103.00,A,A*7A
\c:1597506601055*67\$GPRMC,155104.00,A,4729.97688,N,00222.58482,W,0.027,,150820,,,A*6C
\c:1597506601064*65\$IIZDA,155104,15,08,2020,,*57
\c:1597506601128*6C\$GPVTG,,T,,M,0.027,N,0.049,K,A*2B
\c:1597506601143*61\$IIVTG,,T,,M,0.0,N,0.1,K,A*35
\c:1597506601224*63\$IIMWV,202,R,6.2,N,A*27
\c:1597506601224*63\$IIVWR,158,L,6.2,N,3.2,M,11.5,K*75
\c:1597506601280*6D\$GPGGA,155104.00,4729.97688,N,00222.58482,W,1,10,0.89,3.9,M,48.7,M,,*4A
\c:1597506601409*6A\$GPGSA,A,3,03,04,17,19,22,31,09,01,06,02,,,1.63,0.89,1.36*04
\c:1597506601432*62\$GPGSA,A,3,03,04,17,19,22,31,09,01,06,02,,,1.63,0.89,1.36*04
\c:1597506601555*62\$GPGSV,3,1,11,01,18,136,40,02,08,312,35,03,47,074,46,04,74,116,44*7F
\c:1597506601575*60\$GPGSV,3,1,11,01,18,136,40,02,08,312,35,03,47,074,46,04,74,116,44*7F
\c:1597506601607*66\$IIDPT,4.8,,*4E
\c:1597506601607*66\$IIDBT,15.7,f,4.8,M,,*46
\c:1597506601696*6E\$GPGSV,3,2,11,06,46,306,44,09,51,204,50,12,01,322,,17,38,235,43*78
\c:1597506601719*68\$GPGSV,3,2,11,06,46,306,44,09,51,204,50,12,01,322,,17,38,235,43*78
\c:1597506601746*62\$IIVHW,,T,237,M,0.00,N,0.00,K*63
\c:1597506601746*62\$IIHDG,237,,,,*51
\c:1597506601746*62\$IIHDM,237,M*3A
\c:1597506601815*6B\$GPGSV,3,3,11,19,43,260,49,22,27,085,45,31,11,034,41*46
\c:1597506601825*68\$GPGSV,3,3,11,19,43,260,49,22,27,085,45,31,11,034,41*46
\c:1597506601924*68\$GPGLL,4729.97688,N,00222.58482,W,155104.00,A,A*7E
\c:1597506601998*6F\$IIMWV,202,T,6.2,N,A*21
\c:1597506601998*6F\$IIVWT,158,L,6.2,N,3.2,M,11.5,K*73
\c:1597506601998*6F\$IIMWD,,T,79,M,6.2,N,3.2,M*4F
\c:1597506602065*67\$GPRMC,155105.00,A,4729.97687,N,00222.58485,W,0.013,,150820,,,A*62
\c:1597506602077*64\$IIZDA,155105,15,08,2020,,*56
\c:1597506602138*6E\$GPVTG,,T,,M,0.013,N,0.025,K,A*26
\c:1597506602157*67\$IIVTG,,T,,M,0.0,N,0.0,K,A*34
\c:1597506602289*67\$GPGGA,155105.00,4729.97687,N,00222.58485,W,1,10,0.89,3.8,M,48.7,M,,*42
\c:1597506602315*63\$IIGLL,4729.9769,N,00222.5849,W,155105,A,A*4C
\c:1597506602315*63\$IIRMC,155105,A,4729.9769,N,00222.5849,W,,150820,,,A*59
\c:1597506602419*68\$GPGSA,A,3,03,04,17,19,22,31,09,01,06,02,,,1.63,0.89,1.36*04
\c:1597506602444*60\$GPGSA,A,3,03,04,17,19,22,31,09,01,06,02,,,1.63,0.89,1.36*04
\c:1597506602565*62\$GPGSV,3,1,11,01,18,136,41,02,08,312,34,03,47,074,46,04,74,116,45*7E
\c:1597506602587*6E\$GPGSV,3,1,11,01,18,136,41,02,08,312,34,03,47,074,46,04,74,116,45*7E
\c:1597506602614*67\$IIMWV,201,R,6.2,N,A*24
\c:1597506602614*67\$IIVWR,159,L,6.2,N,3.2,M,11.5,K*74
\c:1597506602614*67\$IIHDG,238,,,,*5E
\c:1597506602614*67\$IIHDM,238,M*35
\c:1597506602706*65\$GPGSV,3,2,11,06,46,306,44,09,51,204,50,12,01,322,,17,38,235,43*78
\c:1597506602725*64\$GPGSV,3,2,11,06,46,306,44,09,51,204,50,12,01,322,,17,38,235,43*78
\c:1597506602772*66\$GPTXT,01,01,00,txbuf alloc*7F
\c:1597506602789*62\$GPTXT,01,01,00,txbuf alloc*7F
\c:1597506602885*61\$IIMWV,201,T,6.2,N,A*22
\c:1597506602901*6C\$IIVWT,159,L,6.2,N,3.2,M,11.5,K*72
\c:1597506602915*69\$GPRMC,155106.00,A,4729.97688,N,00222.58486,W,0.018,,150820,,,A*66
\c:1597506602933*6D\$IIZDA,155106,15,08,2020,,*55
\c:1597506602988*6D\$GPVTG,,T,,M,0.018,N,0.034,K,A*2D
\c:1597506602997*63\$IIVTG,,T,,M,0.0,N,0.0,K,A*34
\c:1597506603076*64\$IIHDG,237,,,,*51
\c:1597506603077*65\$IIHDM,237,M*3A
\c:1597506603139*6E\$GPGGA,155106.00,4729.97688,N,00222.58486,W,1,10,0.89,3.7,M,48.7,M,,*42
\c:1597506603205*62\$IIRSA,-37.0,A,,V*60
\c:1597506603268*69\$GPGSA,A,3,03,04,17,19,22,31,09,01,06,02,,,1.63,0.89,1.36*04
\c:1597506603293*6D\$GPGSA,A,3,03,04,17,19,22,31,09,01,06,02,,,1.63,0.89,1.36*04
\c:1597506603415*65\$GPGSV,3,1,11,01,18,136,40,02,08,312,35,03,47,074,46,04,74,116,44*7F
\c:1597506603437*65\$GPGSV,3,1,11,01,18,136,40,02,08,312,35,03,47,074,46,04,74,116,44*7F
\c:1597506603556*63\$GPGSV,3,2,11,06,46,306,44,09,51,204,50,12,01,322,,17,38,235,44*7F
\c:1597506603582*6A\$GPGSV,3,2,11,06,46,306,44,09,51,204,50,12,01,322,,17,38,235,44*7F
\c:1597506603674*60\$GPGSV,3,3,11,19,43,260,49,22,27,085,45,31,11,034,40*47
\c:1597506603692*68\$GPGSV,3,3,11,19,43,260,49,22,27,085,45,31,11,034,40*47
\c:1597506603783*69\$GPGLL,4729.97688,N,00222.58486,W,155106.00,A,A*78
\c:1597506603805*68\$IIMWD,,T,78,M,6.2,N,3.2,M*4E
\c:1597506603924*6A\$GPRMC,155107.00,A,4729.97687,N,00222.58486,W,0.018,,150820,,,A*68
\c:1597506603933*6C\$IIZDA,155107,15,08,2020,,*54
\c:1597506603981*65\$IIMWV,201,R,6.1,N,A*27
\c:1597506603981*65\$IIVWR,159,L,6.1,N,3.1,M,11.3,K*72
\c:1597506603997*62\$GPVTG,,T,,M,0.018,N,0.034,K,A*2D
\c:1597506604149*6E\$GPGGA,155107.00,4729.97687,N,00222.58486,W,1,10,0.89,3.7,M,48.7,M,,*4C
\c:1597506604220*62\$IIMTW,28.8,C*11
\c:1597506604278*6F\$GPGSA,A,3,03,04,17,19,22,31,09,01,06,02,,,1.63,0.89,1.36*04
\c:1597506604300*61\$GPGSA,A,3,03,04,17,19,22,31,09,01,06,02,,,1.63,0.89,1.36*04
\c:1597506604425*61\$GPGSV,3,1,11,01,18,136,39,02,08,312,36,03,47,074,45,04,74,116,45*70
\c:1597506604445*67\$GPGSV,3,1,11,01,18,136,39,02,08,312,36,03,47,074,45,04,74,116,45*70
\c:1597506604460*60\$IIMWV,200,R,6.1,N,A*26
\c:1597506604460*60\$IIVWR,160,L,6.1,N,3.1,M,11.3,K*78
\c:1597506604508*6F\$IIDPT,4.7,,*41
\c:1597506604524*61\$IIDBT,15.4,f,4.7,M,,*4A
\c:1597506604566*67\$GPGSV,3,2,11,06,46,306,45,09,51,204,50,12,01,322,,17,38,235,44*7E
\c:1597506604589*66\$GPGSV,3,2,11,06,46,306,45,09,51,204,50,12,01,322,,17,38,235,44*7E
\c:1597506604684*68\$GPGSV,3,3,11,19,43,260,49,22,27,085,45,31,11,034,42*45
\c:1597506604725*62\$GPGSV,3,3,11,19,43,260,49,22,27,085,45,31,11,034,42*45
\c:1597506604725*62\$IIMWV,201,T,6.1,N,A*21
\c:1597506604725*62\$IIVWT,159,L,6.1,N,3.1,M,11.3,K*74
\c:1597506604725*62\$IIMWD,,T,78,M,6.1,N,3.1,M*4E
\c:1597506604725*62\$IIMWV,200,T,6.1,N,A*20
\c:1597506604725*62\$IIVWT,160,L,6.1,N,3.1,M,11.3,K*7E
\c:1597506604725*62\$IIMWD,,T,77,M,6.1,N,3.1,M*41
\c:1597506604792*6E\$GPGLL,4729.97687,N,00222.58486,W,155107.00,A,A*76
\c:1597506604934*6C\$GPRMC,155108.00,A,4729.97688,N,00222.58483,W,0.048,,150820,,,A*68
\c:1597506604949*66\$IIZDA,155108,15,08,2020,,*5B
\c:1597506605007*64\$GPVTG,,T,,M,0.048,N,0.088,K,A*2F
\c:1597506605028*69\$IIVTG,,T,,M,0.0,N,0.1,K,A*35
\c:1597506605159*6E\$GPGGA,155108.00,4729.97688,N,00222.58483,W,1,10,0.89,3.6,M,48.7,M,,*48
\c:1597506605186*6C\$IIGLL,4729.9769,N,00222.5848,W,155108,A,A*40
\c:1597506605186*6C\$IIRMC,155108,A,4729.9769,N,00222.5848,W,,150820,,,A*55
\c:1597506605288*61\$GPGSA,A,3,03,04,17,19,22,31,09,01,06,02,,,1.63,0.89,1.36*04
\c:1597506605313*62\$GPGSA,A,3,03,04,17,19,22,31,09,01,06,02,,,1.63,0.89,1.36*04
\c:1597506605434*60\$GPGSV,3,1,11,01,18,136,40,02,08,312,35,03,47,074,45,04,74,116,45*7D
\c:1597506605457*65\$GPGSV,3,1,11,01,18,136,40,02,08,312,35,03,47,074,45,04,74,116,45*7D
\c:1597506605496*68\$IIVHW,,T,237,M,0.00,N,0.00,K*63
\c:1597506605496*68\$IIHDG,237,,,,*51
\c:1597506605496*68\$IIHDM,237,M*3A
\c:1597506605496*68\$IIDPT,4.8,,*4E
\c:1597506605496*68\$IIDBT,15.7,f,4.8,M,,*46
\c:1597506605575*64\$GPGSV,3,2,11,06,46,306,45,09,51,204,50,12,01,322,,17,38,235,45*7F
\c:1597506605602*67\$GPGSV,3,2,11,06,46,306,45,09,51,204,50,12,01,322,,17,38,235,45*7F
\c:1597506605694*68\$GPGSV,3,3,11,19,43,260,49,22,27,085,45,31,11,034,41*46
\c:1597506605713*66\$GPGSV,3,3,11,19,43,260,49,22,27,085,45,31,11,034,41*46
\c:1597506605803*68\$GPGLL,4729.97688,N,00222.58483,W,155108.00,A,A*73
\c:1597506605944*6A\$GPRMC,155109.00,A,4729.97687,N,00222.58483,W,0.019,,150820,,,A*62
\c:1597506605953*6C\$IIZDA,155109,15,08,2020,,*5A
\c:1597506606017*66\$GPVTG,,T,,M,0.019,N,0.035,K,A*2D
\c:1597506606033*60\$IIVTG,,T,,M,0.0,N,0.0,K,A*34
\c:1597506606169*6E\$GPGGA,155109.00,4729.97687,N,00222.58483,W,1,10,0.89,3.5,M,48.7,M,,*45
\c:1597506606224*64\$IIXDR,C,31.3,C,AirTemp*27
\c:1597506606288*62\$IIVHW,,T,238,M,0.00,N,0.00,K*6C
\c:1597506606288*62\$IIHDG,238,,,,*5E
\c:1597506606288*62\$IIHDM,238,M*35
\c:1597506606298*63\$GPGSA,A,3,03,04,17,19,22,31,09,01,06,02,,,1.63,0.89,1.36*04
\c:1597506606320*61\$GPGSA,A,3,03,04,17,19,22,31,09,01,06,02,,,1.63,0.89,1.36*04
\c:1597506606444*64\$GPGSV,3,1,11,01,18,136,40,02,08,312,33,03,47,074,45,04,74,116,45*7B
\c:1597506606465*67\$GPGSV,3,1,11,01,18,136,40,02,08,312,33,03,47,074,45,04,74,116,45*7B
\c:1597506606496*6B\$IIDPT,4.7,,*41
\c:1597506606496*6B\$IIDBT,15.4,f,4.7,M,,*4A
\c:1597506606585*68\$GPGSV,3,2,11,06,46,306,44,09,51,204,50,12,01,322,,17,38,235,44*7F
\c:1597506606608*6E\$GPGSV,3,2,11,06,46,306,44,09,51,204,50,12,01,322,,17,38,235,44*7F
\c:1597506606704*63\$IIMWV,200,R,6.0,N,A*27
\c:1597506606704*63\$IIVWR,160,L,6.0,N,3.1,M,11.1,K*7B
\c:1597506606704*63\$GPGSV,3,3,11,19,43,260,49,22,27,085,45,31,11,034,42*45
\c:1597506606721*64\$GPGSV,3,3,11,19,43,260,49,22,27,085,45,31,11,034,42*45
\c:1597506606768*69\$IIVHW,,T,237,M,0.00,N,0.00,K*63
\c:1597506606769*68\$IIHDG,237,,,,*51
\c:1597506606769*68\$IIHDM,237,M*3A
\c:1597506606813*6A\$GPGLL,4729.97687,N,00222.58483,W,155109.00,A,A*7D
\c:1597506606954*68\$GPRMC,155110.00,A,4729.97686,N,00222.58482,W,0.027,,150820,,,A*67
\c:1597506606960*6F\$IIVLW,37.00,N,0.00,N*79
\c:1597506606976*68\$IIZDA,155110,15,08,2020,,*52
\c:1597506607008*69\$IIMWD,,T,78,M,6.1,N,3.1,M*4E
\c:1597506607027*64\$GPVTG,,T,,M,0.027,N,0.051,K,A*22
\c:1597506607039*6B\$IIVTG,,T,,M,0.0,N,0.1,K,A*35
\c:1597506607178*6F\$GPGGA,155110.00,4729.97686,N,00222.58482,W,1,10,0.89,3.5,M,48.7,M,,*4D
\c:1597506607307*65\$GPGSA,A,3,03,04,17,19,22,31,09,01,06,02,,,1.63,0.89,1.36*04
\c:1597506607328*68\$GPGSA,A,3,03,04,17,19,22,31,09,01,06,02,,,1.63,0.89,1.36*04
\c:1597506607343*65\$IIDPT,4.8,,*4E
\c:1597506607343*65\$IIDBT,15.7,f,4.8,M,,*46
\c:1597506607454*64\$GPGSV,3,1,11,01,18,136,40,02,08,312,35,03,47,074,45,04,74,116,45*7D
\c:1597506607478*6A\$GPGSV,3,1,11,01,18,136,40,02,08,312,35,03,47,074,45,04,74,116,45*7D
\c:1597506607596*6B\$GPGSV,3,2,11,06,46,306,45,09,51,204,50,12,01,322,,17,38,235,44*7E
\c:1597506607622*67\$GPGSV,3,2,11,06,46,306,45,09,51,204,50,12,01,322,,17,38,235,44*7E
\c:1597506607669*68\$IIMWV,199,R,6.0,N,A*24
\c:1597506607669*68\$IIVWR,161,L,6.0,N,3.1,M,11.1,K*7A
\c:1597506607714*63\$GPGSV,3,3,11,19,43,260,49,22,27,085,44,31,11,034,42*44
\c:1597506607734*61\$GPGSV,3,3,11,19,43,260,49,22,27,085,44,31,11,034,42*44
\c:1597506607822*69\$GPGLL,4729.97686,N,00222.58482,W,155110.00,A,A*75
\c:1597506607924*6E\$IIMWV,200,T,6.0,N,A*21
\c:1597506607924*6E\$IIVWT,160,L,6.0,N,3.1,M,11.1,K*7D
\c:1597506607924*6E\$IIMWD,,T,78,M,6.0,N,3.1,M*4F
\c:1597506607924*6E\$IIMWV,199,T,6.0,N,A*22
\c:1597506607924*6E\$IIVWT,161,L,6.0,N,3.1,M,11.1,K*7C
\c:1597506607955*68\$IIMWD,,T,76,M,6.0,N,3.1,M*41
\c:1597506607964*6A\$GPRMC,155111.00,A,4729.97686,N,00222.58482,W,0.018,,150820,,,A*6A
\c:1597506607972*6D\$IIZDA,155111,15,08,2020,,*53
\c:1597506608036*6B\$GPVTG,,T,,M,0.018,N,0.033,K,A*2A
\c:1597506608051*6A\$IIVTG,,T,,M,0.0,N,0.0,K,A*34
\c:1597506608189*6E\$GPGGA,155111.00,4729.97686,N,00222.58482,W,1,10,0.89,3.4,M,48.7,M,,*4D
\c:1597506608318*64\$GPGSA,A,3,03,04,17,19,22,31,09,01,06,02,,,1.63,0.89,1.36*04
\c:1597506608340*69\$IIDPT,4.7,,*41
\c:1597506608340*69\$IIDBT,15.4,f,4.7,M,,*4A
\c:1597506608340*69\$GPGSA,A,3,03,04,17,19,22,31,09,01,06,02,,,1.63,0.89,1.36*04
\c:1597506608463*6F\$GPGSV,3,1,11,01,18,136,40,02,08,312,34,03,47,074,45,04,74,116,45*7C
\c:1597506608483*61\$GPGSV,3,1,11,01,18,136,40,02,08,312,34,03,47,074,45,04,74,116,45*7C
\c:1597506608605*6D\$GPGSV,3,2,11,06,46,306,44,09,51,204,49,12,01,322,,17,38,235,45*76
\c:1597506608627*6D\$GPGSV,3,2,11,06,46,306,44,09,51,204,49,12,01,322,,17,38,235,45*76
\c:1597506608724*6F\$GPGSV,3,3,11,19,43,260,49,22,27,085,44,31,11,034,42*44
\c:1597506608739*63\$GPGSV,3,3,11,19,43,260,49,22,27,085,44,31,11,034,42*44
\c:1597506608832*67\$GPGLL,4729.97686,N,00222.58482,W,155111.00,A,A*74
\c:1597506608974*64\$GPRMC,155112.00,A,4729.97685,N,00222.58480,W,0.017,,150820,,,A*67
\c:1597506608995*6B\$IIZDA,155112,15,08,2020,,*50
\c:1597506609046*6D\$GPVTG,,T,,M,0.017,N,0.031,K,A*27
\c:1597506609199*6E\$GPGGA,155112.00,4729.97685,N,00222.58480,W,1,10,0.89,3.4,M,48.7,M,,*4F
\c:1597506609244*6D\$IIVHW,,T,237,M,0.00,N,0.00,K*63
\c:1597506609244*6D\$IIHDG,237,,,,*51
\c:1597506609244*6D\$IIHDM,237,M*3A
\c:1597506609328*66\$GPGSA,A,3,03,04,17,19,22,31,09,01,06,02,,,1.63,0.89,1.36*04
\c:1597506609353*6A\$GPGSA,A,3,03,04,17,19,22,31,09,01,06,02,,,1.63,0.89,1.36*04
\c:1597506609473*6F\$GPGSV,3,1,11,01,18,136,39,02,08,312,37,03,47,074,46,04,74,116,45*72
\c:1597506609500*6A\$IIMWV,199,R,5.9,N,A*2E
\c:1597506609500*6A\$IIVWR,161,L,5.9,N,3.0,M,10.9,K*78
\c:1597506609501*6B\$IIMWV,198,R,5.9,N,A*2F
\c:1597506609501*6B\$IIVWR,162,L,5.9,N,3.0,M,10.9,K*7B
\c:1597506609501*6B\$GPGSV,3,1,11,01,18,136,39,02,08,312,37,03,47,074,46,04,74,116,45*72
\c:1597506609615*6D\$GPGSV,3,2,11,06,46,306,45,09,51,204,49,12,01,322,,17,38,235,45*77
\c:1597506609640*6D\$GPGSV,3,2,11,06,46,306,45,09,51,204,49,12,01,322,,17,38,235,45*77
\c:1597506609733*68\$GPGSV,3,3,11,19,43,260,49,22,27,085,44,31,11,034,42*44
\c:1597506609751*6C\$GPGSV,3,3,11,19,43,260,49,22,27,085,44,31,11,034,42*44
\c:1597506609784*64\$IIMWV,199,T,5.9,N,A*28
\c:1597506609784*64\$IIVWT,161,L,5.9,N,3.0,M,10.9,K*7E
\c:1597506609784*64\$IIMWD,,T,76,M,5.9,N,3.0,M*4A
\c:1597506609784*64\$IIMWV,198,T,5.9,N,A*29
\c:1597506609784*64\$IIVWT,162,L,5.9,N,3.0,M,10.9,K*7D
\c:1597506609784*64\$IIMWD,,T,75,M,5.9,N,3.0,M*49
\c:1597506609841*62\$GPGLL,4729.97685,N,00222.58480,W,155112.00,A,A*76
\c:1597506609984*6A\$GPRMC,155113.00,A,4729.97683,N,00222.58478,W,0.017,,150820,,,A*67
\c:1597506609992*6D\$IIZDA,155113,15,08,2020,,*51
\c:1597506610057*65\$GPVTG,,T,,M,0.017,N,0.031,K,A*27
\c:1597506610208*6D\$GPGGA,155113.00,4729.97683,N,00222.58478,W,1,10,0.89,3.3,M,48.7,M,,*48
\c:1597506610238*6E\$IIGLL,4729.9768,N,00222.5848,W,155113,A,A*4B
\c:1597506610238*6E\$IIRMC,155113,A,4729.9768,N,00222.5848,W,,150820,,,A*5E
\c:1597506610337*60\$GPGSA,A,3,03,04,17,19,22,31,09,01,06,02,,,1.63,0.89,1.36*04
\c:1597506610363*61\$GPGSA,A,3,03,04,17,19,22,31,09,01,06,02,,,1.63,0.89,1.36*04
\c:1597506610483*68\$GPGSV,3,1,11,01,18,136,41,02,08,312,34,03,47,074,45,04,74,116,45*7D
\c:1597506610507*65\$GPGSV,3,1,11,01,18,136,41,02,08,312,34,03,47,074,45,04,74,116,45*7D
\c:1597506610625*66\$GPGSV,3,2,11,06,46,306,44,09,51,204,49,12,01,322,,17,38,235,46*75
\c:1597506610650*64\$GPGSV,3,2,11,06,46,306,44,09,51,204,49,12,01,322,,17,38,235,46*75
\c:1597506610698*60\$IIRSA,-37.0,A,,V*60
\c:1597506610743*67\$GPGSV,3,3,11,19,43,260,49,22,27,085,44,31,11,034,42*44
\c:1597506610761*67\$GPGSV,3,3,11,19,43,260,49,22,27,085,44,31,11,034,42*44
\c:1597506610852*68\$GPGLL,4729.97683,N,00222.58478,W,155113.00,A,A*76
\c:1597506610993*64\$GPRMC,155114.00,A,4729.97681,N,00222.58477,W,0.012,,150820,,,A*68
\c:1597506611002*64\$IIZDA,155114,15,08,2020,,*56
\c:1597506611066*66\$GPVTG,,T,,M,0.012,N,0.023,K,A*21
\c:1597506611081*6F\$IIVTG,,T,,M,0.0,N,0.0,K,A*34
\c:1597506611218*6D\$GPGGA,155114.00,4729.97681,N,00222.58477,W,1,10,0.89,3.3,M,48.7,M,,*42
\c:1597506611337*61\$IIMWV,197,R,5.9,N,A*20
\c:1597506611337*61\$IIVWR,163,L,5.9,N,3.0,M,10.9,K*7A
\c:1597506611347*66\$GPGSA,A,3,03,04,17,19,22,31,09,01,06,02,,,1.63,0.89,1.36*04
\c:1597506611369*6A\$GPGSA,A,3,03,04,17,19,22,31,09,01,06,02,,,1.63,0.89,1.36*04
\c:1597506611493*68\$GPGSV,3,1,11,01,18,136,39,02,08,312,36,03,47,074,45,04,74,116,45*70
\c:1597506611512*60\$GPGSV,3,1,11,01,18,136,39,02,08,312,36,03,47,074,45,04,74,116,45*70
\c:1597506611634*67\$GPGSV,3,2,11,06,46,306,45,09,51,204,49,12,01,322,,17,38,235,45*77
\c:1597506611657*62\$GPGSV,3,2,11,06,46,306,45,09,51,204,49,12,01,322,,17,38,235,45*77
\c:1597506611720*63\$IIMTW,28.8,C*11
\c:1597506611744*61\$IIVHW,,T,237,M,0.00,N,0.00,K*63
\c:1597506611744*61\$IIHDG,237,,,,*51
\c:1597506611744*61\$IIHDM,237,M*3A
\c:1597506611753*67\$GPGSV,3,3,11,19,43,260,50,22,27,085,45,31,11,034,43*4C
\c:1597506611776*60\$GPGSV,3,3,11,19,43,260,50,22,27,085,45,31,11,034,43*4C
\c:1597506611862*6A\$GPGLL,4729.97681,N,00222.58477,W,155114.00,A,A*7C
\c:1597506612003*66\$GPRMC,155115.00,A,4729.97681,N,00222.58475,W,0.012,,150820,,,A*6B
\c:1597506612015*61\$IIZDA,155115,15,08,2020,,*57
\c:1597506612072*60\$IIMWV,197,T,5.9,N,A*26
\c:1597506612072*60\$IIVWT,163,L,5.9,N,3.0,M,10.9,K*7C
\c:1597506612073*61\$IIMWD,,T,74,M,5.9,N,3.0,M*48
\c:1597506612075*67\$GPVTG,,T,,M,0.012,N,0.022,K,A*20
\c:1597506612228*6D\$GPGGA,155115.00,4729.97681,N,00222.58475,W,1,10,0.89,3.3,M,48.7,M,,*41
\c:1597506612357*64\$GPGSA,A,3,03,04,17,19,22,31,09,01,06,02,,,1.62,0.89,1.36*05
\c:1597506612376*67\$GPGSA,A,3,03,04,17,19,22,31,09,01,06,02,,,1.62,0.89,1.36*05
\c:1597506612503*63\$GPGSV,3,1,11,01,18,136,40,02,08,312,33,03,47,074,45,04,74,116,45*7B
\c:1597506612528*6A\$GPGSV,3,1,11,01,18,136,40,02,08,312,33,03,47,074,45,04,74,116,45*7B
\c:1597506612644*63\$GPGSV,3,2,11,06,46,306,42,09,51,204,48,12,01,322,,17,38,235,46*72
\c:1597506612669*6C\$GPGSV,3,2,11,06,46,306,42,09,51,204,48,12,01,322,,17,38,235,46*72
\c:1597506612685*6E\$IIMWV,196,R,5.9,N,A*21
\c:1597506612685*6E\$IIVWR,164,L,5.9,N,3.0,M,10.9,K*7D
\c:1597506612764*60\$GPGSV,3,3,11,19,43,260,49,22,27,085,44,31,11,034,41*47
\c:1597506612781*6B\$GPGSV,3,3,11,19,43,260,49,22,27,085,44,31,11,034,41*47
\c:1597506612872*68\$GPGLL,4729.97681,N,00222.58475,W,155115.00,A,A*7F
\c:1597506612982*66\$IIMWV,196,T,5.9,N,A*27
\c:1597506612982*66\$IIVWT,164,L,5.9,N,3.0,M,10.9,K*7B
\c:1597506612982*66\$IIMWD,,T,73,M,5.9,N,3.0,M*4F
\c:1597506613012*67\$GPRMC,155116.00,A,4729.97679,N,00222.58473,W,0.008,,150820,,,A*62
\c:1597506613029*6F\$IIZDA,155116,15,08,2020,,*54
\c:1597506613086*6A\$GPVTG,,T,,M,0.008,N,0.016,K,A*2C
\c:1597506613094*69\$IIMTW,28.9,C*10
\c:1597506613110*64\$IIVTG,,T,,M,0.0,N,0.0,K,A*34
\c:1597506613158*68\$IIMWV,195,R,5.9,N,A*22
\c:1597506613158*68\$IIVWR,165,L,5.9,N,3.0,M,10.9,K*7C
\c:1597506613206*60\$IIDPT,4.8,,*4E
\c:1597506613206*60\$IIDBT,15.7,f,4.8,M,,*46
\c:1597506613238*6D\$GPGGA,155116.00,4729.97679,N,00222.58473,W,1,10,0.89,3.2,M,48.7,M,,*42
\c:1597506613264*64\$IIGLL,4729.9768,N,00222.5847,W,155116,A,A*41
\c:1597506613264*64\$IIRMC,155116,A,4729.9768,N,00222.5847,W,,150820,,,A*54
\c:1597506613367*66\$GPGSA,A,3,03,04,17,19,22,31,09,01,06,02,,,1.62,0.89,1.36*05
\c:1597506613391*6F\$GPGSA,A,3,03,04,17,19,22,31,09,01,06,02,,,1.62,0.89,1.36*05
\c:1597506613513*63\$GPGSV,3,1,11,01,18,136,38,02,08,312,34,03,47,074,44,04,74,116,45*72
\c:1597506613535*67\$GPGSV,3,1,11,01,18,136,38,02,08,312,34,03,47,074,44,04,74,116,45*72
\c:1597506613654*63\$GPGSV,3,2,11,06,46,306,44,09,51,204,49,12,01,322,,17,38,235,45*76
\c:1597506613679*6C\$GPGSV,3,2,11,06,46,306,44,09,51,204,49,12,01,322,,17,38,235,45*76
\c:1597506613711*63\$IIXDR,C,31.3,C,AirTemp*27
\c:1597506613773*67\$GPGSV,3,3,11,19,43,260,49,22,27,085,44,31,11,034,42*44
\c:1597506613791*6B\$GPGSV,3,3,11,19,43,260,49,22,27,085,44,31,11,034,42*44
\c:1597506613872*69\$IIMWV,195,T,5.9,N,A*24
\c:1597506613881*65\$GPGLL,4729.97679,N,00222.58473,W,155116.00,A,A*7D
\c:1597506613887*63\$IIVWT,165,L,5.9,N,3.0,M,10.9,K*7A
\c:1597506613887*63\$IIMWD,,T,72,M,5.9,N,3.0,M*4E
\c:1597506614022*63\$GPRMC,155117.00,A,4729.97676,N,00222.58470,W,0.030,,150820,,,A*64
\c:1597506614031*61\$IIZDA,155117,15,08,2020,,*55
\c:1597506614063*66\$IIMWV,194,R,5.9,N,A*23
\c:1597506614063*66\$IIVWR,166,L,5.9,N,3.0,M,10.9,K*7F
\c:1597506614095*6F\$GPVTG,,T,,M,0.030,N,0.056,K,A*23
\c:1597506614111*62\$IIVTG,,T,,M,0.0,N,0.1,K,A*35
\c:1597506614239*6B\$IIVHW,,T,237,M,0.00,N,0.00,K*63
\c:1597506614239*6B\$IIHDG,237,,,,*51
\c:1597506614239*6B\$IIHDM,237,M*3A
\c:1597506614247*62\$GPGGA,155117.00,4729.97676,N,00222.58470,W,1,10,0.89,3.1,M,48.7,M,,*4C
\c:1597506614376*61\$GPGSA,A,3,03,04,17,19,22,31,09,01,06,02,,,1.62,0.89,1.36*05
\c:1597506614398*61\$GPGSA,A,3,03,04,17,19,22,31,09,01,06,02,,,1.62,0.89,1.36*05
\c:1597506614446*65\$IIVLW,37.00,N,0.00,N*79
\c:1597506614522*66\$GPGSV,3,1,11,01,18,136,40,02,08,312,34,03,47,074,45,04,74,116,46*7F
\c:1597506614550*63\$GPGSV,3,1,11,01,18,136,40,02,08,312,34,03,47,074,45,04,74,116,46*7F
\c:1597506614550*63\$IIMWV,193,R,5.9,N,A*24
\c:1597506614550*63\$IIVWR,167,L,5.9,N,3.0,M,10.9,K*7E
\c:1597506614664*67\$GPGSV,3,2,11,06,46,306,46,09,51,204,49,12,01,322,,17,38,235,45*74
\c:1597506614690*6C\$GPGSV,3,2,11,06,46,306,46,09,51,204,49,12,01,322,,17,38,235,45*74
\c:1597506614730*67\$GPTXT,01,01,00,txbuf alloc*7F
\c:1597506614738*6F\$GPTXT,01,01,00,txbuf alloc*7F
\c:1597506614786*6A\$IIMWV,193,T,5.9,N,A*22
\c:1597506614786*6A\$IIVWT,167,L,5.9,N,3.0,M,10.9,K*78
\c:1597506614833*6B\$IIMWD,,T,70,M,5.9,N,3.0,M*4C
\c:1597506614872*6E\$GPRMC,155118.00,A,4729.97674,N,00222.58468,W,0.021,,150820,,,A*60
\c:1597506614881*62\$IIZDA,155118,15,08,2020,,*5A
\c:1597506614945*6B\$GPVTG,,T,,M,0.021,N,0.039,K,A*2A
\c:1597506614961*6D\$IIVTG,,T,,M,0.0,N,0.0,K,A*34
\c:1597506615058*6F\$IIDPT,4.7,,*41
\c:1597506615073*66\$IIDBT,15.4,f,4.7,M,,*4A
\c:1597506615097*6C\$GPGGA,155118.00,4729.97674,N,00222.58468,W,1,10,0.89,3.1,M,48.7,M,,*48
\c:1597506615129*68\$IIGLL,4729.9767,N,00222.5847,W,155118,A,A*40
\c:1597506615129*68\$IIRMC,155118,A,4729.9767,N,00222.5847,W,,150820,,,A*55
\c:1597506615226*64\$GPGSA,A,3,03,04,17,19,22,31,09,01,06,02,,,1.62,0.89,1.36*05
\c:1597506615251*64\$GPGSA,A,3,03,04,17,19,22,31,09,01,06,02,,,1.62,0.89,1.36*05
\c:1597506615372*64\$GPGSV,3,1,11,01,18,136,39,02,08,312,36,03,47,074,45,04,74,116,46*73
\c:1597506615394*6C\$GPGSV,3,1,11,01,18,136,39,02,08,312,36,03,47,074,45,04,74,116,46*73
\c:1597506615513*65\$GPGSV,3,2,11,06,46,306,44,09,51,204,49,12,01,322,,17,38,235,46*75
\c:1597506615538*6C\$GPGSV,3,2,11,06,46,306,44,09,51,204,49,12,01,322,,17,38,235,46*75
\c:1597506615632*65\$GPGSV,3,3,11,19,43,260,49,22,27,085,45,31,11,034,43*44
\c:1597506615650*61\$GPGSV,3,3,11,19,43,260,49,22,27,085,45,31,11,034,43*44
\c:1597506615741*60\$GPGLL,4729.97674,N,00222.58468,W,155118.00,A,A*74
\c:1597506615883*61\$GPRMC,155119.00,A,4729.97672,N,00222.58466,W,0.019,,150820,,,A*62
\c:1597506615907*6C\$IIZDA,155119,15,08,2020,,*5B
\c:1597506615955*6B\$GPVTG,,T,,M,0.019,N,0.034,K,A*2C
\c:1597506616034*66\$IIDPT,4.8,,*4E
\c:1597506616034*66\$IIDBT,15.7,f,4.8,M,,*46
\c:1597506616107*67\$GPGGA,155119.00,4729.97672,N,00222.58466,W,1,10,0.89,3.0,M,48.7,M,,*40
\c:1597506616236*66\$GPGSA,A,3,03,04,17,19,22,31,09,01,06,02,,,1.62,0.89,1.36*05
\c:1597506616259*6F\$GPGSA,A,3,03,04,17,19,22,31,09,01,06,02,,,1.62,0.89,1.36*05
\c:1597506616354*63\$IIMWV,192,R,5.9,N,A*25
\c:1597506616354*63\$IIVWR,168,L,5.9,N,3.0,M,10.9,K*71
\c:1597506616382*68\$GPGSV,3,1,11,01,18,136,38,02,08,312,35,03,47,074,46,04,74,116,46*72
\c:1597506616402*67\$GPGSV,3,1,11,01,18,136,38,02,08,312,35,03,47,074,46,04,74,116,46*72
\c:1597506616523*65\$GPGSV,3,2,11,06,46,306,44,09,51,204,50,12,01,322,,17,38,235,45*7E
\c:1597506616546*66\$GPGSV,3,2,11,06,46,306,44,09,51,204,50,12,01,322,,17,38,235,45*7E
\c:1597506616643*60\$GPGSV,3,3,11,19,43,260,49,22,27,085,44,31,11,034,42*44
\c:1597506616658*6A\$GPGSV,3,3,11,19,43,260,49,22,27,085,44,31,11,034,42*44
\c:1597506616737*62\$IIVHW,,T,237,M,0.00,N,0.00,K*63
\c:1597506616737*62\$IIHDG,237,,,,*51
\c:1597506616737*62\$IIHDM,237,M*3A
\c:1597506616750*63\$GPGLL,4729.97672,N,00222.58466,W,155119.00,A,A*7D
\c:1597506616833*69\$IIMWV,192,R,6.0,N,A*2F
\c:1597506616833*69\$IIVWR,168,L,6.0,N,3.1,M,11.1,K*73
\c:1597506616891*61\$GPRMC,155120.00,A,4729.97670,N,00222.58465,W,0.044,,150820,,,A*61
\c:1597506616914*6D\$IIZDA,155120,15,08,2020,,*51
\c:1597506616964*6A\$GPVTG,,T,,M,0.044,N,0.082,K,A*29
\c:1597506616978*67\$IIVTG,,T,,M,0.0,N,0.1,K,A*35
\c:1597506616993*62\$IIDPT,4.7,,*41
\c:1597506617009*69\$IIDBT,15.4,f,4.7,M,,*4A
\c:1597506617074*63\$IIMWV,192,T,5.9,N,A*23
\c:1597506617089*61\$IIVWT,168,L,5.9,N,3.0,M,10.9,K*77
\c:1597506617117*67\$GPGGA,155120.00,4729.97670,N,00222.58465,W,1,10,0.89,3.0,M,48.7,M,,*4B
\c:1597506617122*61\$IIMWD,,T,69,M,5.9,N,3.0,M*44
\c:1597506617246*60\$GPGSA,A,3,03,04,17,19,22,31,09,01,06,02,,,1.62,0.89,1.36*05
\c:1597506617265*61\$GPGSA,A,3,03,04,17,19,22,31,09,01,06,02,,,1.62,0.89,1.36*05
\c:1597506617391*6B\$GPGSV,3,1,11,01,18,136,38,02,08,312,35,03,47,074,45,04,74,116,45*72
\c:1597506617418*6D\$GPGSV,3,1,11,01,18,136,38,02,08,312,35,03,47,074,45,04,74,116,45*72
\c:1597506617534*62\$GPGSV,3,2,11,06,46,306,44,09,51,204,49,12,01,322,,17,38,235,46*75
\c:1597506617558*68\$GPGSV,3,2,11,06,46,306,44,09,51,204,49,12,01,322,,17,38,235,46*75
\c:1597506617652*61\$GPGSV,3,3,11,19,43,260,49,22,27,085,43,31,11,034,39*4F
\c:1597506617670*61\$GPGSV,3,3,11,19,43,260,49,22,27,085,43,31,11,034,39*4F
\c:1597506617745*66\$IIMWV,192,R,6.1,N,A*2E
\c:1597506617745*66\$IIVWR,168,L,6.1,N,3.1,M,11.3,K*70
\c:1597506617746*65\$IIMWV,191,R,6.1,N,A*2D
\c:1597506617746*65\$IIVWR,169,L,6.1,N,3.1,M,11.3,K*71
\c:1597506617760*61\$GPGLL,4729.97670,N,00222.58465,W,155120.00,A,A*76
\c:1597506617902*6B\$GPRMC,155121.00,A,4729.97669,N,00222.58462,W,0.020,,150820,,,A*6D
\c:1597506617922*69\$IIZDA,155121,15,08,2020,,*50
\c:1597506617970*6E\$IIDPT,4.8,,*4E
\c:1597506617970*6E\$IIDBT,15.7,f,4.8,M,,*46
\c:1597506617975*6B\$GPVTG,,T,,M,0.020,N,0.036,K,A*24
\c:1597506617985*64\$IIVTG,,T,,M,0.0,N,0.0,K,A*34
\c:1597506618009*66\$IIMWV,192,T,6.0,N,A*29
\c:1597506618009*66\$IIVWT,168,L,6.0,N,3.1,M,11.1,K*75
\c:1597506618009*66\$IIMWD,,T,69,M,6.0,N,3.1,M*4F
\c:1597506618127*6B\$GPGGA,155121.00,4729.97669,N,00222.58462,W,1,10,0.89,2.9,M,48.7,M,,*4D
\c:1597506618152*69\$IIRMC,155121,A,4729.9767,N,00222.5846,W,,150820,,,A*5E
\c:1597506618169*61\$IIMWV,191,R,6.2,N,A*2E
\c:1597506618169*61\$IIVWR,169,L,6.2,N,3.2,M,11.5,K*77
\c:1597506618200*6D\$IIRSA,-37.0,A,,V*60
\c:1597506618256*6E\$GPGSA,A,3,03,04,17,19,22,31,09,01,06,02,,,1.62,0.89,1.36*05
\c:1597506618280*65\$GPGSA,A,3,03,04,17,19,22,31,09,01,06,02,,,1.62,0.89,1.36*05
\c:1597506618402*69\$GPGSV,3,1,11,01,18,136,38,02,08,312,35,03,47,074,44,04,74,116,44*72
\c:1597506618424*6D\$GPGSV,3,1,11,01,18,136,38,02,08,312,35,03,47,074,44,04,74,116,44*72
\c:1597506618543*6D\$GPGSV,3,2,11,06,46,306,44,09,51,204,49,12,01,322,,17,38,235,44*77
\c:1597506618568*64\$GPGSV,3,2,11,06,46,306,44,09,51,204,49,12,01,322,,17,38,235,44*77
\c:1597506618661*6E\$GPGSV,3,3,11,19,43,260,48,22,27,085,42,31,11,034,41*40
\c:1597506618680*61\$GPGSV,3,3,11,19,43,260,48,22,27,085,42,31,11,034,41*40
\c:1597506618770*6F\$GPGLL,4729.97669,N,00222.58462,W,155121.00,A,A*78
\c:1597506618911*66\$GPRMC,155122.00,A,4729.97668,N,00222.58459,W,0.013,,150820,,,A*67
\c:1597506618960*60\$IIZDA,155122,15,08,2020,,*53
\c:1597506618960*60\$IIMWV,192,T,6.2,N,A*2B
\c:1597506618960*60\$IIVWT,168,L,6.2,N,3.2,M,11.5,K*70
\c:1597506618960*60\$IIMWD,,T,69,M,6.2,N,3.2,M*4E
\c:1597506618960*60\$IIMWV,191,T,6.2,N,A*28
\c:1597506618960*60\$IIVWT,169,L,6.2,N,3.2,M,11.5,K*71
\c:1597506618960*60\$IIMWD,,T,68,M,6.2,N,3.2,M*4F
\c:1597506618984*6A\$GPVTG,,T,,M,0.013,N,0.025,K,A*26
\c:1597506619008*66\$IIVTG,,T,,M,0.0,N,0.0,K,A*34
\c:1597506619119*67\$IIMWV,191,R,6.3,N,A*2F
\c:1597506619119*67\$IIVWR,169,L,6.3,N,3.2,M,11.7,K*74
\c:1597506619136*6A\$GPGGA,155122.00,4729.97668,N,00222.58459,W,1,10,0.89,2.8,M,48.7,M,,*46
\c:1597506619231*6E\$IIHDM,237,M*3A
\c:1597506619265*6F\$GPGSA,A,3,03,04,17,19,22,31,09,01,06,02,,,1.62,0.89,1.36*05
\c:1597506619291*64\$GPGSA,A,3,03,04,17,19,22,31,09,01,06,02,,,1.62,0.89,1.36*05
\c:1597506619411*6A\$GPGSV,3,1,11,01,17,136,40,02,08,312,35,03,47,074,46,04,74,116,45*71
\c:1597506619435*6C\$GPGSV,3,1,11,01,17,136,40,02,08,312,35,03,47,074,46,04,74,116,45*71
\c:1597506619552*6C\$GPGSV,3,2,11,06,46,306,44,09,51,204,49,12,01,322,,17,38,235,46*75
\c:1597506619577*6B\$GPGSV,3,2,11,06,46,306,44,09,51,204,49,12,01,322,,17,38,235,46*75
\c:1597506619672*6D\$GPGSV,3,3,11,19,43,260,49,22,27,085,44,31,11,034,41*47
\c:1597506619690*61\$GPGSV,3,3,11,19,43,260,49,22,27,085,44,31,11,034,41*47
\c:1597506619780*61\$GPGLL,4729.97668,N,00222.58459,W,155122.00,A,A*72
\c:1597506619818*6F\$IIDPT,4.7,,*41
\c:1597506619833*66\$IIDBT,15.4,f,4.7,M,,*4A
\c:1597506619833*66\$IIMWV,191,T,6.3,N,A*29
\c:1597506619856*65\$IIVWT,169,L,6.3,N,3.2,M,11.7,K*72
\c:1597506619856*65\$IIMWD,,T,68,M,6.3,N,3.2,M*4E
\c:1597506619922*67\$GPRMC,155123.00,A,4729.97667,N,00222.58456,W,0.031,,150820,,,A*66
\c:1597506619937*63\$IIZDA,155123,15,08,2020,,*52
\c:1597506619994*6A\$GPVTG,,T,,M,0.031,N,0.057,K,A*23
\c:1597506620016*63\$IIVTG,,T,,M,0.0,N,0.1,K,A*35
\c:1597506620147*66\$GPGGA,155123.00,4729.97667,N,00222.58456,W,1,10,0.89,2.7,M,48.7,M,,*48
\c:1597506620276*67\$GPGSA,A,3,03,04,17,19,22,31,09,01,06,02,,,1.62,0.89,1.36*05
\c:1597506620299*66\$GPGSA,A,3,03,04,17,19,22,31,09,01,06,02,,,1.62,0.89,1.36*05
\c:1597506620421*63\$GPGSV,3,1,11,01,17,136,39,02,09,312,37,03,47,074,45,04,74,116,45*7F
\c:1597506620444*60\$GPGSV,3,1,11,01,17,136,39,02,09,312,37,03,47,074,45,04,74,116,45*7F
\c:1597506620473*64\$IIMWV,191,R,6.4,N,A*28
\c:1597506620473*64\$IIVWR,169,L,6.4,N,3.3,M,11.9,K*7C
\c:1597506620474*63\$IIMTW,28.9,C*10
\c:1597506620563*64\$GPGSV,3,2,11,06,46,306,44,09,51,204,50,12,01,322,,17,38,235,45*7E
\c:1597506620585*6C\$GPGSV,3,2,11,06,46,306,44,09,51,204,50,12,01,322,,17,38,235,45*7E
\c:1597506620681*6B\$GPGSV,3,3,11,19,43,260,49,22,27,085,44,31,11,034,42*44
\c:1597506620698*63\$GPGSV,3,3,11,19,43,260,49,22,27,085,44,31,11,034,42*44
\c:1597506620745*62\$IIMWD,,T,68,M,6.4,N,3.3,M*48
\c:1597506620789*62\$GPGLL,4729.97667,N,00222.58456,W,155123.00,A,A*73
\c:1597506620793*69\$IIDPT,4.8,,*4E
\c:1597506620793*69\$IIDBT,15.7,f,4.8,M,,*46
\c:1597506620931*6F\$GPRMC,155124.00,A,4729.97666,N,00222.58453,W,0.008,,150820,,,A*6F
\c:1597506620953*6B\$IIZDA,155124,15,08,2020,,*55
\c:1597506621005*60\$GPVTG,,T,,M,0.008,N,0.015,K,A*2F
\c:1597506621017*63\$IIVTG,,T,,M,0.0,N,0.0,K,A*34
\c:1597506621065*66\$IIXDR,U,12.034,V,BatWiFi*11
\c:1597506621156*67\$GPGGA,155124.00,4729.97666,N,00222.58453,W,1,10,0.89,2.6,M,48.7,M,,*4A
\c:1597506621184*68\$IIGLL,4729.9767,N,00222.5845,W,155124,A,A*4D
\c:1597506621184*68\$IIRMC,155124,A,4729.9767,N,00222.5845,W,,150820,,,A*58
\c:1597506621217*61\$IIXDR,C,31.3,C,AirTemp*27
\c:1597506621285*6A\$GPGSA,A,3,03,04,17,19,22,31,09,01,06,02,,,1.62,0.89,1.36*05
\c:1597506621310*67\$GPGSA,A,3,03,04,17,19,22,31,09,01,06,02,,,1.62,0.89,1.36*05
\c:1597506621431*63\$GPGSV,3,1,11,01,17,136,39,02,09,312,36,03,47,074,44,04,74,116,45*7F
\c:1597506621455*61\$GPGSV,3,1,11,01,17,136,39,02,09,312,36,03,47,074,44,04,74,116,45*7F
\c:1597506621572*65\$GPGSV,3,2,11,06,46,306,45,09,51,204,50,12,01,322,,17,38,235,45*7F
\c:1597506621598*61\$GPGSV,3,2,11,06,46,306,45,09,51,204,50,12,01,322,,17,38,235,45*7F
\c:1597506621691*6B\$GPGSV,3,3,11,19,43,260,49,22,27,085,44,31,11,034,42*44
\c:1597506621717*64\$IIVLW,37.00,N,0.00,N*79
\c:1597506621717*64\$GPGSV,3,3,11,19,43,260,49,22,27,085,44,31,11,034,42*44
\c:1597506621744*62\$IIVHW,,T,237,M,0.00,N,0.00,K*63
\c:1597506621744*62\$IIHDG,237,,,,*51
\c:1597506621744*62\$IIHDM,237,M*3A
\c:1597506621759*6E\$IIDPT,4.7,,*41
\c:1597506621775*60\$IIDBT,15.4,f,4.7,M,,*4A
\c:1597506621800*6D\$GPGLL,4729.97666,N,00222.58453,W,155124.00,A,A*70
\c:1597506621855*6D\$IIMWV,192,R,6.4,N,A*2B
\c:1597506621855*6D\$IIVWR,168,L,6.4,N,3.3,M,11.9,K*7D
\c:1597506621941*69\$GPRMC,155125.00,A,4729.97666,N,00222.58451,W,0.045,,150820,,,A*65
\c:1597506621952*6B\$IIZDA,155125,15,08,2020,,*54
\c:1597506622014*63\$GPVTG,,T,,M,0.045,N,0.084,K,A*2E
\c:1597506622031*64\$IIVTG,,T,,M,0.0,N,0.1,K,A*35
\c:1597506622166*67\$GPGGA,155125.00,4729.97666,N,00222.58451,W,1,10,0.89,2.5,M,48.7,M,,*4A
\c:1597506622295*68\$GPGSA,A,3,03,04,17,19,22,31,09,01,06,02,,,1.62,0.89,1.36*05
\c:1597506622318*6C\$GPGSA,A,3,03,04,17,19,22,31,09,01,06,02,,,1.62,0.89,1.36*05
\c:1597506622441*67\$GPGSV,3,1,11,01,17,136,40,02,09,312,37,03,47,074,44,04,74,114,45*72
\c:1597506622463*67\$GPGSV,3,1,11,01,17,136,40,02,09,312,37,03,47,074,44,04,74,114,45*72
\c:1597506622583*68\$GPGSV,3,2,11,06,46,306,44,09,51,204,50,12,01,322,,17,38,235,45*7E
\c:1597506622607*67\$GPGSV,3,2,11,06,46,306,44,09,51,204,50,12,01,322,,17,38,235,45*7E
\c:1597506622701*60\$GPGSV,3,3,11,19,43,260,49,22,27,085,45,31,11,034,43*44
\c:1597506622719*69\$GPGSV,3,3,11,19,43,260,49,22,27,085,45,31,11,034,43*44
\c:1597506622809*67\$GPGLL,4729.97666,N,00222.58451,W,155125.00,A,A*73
\c:1597506622951*6B\$GPRMC,155126.00,A,4729.97667,N,00222.58449,W,0.018,,150820,,,A*66
\c:1597506622975*6D\$IIZDA,155126,15,08,2020,,*57
\c:1597506623023*66\$GPVTG,,T,,M,0.018,N,0.033,K,A*2A
\c:1597506623055*67\$IIVTG,,T,,M,0.0,N,0.0,K,A*34
\c:1597506623055*67\$IIMWV,192,T,6.4,N,A*2D
\c:1597506623055*67\$IIVWT,168,L,6.4,N,3.3,M,11.9,K*7B
\c:1597506623055*67\$IIMWD,,T,69,M,6.4,N,3.3,M*49
\c:1597506623176*67\$GPGGA,155126.00,4729.97667,N,00222.58449,W,1,10,0.89,2.4,M,48.7,M,,*40
\c:1597506623305*61\$GPGSA,A,3,03,04,17,19,22,31,09,01,06,02,,,1.62,0.89,1.36*05
\c:1597506623327*61\$GPGSA,A,3,03,04,17,19,22,31,09,01,06,02,,,1.62,0.89,1.36*05
\c:1597506623450*66\$GPGSV,3,1,11,01,17,136,40,02,09,312,35,03,47,074,45,04,74,114,45*71
\c:1597506623471*65\$GPGSV,3,1,11,01,17,136,40,02,09,312,35,03,47,074,45,04,74,114,45*71
\c:1597506623592*69\$GPGSV,3,2,11,06,46,306,44,09,51,204,50,12,01,322,,17,38,235,46*7D
\c:1597506623615*65\$GPGSV,3,2,11,06,46,306,44,09,51,204,50,12,01,322,,17,38,235,46*7D
\c:1597506623711*60\$GPGSV,3,3,11,19,43,260,49,22,27,085,45,31,11,034,43*44
\c:1597506623727*65\$GPGSV,3,3,11,19,43,260,49,22,27,085,45,31,11,034,43*44
\c:1597506623743*67\$IIDPT,4.8,,*4E
\c:1597506623758*6D\$IIDBT,15.7,f,4.8,M,,*46
\c:1597506623820*6D\$GPGLL,4729.97667,N,00222.58449,W,155126.00,A,A*78
\c:1597506623961*69\$GPRMC,155127.00,A,4729.97668,N,00222.58448,W,0.005,,150820,,,A*65
\c:1597506623982*64\$IIZDA,155127,15,08,2020,,*56
\c:1597506624034*67\$GPVTG,,T,,M,0.005,N,0.010,K,A*27
\c:1597506624047*63\$IIVTG,,T,,M,0.0,N,0.0,K,A*34
\c:1597506624142*67\$IIMWV,191,R,6.4,N,A*28
\c:1597506624143*66\$IIVWR,169,L,6.4,N,3.3,M,11.9,K*7C
\c:1597506624185*6C\$GPGGA,155127.00,4729.97668,N,00222.58448,W,1,10,0.89,2.4,M,48.7,M,,*4F
\c:1597506624222*62\$IIHDG,237,,,,*51
\c:1597506624238*69\$IIHDM,237,M*3A
\c:1597506624314*66\$GPGSA,A,3,03,04,17,19,22,31,09,01,06,02,,,1.62,0.89,1.36*05
\c:1597506624334*64\$GPGSA,A,3,03,04,17,19,22,31,09,01,06,02,,,1.62,0.89,1.36*05
\c:1597506624461*63\$GPGSV,3,1,11,01,17,136,40,02,09,312,34,03,47,074,46,04,74,114,45*73
\c:1597506624487*6B\$GPGSV,3,1,11,01,17,136,40,02,09,312,34,03,47,074,46,04,74,114,45*73
\c:1597506624602*64\$GPGSV,3,2,11,06,46,306,44,09,51,204,50,12,01,322,,17,38,235,45*7E
\c:1597506624626*62\$GPGSV,3,2,11,06,46,306,44,09,51,204,50,12,01,322,,17,38,235,45*7E
\c:1597506624721*64\$GPGSV,3,3,11,19,43,260,49,22,27,085,45,31,11,034,42*45
\c:1597506624723*66\$IIDPT,4.7,,*41
\c:1597506624723*66\$IIDBT,15.4,f,4.7,M,,*4A
\c:1597506624739*6D\$GPGSV,3,3,11,19,43,260,49,22,27,085,45,31,11,034,42*45
\c:1597506624829*63\$GPGLL,4729.97668,N,00222.58448,W,155127.00,A,A*77
\c:1597506624921*6A\$IIMWV,191,T,6.4,N,A*2E
\c:1597506624921*6A\$IIVWT,169,L,6.4,N,3.3,M,11.9,K*7A
\c:1597506624921*6A\$IIMWD,,T,68,M,6.4,N,3.3,M*48
\c:1597506624970*6E\$GPRMC,155128.00,A,4729.97668,N,00222.58446,W,0.031,,150820,,,A*63
\c:1597506624986*67\$IIZDA,155128,15,08,2020,,*59
\c:1597506625043*66\$GPVTG,,T,,M,0.031,N,0.057,K,A*23
\c:1597506625066*61\$IIVTG,,T,,M,0.0,N,0.1,K,A*35
\c:1597506625195*6C\$GPGGA,155128.00,4729.97668,N,00222.58446,W,1,10,0.89,2.3,M,48.7,M,,*49
\c:1597506625325*65\$GPGSA,A,3,03,04,17,19,22,31,09,01,06,02,,,1.62,0.89,1.36*05
\c:1597506625350*67\$GPGSA,A,3,03,04,17,19,22,31,09,01,06,02,,,1.62,0.89,1.36*05
\c:1597506625470*62\$GPGSV,3,1,11,01,17,136,40,02,09,312,34,03,47,074,45,04,74,114,46*73
\c:1597506625493*6F\$GPGSV,3,1,11,01,17,136,40,02,09,312,34,03,47,074,45,04,74,114,46*73
\c:1597506625525*63\$IIMWV,190,R,6.4,N,A*29
\c:1597506625525*63\$IIVWR,170,L,6.4,N,3.3,M,11.9,K*74
\c:1597506625612*64\$GPGSV,3,2,11,06,46,306,44,09,51,204,50,12,01,322,,17,38,235,46*7D
\c:1597506625637*63\$GPGSV,3,2,11,06,46,306,44,09,51,204,50,12,01,322,,17,38,235,46*7D
\c:1597506625701*67\$IIRSA,-37.0,A,,V*60
\c:1597506625731*64\$GPGSV,3,3,11,19,43,260,48,22,27,085,45,31,11,034,42*44
\c:1597506625749*6B\$GPGSV,3,3,11,19,43,260,48,22,27,085,45,31,11,034,42*44
\c:1597506625826*6D\$IIMWV,190,T,6.4,N,A*2F
\c:1597506625826*6D\$IIVWT,170,L,6.4,N,3.3,M,11.9,K*72
\c:1597506625826*6D\$IIMWD,,T,67,M,6.4,N,3.3,M*47
\c:1597506625839*63\$GPGLL,4729.97668,N,00222.58446,W,155128.00,A,A*76
\c:1597506625981*61\$GPRMC,155129.00,A,4729.97667,N,00222.58445,W,0.009,,150820,,,A*65
\c:1597506626012*61\$IIZDA,155129,15,08,2020,,*58
\c:1597506626012*61\$IIVHW,,T,238,M,0.00,N,0.00,K*6C
\c:1597506626013*60\$IIHDG,238,,,,*5E
\c:1597506626013*60\$IIHDM,238,M*35
\c:1597506626054*63\$GPVTG,,T,,M,0.009,N,0.017,K,A*2C
\c:1597506626060*64\$IIVTG,,T,,M,0.0,N,0.0,K,A*34
\c:1597506626206*66\$GPGGA,155129.00,4729.97667,N,00222.58445,W,1,10,0.89,2.2,M,48.7,M,,*45
\c:1597506626335*67\$GPGSA,A,3,03,04,17,19,22,31,09,01,06,02,,,1.62,0.89,1.36*05
\c:1597506626360*67\$GPGSA,A,3,03,04,17,19,22,31,09,01,06,02,,,1.62,0.89,1.36*05
\c:1597506626481*6F\$GPGSV,3,1,11,01,17,136,39,02,09,312,34,03,47,074,45,04,74,114,46*7D
\c:1597506626501*66\$IIVHW,,T,237,M,0.00,N,0.00,K*63
\c:1597506626501*66\$IIHDG,237,,,,*51
\c:1597506626501*66\$IIHDM,237,M*3A
