
==> Box WiFi V2.1  Start logging
 0.416 $PNKEV,Box WiFi nke 3,V2.1,Aug 23 2017,17:04:14,00.1E.C0.39.41.44,V1.0*04
 0.710 $IIVHW,,T,13,M,,N,,K*57
 0.712 $IIHDG,13,,,,*65
 0.713 $IIHDM,13,M*0E
 0.731 $PNKEP,04,0,0,0,0*68
 1.583 $IIXDR,U,12.447,V,BatWiFi*11
 2.897 $IIHDG,21,,,,*64
 2.898 $IIHDM,21,M*0F
 3.298 $IIVHW,,T,22,M,,N,,K*55
 3.299 $IIHDG,22,,,,*67
 3.301 $IIHDM,22,M*0C
 4.132 $IIHDG,23,,,,*66
 4.134 $IIHDM,23,M*0D
 6.542 $IIVHW,,T,23,M,,N,,K*54
 6.543 $IIHDG,23,,,,*66
 6.545 $IIHDM,23,M*0D
 8.086 $PNKEP,04,0,0,0,0*68
 9.041 $IIVHW,,T,23,M,,N,,K*54
 9.043 $IIHDG,23,,,,*66
 9.044 $IIHDM,23,M*0D
11.542 $IIVHW,,T,23,M,,N,,K*54
11.543 $IIHDG,23,,,,*66
11.545 $IIHDM,23,M*0D
14.042 $IIVHW,,T,23,M,,N,,K*54
14.044 $IIHDG,23,,,,*66
14.045 $IIHDM,23,M*0D
15.337 $PNKEP,04,0,0,0,0*68
16.542 $IIVHW,,T,23,M,,N,,K*54
16.544 $IIHDG,23,,,,*66
16.545 $IIHDM,23,M*0D
19.042 $IIVHW,,T,23,M,,N,,K*54
19.044 $IIHDG,23,,,,*66
19.045 $IIHDM,23,M*0D
21.541 $IIVHW,,T,23,M,,N,,K*54
21.543 $IIHDG,23,,,,*66
21.554 $IIHDM,23,M*0D
22.589 $PNKEP,04,0,0,0,0*68
23.808 $IIHDG,23,,,,*66
23.809 $IIHDM,23,M*0D
26.292 $IIVHW,,T,23,M,,N,,K*54
26.294 $IIHDG,23,,,,*66
26.295 $IIHDM,23,M*0D
28.791 $IIHDG,23,,,,*66
28.792 $IIHDM,23,M*0D
31.292 $IIVHW,,T,23,M,,N,,K*54
31.294 $IIHDG,23,,,,*66
31.295 $IIHDM,23,M*0D
31.582 $IIXDR,U,12.455,V,BatWiFi*12
33.792 $IIVHW,,T,23,M,,N,,K*54
33.793 $IIHDG,23,,,,*66
33.795 $IIHDM,23,M*0D
34.821 $IIRMB,A,,,,,,,,,999.9,76,0.00,A,A*2D
34.829 $IIVTG,0,T,,M,0.0,N,0.0,K,A*04
34.840 $IIZDA,*73
34.842 $IIGLL,3321.4800,N,07916.9200,W,,A,A*4F
34.844 $IIRMC,,A,3321.4800,N,07916.9200,W,0.0,0,,8.5,W,A*12
34.869 $IIXTE,A,A,0.00,R,N,A,*26
34.873 $IIRMB,A,0.00,R,,,,,,,999.9,76,0.00,A,A*61
35.148 $PNKEP,04,0,0,0,0*68
35.329 $IIVHW,,T,24,M,,N,,K*53
35.331 $IIHDG,24,,,,*61
35.332 $IIHDM,24,M*0A
35.856 $IIZDA,225159,18,01,2020,,*5F
36.884 $IIZDA,225200,18,01,2020,,*50
37.791 $IIHDG,24,,,,*61
37.792 $IIHDM,24,M*0A
38.076 $IIZDA,225201,18,01,2020,,*51
38.858 $IIZDA,225202,18,01,2020,,*52
39.891 $IIZDA,225203,18,01,2020,,*53
40.291 $IIHDG,24,,,,*61
40.292 $IIHDM,24,M*0A
41.066 $IIZDA,225204,18,01,2020,,*54
42.099 $IIZDA,225206,18,01,2020,,*56
42.295 $IIRMB,A,0.00,R,,,,,,,999.9,76,0.00,A,A*61
42.300 $IIVTG,0,T,,M,0.0,N,0.0,K,A*04
42.317 $IIGLL,3321.4800,N,07916.9200,W,225206,A,A*4E
42.320 $IIRMC,225206,A,3321.4800,N,07916.9200,W,0.0,0,180120,8.5,W,A*19
42.587 $PNKEP,04,0,0,0,0*68
42.791 $IIHDG,24,,,,*61
42.792 $IIHDM,24,M*0A
43.073 $IIZDA,225207,18,01,2020,,*57
44.106 $IIZDA,225208,18,01,2020,,*58
44.438 $IIVHW,,T,24,M,,N,,K*53
44.440 $IIHDG,24,,,,*61
44.441 $IIHDM,24,M*0A
44.967 $IIZDA,225209,18,01,2020,,*59
45.995 $IIZDA,225210,18,01,2020,,*51
46.792 $IIVHW,,T,24,M,,N,,K*53
46.794 $IIHDG,24,,,,*61
46.795 $IIHDM,24,M*0A
47.076 $IIZDA,225211,18,01,2020,,*50
48.106 $IIZDA,225212,18,01,2020,,*53
49.130 $IIZDA,225213,18,01,2020,,*52
49.292 $IIVHW,,T,24,M,,N,,K*53
49.294 $IIHDG,24,,,,*61
49.295 $IIHDM,24,M*0A
49.545 $IIXTE,A,A,0.00,R,N,A,*26
49.549 $IIRMB,A,0.00,R,,,,,,,999.9,76,0.00,A,A*61
49.796 $IIVTG,0,T,,M,0.0,N,0.0,K,A*04
49.817 $IIGLL,3321.4800,N,07916.9200,W,225213,A,A*4A
49.820 $IIRMC,225213,A,3321.4800,N,07916.9200,W,0.0,0,180120,8.5,W,A*1D
49.837 $PNKEP,04,0,0,0,0*68
50.130 $IIZDA,225214,18,01,2020,,*55
51.158 $IIZDA,225215,18,01,2020,,*54
51.791 $IIHDG,24,,,,*61
51.792 $IIHDM,24,M*0A
52.077 $IIZDA,225216,18,01,2020,,*57
53.110 $IIZDA,225217,18,01,2020,,*56
53.798 $IIVHW,,T,23,M,,N,,K*54
53.800 $IIHDG,23,,,,*66
53.801 $IIHDM,23,M*0D
54.079 $IIZDA,225218,18,01,2020,,*59
54.293 $IIVHW,,T,24,M,,N,,K*53
54.295 $IIHDG,24,,,,*61
54.296 $IIHDM,24,M*0A
55.067 $IIZDA,225219,18,01,2020,,*58
56.101 $IIZDA,225220,18,01,2020,,*52
56.792 $IIVHW,,T,24,M,,N,,K*53
56.793 $IIHDG,24,,,,*61
56.795 $IIHDM,24,M*0A
57.045 $IIRMB,A,0.00,R,,,,,,,999.9,76,0.00,A,A*61
57.073 $IIZDA,225221,18,01,2020,,*53
57.090 $PNKEP,04,0,0,0,0*68
57.296 $IIVTG,0,T,,M,0.0,N,0.0,K,A*04
57.317 $IIGLL,3321.4800,N,07916.9200,W,225221,A,A*4B
57.321 $IIRMC,225221,A,3321.4800,N,07916.9200,W,0.0,0,180120,8.5,W,A*1C
58.106 $IIZDA,225222,18,01,2020,,*50
59.139 $IIZDA,225223,18,01,2020,,*51
59.291 $IIHDG,24,,,,*61
59.292 $IIHDM,24,M*0A
60.073 $IIZDA,225224,18,01,2020,,*56
60.633 $PNKEV,Box WiFi nke 3,V2.1,Aug 23 2017,17:04:14,00.1E.C0.39.41.44,V1.0*04
61.167 $IIZDA,225225,18,01,2020,,*57
61.632 $IIXDR,U,12.457,V,BatWiFi*10
61.791 $IIHDG,24,,,,*61
61.792 $IIHDM,24,M*0A
62.074 $IIZDA,225226,18,01,2020,,*54
63.107 $IIZDA,225227,18,01,2020,,*55
64.131 $IIZDA,225228,18,01,2020,,*5A
64.291 $IIHDG,24,,,,*61
64.292 $IIHDM,24,M*0A
64.296 $IIXTE,A,A,0.00,R,N,A,*26
64.299 $IIRMB,A,0.00,R,,,,,,,999.9,76,0.00,A,A*61
64.586 $PNKEP,04,0,0,0,0*68
64.796 $IIVTG,0,T,,M,0.0,N,0.0,K,A*04
64.817 $IIGLL,3321.4800,N,07916.9200,W,225228,A,A*42
64.820 $IIRMC,225228,A,3321.4800,N,07916.9200,W,0.0,0,180120,8.5,W,A*15
65.117 $IIZDA,225229,18,01,2020,,*5B
66.143 $IIZDA,225230,18,01,2020,,*53
66.792 $IIVHW,,T,24,M,,N,,K*53
66.794 $IIHDG,24,,,,*61
66.795 $IIHDM,24,M*0A
67.324 $IIZDA,225231,18,01,2020,,*52
68.349 $IIZDA,225232,18,01,2020,,*51
69.291 $IIVHW,,T,24,M,,N,,K*53
69.293 $IIHDG,24,,,,*61
69.294 $IIHDM,24,M*0A
69.321 $IIZDA,225233,18,01,2020,,*50
70.349 $IIZDA,225234,18,01,2020,,*57
70.646 $IIVHW,,T,23,M,,N,,K*54
70.648 $IIHDG,23,,,,*66
70.649 $IIHDM,23,M*0D
71.178 $IIZDA,225235,18,01,2020,,*56
71.794 $IIRMB,A,0.00,R,,,,,,,999.9,76,0.00,A,A*61
71.838 $PNKEP,04,0,0,0,0*68
72.296 $IIVTG,0,T,,M,0.0,N,0.0,K,A*04
72.320 $IIGLL,3321.4800,N,07916.9200,W,225235,A,A*4E
72.336 $IIRMC,,A,3321.4800,N,07916.9200,W,0.0,0,180120,8.5,W,A*18
72.343 $IIZDA,225236,18,01,2020,,*55
73.043 $IIVHW,,T,23,M,,N,,K*54
73.044 $IIHDG,23,,,,*66
73.046 $IIHDM,23,M*0D
73.332 $IIZDA,225237,18,01,2020,,*54
74.365 $IIZDA,225238,18,01,2020,,*5B
75.389 $IIZDA,225239,18,01,2020,,*5A
75.541 $IIHDG,23,,,,*66
75.542 $IIHDM,23,M*0D
76.322 $IIZDA,225240,18,01,2020,,*54
77.356 $IIZDA,225241,18,01,2020,,*55
78.042 $IIVHW,,T,23,M,,N,,K*54
78.043 $IIHDG,23,,,,*66
78.045 $IIHDM,23,M*0D
78.326 $IIZDA,225242,18,01,2020,,*56
79.045 $IIXTE,A,A,0.00,R,N,A,*26
79.049 $IIRMB,A,0.00,R,,,,,,,999.9,76,0.00,A,A*61
79.089 $PNKEP,04,0,0,0,0*68
79.370 $IIZDA,225243,18,01,2020,,*57
79.796 $IIVTG,0,T,,M,0.0,N,0.0,K,A*04
79.817 $IIGLL,3321.4800,N,07916.9200,W,225243,A,A*4F
79.820 $IIRMC,225243,A,3321.4800,N,07916.9200,W,0.0,0,180120,8.5,W,A*18
80.359 $IIZDA,225244,18,01,2020,,*50
80.542 $IIVHW,,T,23,M,,N,,K*54
80.544 $IIHDG,23,,,,*66
80.545 $IIHDM,23,M*0D
81.327 $IIZDA,225245,18,01,2020,,*51
82.360 $IIZDA,225246,18,01,2020,,*52
83.042 $IIVHW,,T,23,M,,N,,K*54
83.044 $IIHDG,23,,,,*66
83.045 $IIHDM,23,M*0D
83.330 $IIZDA,225247,18,01,2020,,*53
84.361 $IIZDA,225248,18,01,2020,,*5C
85.385 $IIZDA,225249,18,01,2020,,*5D
85.541 $IIHDG,23,,,,*66
85.542 $IIHDM,23,M*0D
86.319 $IIZDA,225250,18,01,2020,,*55
86.545 $IIRMB,A,0.00,R,,,,,,,999.9,76,0.00,A,A*61
86.587 $PNKEP,04,0,0,0,0*68
87.070 $IIGLL,3321.4800,N,07916.9200,W,225250,A,A*4D
87.073 $IIRMC,225250,A,3321.4800,N,07916.9200,W,0.0,0,180120,8.5,W,A*1A
87.374 $IIZDA,225251,18,01,2020,,*54
88.041 $IIVHW,,T,23,M,,N,,K*54
88.043 $IIHDG,23,,,,*66
88.044 $IIHDM,23,M*0D
88.327 $IIZDA,225252,18,01,2020,,*57
89.358 $IIZDA,225253,18,01,2020,,*56
90.382 $IIZDA,225254,18,01,2020,,*51
90.542 $IIVHW,,T,23,M,,N,,K*54
90.544 $IIHDG,23,,,,*66
90.545 $IIHDM,23,M*0D
91.566 $IIZDA,225255,18,01,2020,,*50
91.641 $IIXDR,U,12.456,V,BatWiFi*11
92.421 $IIZDA,225256,18,01,2020,,*53
93.042 $IIVHW,,T,23,M,,N,,K*54
93.044 $IIHDG,23,,,,*66
93.045 $IIHDM,23,M*0D
93.579 $IIZDA,225257,18,01,2020,,*52
93.795 $IIXTE,A,A,0.00,R,N,A,*26
93.799 $IIRMB,A,0.00,R,,,,,,,999.9,76,0.00,A,A*61
93.838 $PNKEP,04,0,0,0,0*68
94.362 $IIZDA,225258,18,01,2020,,*5D
94.547 $IIVTG,0,T,,M,0.0,N,0.0,K,A*04
94.567 $IIGLL,3321.4800,N,07916.9200,W,225258,A,A*45
94.570 $IIRMC,225258,A,3321.4800,N,07916.9200,W,0.0,0,180120,8.5,W,A*12
95.542 $IIVHW,,T,23,M,,N,,K*54
95.543 $IIHDG,23,,,,*66
95.544 $IIHDM,23,M*0D
95.567 $IIZDA,225259,18,01,2020,,*5C
96.597 $IIZDA,225300,18,01,2020,,*51
97.621 $IIZDA,225301,18,01,2020,,*50
98.041 $IIVHW,,T,23,M,,N,,K*54
98.043 $IIHDG,23,,,,*66
98.044 $IIHDM,23,M*0D
98.579 $IIZDA,225302,18,01,2020,,*53
99.604 $IIZDA,225303,18,01,2020,,*52
100.541 $IIHDG,23,,,,*66
100.542 $IIHDM,23,M*0D
100.574 $IIZDA,225304,18,01,2020,,*55
101.295 $IIRMB,A,0.00,R,,,,,,,999.9,76,0.00,A,A*61
101.337 $PNKEP,04,0,0,0,0*68
101.610 $IIZDA,225305,18,01,2020,,*54
102.046 $IIVTG,0,T,,M,0.0,N,0.0,K,A*04
102.067 $IIGLL,3321.4800,N,07916.9200,W,225305,A,A*4C
102.069 $IIRMC,225305,A,3321.4800,N,07916.9200,W,0.0,0,180120,8.5,W,A*1B
102.606 $IIZDA,225306,18,01,2020,,*57
103.041 $IIHDG,23,,,,*66
103.042 $IIHDM,23,M*0D
103.565 $IIZDA,225307,18,01,2020,,*56
104.591 $IIZDA,225308,18,01,2020,,*59
105.541 $IIHDG,23,,,,*66
105.542 $IIHDM,23,M*0D
105.563 $IIZDA,225309,18,01,2020,,*58
106.593 $IIZDA,225310,18,01,2020,,*50
107.615 $IIZDA,225311,18,01,2020,,*51
108.042 $IIVHW,,T,23,M,,N,,K*54
108.044 $IIHDG,23,,,,*66
108.045 $IIHDM,23,M*0D
108.546 $IIXTE,A,A,0.00,R,N,A,*26
108.559 $IIRMB,A,0.00,R,,,,,,,999.9,76,0.00,A,A*61
108.570 $IIZDA,225312,18,01,2020,,*52
108.587 $PNKEP,04,0,0,0,0*68
109.320 $IIGLL,3321.4800,N,07916.9200,W,225312,A,A*4A
109.323 $IIRMC,225312,A,3321.4800,N,07916.9200,W,0.0,0,180120,8.5,W,A*1D
109.620 $IIZDA,225313,18,01,2020,,*53
110.542 $IIVHW,,T,23,M,,N,,K*54
110.544 $IIHDG,23,,,,*66
110.545 $IIHDM,23,M*0D
110.560 $IIZDA,225314,18,01,2020,,*54
111.590 $IIZDA,225315,18,01,2020,,*55
112.614 $IIZDA,225316,18,01,2020,,*56
113.041 $IIHDG,23,,,,*66
113.053 $IIHDM,23,M*0D
113.570 $IIZDA,225317,18,01,2020,,*57
114.598 $IIZDA,225318,18,01,2020,,*58
115.542 $IIVHW,,T,23,M,,N,,K*54
115.544 $IIHDG,23,,,,*66
115.545 $IIHDM,23,M*0D
115.568 $IIZDA,225319,18,01,2020,,*59
115.839 $PNKEP,04,0,0,0,0*68
116.044 $IIRMB,A,0.00,R,,,,,,,999.9,76,0.00,A,A*61
116.579 $IIZDA,225320,18,01,2020,,*53
116.797 $IIVTG,0,T,,M,0.0,N,0.0,K,A*04
116.817 $IIGLL,3321.4800,N,07916.9200,W,225320,A,A*4B
116.820 $IIRMC,225320,A,3321.4800,N,07916.9200,W,0.0,0,180120,8.5,W,A*1C
117.605 $IIZDA,225321,18,01,2020,,*52
118.042 $IIVHW,,T,23,M,,N,,K*54
118.044 $IIHDG,23,,,,*66
118.045 $IIHDM,23,M*0D
118.821 $IIZDA,225322,18,01,2020,,*51
119.605 $IIZDA,225323,18,01,2020,,*50
120.542 $IIVHW,,T,23,M,,N,,K*54
120.544 $IIHDG,23,,,,*66
120.545 $IIHDM,23,M*0D
120.824 $IIZDA,225324,18,01,2020,,*57
121.604 $IIZDA,225325,18,01,2020,,*56
121.671 $IIXDR,U,12.460,V,BatWiFi*14
122.702 $IIZDA,225326,18,01,2020,,*55
123.042 $IIVHW,,T,23,M,,N,,K*54
123.043 $IIHDG,23,,,,*66
123.045 $IIHDM,23,M*0D
123.295 $IIXTE,A,A,0.00,R,N,A,*26
123.299 $IIRMB,A,0.00,R,,,,,,,999.9,76,0.00,A,A*61
123.336 $PNKEP,04,0,0,0,0*68
123.866 $IIZDA,225327,18,01,2020,,*54
124.296 $IIVTG,0,T,,M,0.0,N,0.0,K,A*04
124.317 $IIGLL,3321.4800,N,07916.9200,W,225327,A,A*4C
124.320 $IIRMC,225327,A,3321.4800,N,07916.9200,W,0.0,0,180120,8.5,W,A*1B
124.855 $IIZDA,225328,18,01,2020,,*5B
125.541 $IIHDG,23,,,,*66
125.542 $IIHDM,23,M*0D
125.825 $IIZDA,225329,18,01,2020,,*5A
126.857 $IIZDA,225330,18,01,2020,,*52
127.881 $IIZDA,225331,18,01,2020,,*53
128.042 $IIVHW,,T,23,M,,N,,K*54
128.044 $IIHDG,23,,,,*66
128.045 $IIHDM,23,M*0D
128.816 $IIZDA,225332,18,01,2020,,*50
129.850 $IIZDA,225333,18,01,2020,,*51
130.543 $IIVHW,,T,23,M,,N,,K*54
130.544 $IIHDG,23,,,,*66
130.546 $IIHDM,23,M*0D
130.588 $PNKEP,04,0,0,0,0*68
130.795 $IIRMB,A,0.00,R,,,,,,,999.9,76,0.00,A,A*61
130.821 $IIZDA,225334,18,01,2020,,*56
131.570 $IIGLL,3321.4800,N,07916.9200,W,225334,A,A*4E
131.573 $IIRMC,225334,A,3321.4800,N,07916.9200,W,0.0,0,180120,8.5,W,A*19
131.870 $IIZDA,225335,18,01,2020,,*57
132.896 $IIZDA,225336,18,01,2020,,*54
133.042 $IIVHW,,T,23,M,,N,,K*54
133.044 $IIHDG,23,,,,*66
133.045 $IIHDM,23,M*0D
133.814 $IIZDA,225337,18,01,2020,,*55
134.847 $IIZDA,225338,18,01,2020,,*5A
135.542 $IIVHW,,T,23,M,,N,,K*54
135.544 $IIHDG,23,,,,*66
135.545 $IIHDM,23,M*0D
135.833 $IIZDA,225339,18,01,2020,,*5B
136.863 $IIZDA,225340,18,01,2020,,*55
137.839 $PNKEP,04,0,0,0,0*68
137.865 $IIZDA,225341,18,01,2020,,*54
138.042 $IIVHW,,T,23,M,,N,,K*54
138.054 $IIHDG,23,,,,*66
138.055 $IIHDM,23,M*0D
138.057 $IIXTE,A,A,0.00,R,N,A,*26
138.060 $IIRMB,A,0.00,R,,,,,,,999.9,76,0.00,A,A*61
138.844 $IIZDA,225342,18,01,2020,,*57
139.046 $IIVTG,0,T,,M,0.0,N,0.0,K,A*04
139.067 $IIGLL,3321.4800,N,07916.9200,W,225342,A,A*4F
139.070 $IIRMC,225342,A,3321.4800,N,07916.9200,W,0.0,0,180120,8.5,W,A*18
139.858 $IIZDA,225343,18,01,2020,,*56
140.542 $IIVHW,,T,23,M,,N,,K*54
140.544 $IIHDG,23,,,,*66
140.545 $IIHDM,23,M*0D
140.832 $IIZDA,225344,18,01,2020,,*51
141.850 $IIZDA,225345,18,01,2020,,*50
142.874 $IIZDA,225346,18,01,2020,,*53
143.043 $IIVHW,,T,23,M,,N,,K*54
143.044 $IIHDG,23,,,,*66
143.046 $IIHDM,23,M*0D
143.826 $IIZDA,225347,18,01,2020,,*52
144.859 $IIZDA,225348,18,01,2020,,*5D
145.337 $PNKEP,04,0,0,0,0*68
145.542 $IIVHW,,T,23,M,,N,,K*54
145.544 $IIHDG,23,,,,*66
145.545 $IIHDM,23,M*0D
145.547 $IIXTE,A,A,0.00,R,N,A,*26
145.550 $IIRMB,A,0.00,R,,,,,,,999.9,76,0.00,A,A*61
145.846 $IIZDA,225349,18,01,2020,,*5C
146.546 $IIVTG,0,T,,M,0.0,N,0.0,K,A*04
146.567 $IIGLL,3321.4800,N,07916.9200,W,225349,A,A*44
146.570 $IIRMC,225349,A,3321.4800,N,07916.9200,W,0.0,0,180120,8.5,W,A*13
146.868 $IIZDA,225350,18,01,2020,,*54
147.892 $IIZDA,225351,18,01,2020,,*55
148.043 $IIVHW,,T,23,M,,N,,K*54
148.044 $IIHDG,23,,,,*66
148.046 $IIHDM,23,M*0D
149.076 $IIZDA,225352,18,01,2020,,*56
149.851 $IIZDA,225353,18,01,2020,,*57
150.542 $IIVHW,,T,23,M,,N,,K*54
150.544 $IIHDG,23,,,,*66
150.545 $IIHDM,23,M*0D
151.074 $IIZDA,225354,18,01,2020,,*50
151.672 $IIXDR,U,12.459,V,BatWiFi*1E
151.946 $IIZDA,225355,18,01,2020,,*51
152.589 $PNKEP,04,0,0,0,0*68
153.042 $IIVHW,,T,23,M,,N,,K*54
153.044 $IIHDG,23,,,,*66
153.045 $IIHDM,23,M*0D
153.047 $IIXTE,A,A,0.00,R,N,A,*26
153.050 $IIRMB,A,0.00,R,,,,,,,999.9,76,0.00,A,A*61
153.089 $IIZDA,225356,18,01,2020,,*52
154.046 $IIVTG,0,T,,M,0.0,N,0.0,K,A*04
154.067 $IIGLL,3321.4800,N,07916.9200,W,225356,A,A*4A
154.071 $IIRMC,225356,A,3321.4800,N,07916.9200,W,0.0,0,180120,8.5,W,A*1D
154.082 $IIZDA,225358,18,01,2020,,*5C
154.358 $IIZDA,*73
155.136 $IIZDA,225359,18,01,2020,,*5D
155.542 $IIVHW,,T,23,M,,N,,K*54
155.544 $IIHDG,23,,,,*66
155.545 $IIHDM,23,M*0D
156.071 $IIZDA,225400,18,01,2020,,*56
157.097 $IIZDA,225401,18,01,2020,,*57
158.042 $IIVHW,,T,23,M,,N,,K*54
158.043 $IIHDG,23,,,,*66
158.045 $IIHDM,23,M*0D
158.069 $IIZDA,225402,18,01,2020,,*54
158.752 $IIVHW,,T,24,M,,N,,K*53
158.753 $IIHDG,24,,,,*61
158.755 $IIHDM,24,M*0A
159.041 $IIZDA,225403,18,01,2020,,*55
160.074 $IIZDA,225404,18,01,2020,,*52
160.087 $PNKEP,04,0,0,0,0*68
160.545 $IIRMB,A,0.00,R,,,,,,,999.9,76,0.00,A,A*61
161.042 $IIVHW,,T,24,M,,N,,K*53
161.044 $IIHDG,24,,,,*61
161.045 $IIHDM,24,M*0A
161.061 $IIZDA,225405,18,01,2020,,*53
161.547 $IIVTG,0,T,,M,0.0,N,0.0,K,A*04
161.566 $IIGLL,3321.4800,N,07916.9200,W,225405,A,A*4B
161.569 $IIRMC,225405,A,3321.4800,N,07916.9200,W,0.0,0,180120,8.5,W,A*1C
162.108 $IIZDA,225406,18,01,2020,,*50
163.136 $IIZDA,225407,18,01,2020,,*51
163.542 $IIVHW,,T,24,M,,N,,K*53
163.543 $IIHDG,24,,,,*61
163.545 $IIHDM,24,M*0A
164.078 $IIZDA,225408,18,01,