
==> Box WiFi V2.1  Start logging
!AIVDM,1,1,,B,13af8D70000Ep0tNCB;S@A:P05RP,0*51
!AIVDM,1,1,,B,B39mVE00C`5H2KWUWhh3sw`5oP06,0*3A
$IIHDG,179,,,,*58
$IIHDM,179,M*33
$IIVTG,163,T,,M,6.0,N,11.1,K,A*37
$IIZDA,124015,16,06,2019,,*57
$IIXTE,A,A,0.05,R,N,A,*23
$IIRMB,A,0.06,R,,,,,,,1.6,179,5.84,A,A*57
$IIXDR,A,-33.5,D,ROLL*60
$PNKEP,03,43,83,0*7F
!AIVDM,1,1,,B,E>jMjbiRpt0P00000000000000008wRn?NvA0I3;;;v000,4*28
!AIVDM,1,1,,B,13kpln0vR8PE4O8NNBG0qPdR0D15,0*16
!AIVDM,1,1,,B,E>jMjbiRpt0P00000000000000008wRn?NvA0I3;;;v000,4*28
$PNKEP,11,13.4,2.29,0,100*62
!AIVDO,1,1,,,B3aKV<P0?`5H<57UVIUW;w`5oP06,0*40
!AIVDM,1,1,,A,177>7w00SG0DAG0NHcQ14PrP0@9m,0*58
!AIVDM,1,1,,B,13`fKb`P00PEnA`NCOC>4?vP2H9n,0*5D
!AIVDM,1,1,,B,13aJFkPP00PF=KhNFJ600?vP2@9p,0*7F
!AIVDM,1,1,,B,33muQ250000Eo4BNCNth0pJR0Dnr,0*58
!AIVDM,1,1,,A,15BO5P0wjIPCfw6NIjG`uo6P05RP,0*2B
$IIRSA,-5.0,A,,V*51
!AIVDM,1,1,,B,13bbk800000Eq8HNC;gkTIpT00RR,0*03
$IIVHW,180.1,T,177,M,6.62,N,12.26,K*77
$IIMWV,33,R,27.8,N,A*2E
!AIVDM,1,1,,B,B3aQ6P@0:p5SL=7UQUPAow`UoP06,0*4C
$IIVWR,33,R,27.8,N,14.3,M,51.5,K*5D
$IIMWV,49,T,25.3,N,A*2C
!AIVDM,1,1,,B,13aKV9wP00PF<ojNFFw90wvR2<1H,0*7E
$IIVWT,49,R,25.3,N,13.0,M,46.9,K*51
!AIVDM,1,1,,A,13aEOEPP00PEpr0NC<nW8OvR2<1r,0*3B
$IIMWD,227.1,T,226,M,25.3,N,13.0,M*5C
!AIVDM,1,1,,B,13bA6V00060EH@@NA8MHk6lT05RP,0*0F
$IIXDR,C,18.4,C,AirTemp*2B
!AIVDM,1,1,,A,E>jMjbAWT;9h19PP0000000000006wgt>jap@D2RRSv000,4*62
$IIMTW,19.3,C*18
!AIVDM,1,1,,B,13aFeu?P11PFq9VNCNv:b?vP2<2n,0*51
!AIVDM,1,1,,B,13aC3;hP?w<tSF0l4Q@>4?wvPp:J,0*3D
$IIHDG,178,,,,*59
$IIHDM,178,M*32
!AIVDM,1,1,,A,D02E351rHg6D000000000000000,2*0F
$IIHDT,178.1,T*2D
$IIVTG,163,T,,M,5.7,N,10.5,K,A*36
$IIZDA,124017,16,06,2019,,*55
!AIVDM,1,1,,B,13aNDV00000F=SlNFKVI6hfT05RP,0*59
$IIGLL,5302.4265,N,00441.9590,E,124017,A,D*51
$IIRMC,124017,A,5302.4265,N,00441.9590,E,5.7,163,160619,1.1,E,D*1C
$IIXTE,A,A,0.05,R,N,A,*23
!AIVDM,1,1,,A,13blLD00000F=rvNFPA002VV0<1v,0*0D
$IIRMB,A,0.06,R,,,,,,,1.6,179,5.46,A,A*59
$IIXDR,A,-28.8,D,ROLL*67
!AIVDM,1,1,,A,E>jMjbAWT;9h19PP0000000000006wgt>jap@D2RRSv000,4*62
$PNKEP,01,7.44,N,3.83,K*67
!AIVDO,1,1,,,B3aKV<P0?85H<9WUVGQbOwa5oP06,0*3E
$PNKEP,02,284*7C
$PNKEP,03,42,85,0*78
$PNKEP,04,86,157,353,14*65
$PNKEP,05,51,2.4,N,1.2,K*41
!AIVDM,1,1,,B,13rmQj00000ErJVNCA`h0?vT05RP,0*76
$PNKEP,11,13.4,2.34,0,100*6E
$PNKEP,12,13.1,,,*72
!AIVDM,1,1,,B,E>jMk3QSIFPh40W=2h:6V9P00000:Q0F?evQ881113v000,4*03
!AIVDM,1,1,,A,13b08b00000F=btNFLut=nB`0<2`,0*1B
!AIVDM,1,1,,A,33bThJ0P@q0EqStNCOB2bR0`0000,0*12
!AIVDM,1,1,,B,13JfJL0026PDUf:NKNDi7hrV0URP,0*6E
!AIVDM,1,1,,A,13miWD002UPDUnBNPQ17mn<b05RP,0*2A
!AIVDM,1,1,,A,D02E35AsDg6D000000000000000,2*72
!AIVDM,1,1,,B,33aDrE@P00PF<kLNFFJD5?vV22tS,0*67
!AIVDM,1,1,,A,13aB9f?P?w<tSF0l4Q@>4?wv0l1=,0*3F
!AIVDM,1,1,,A,13cN@600000Eq06NCQDMJqTd0<2V,0*4B
!AIVDM,1,1,,B,E>jMk3QSIFPh40W=2h:6V9P00000:Q0F?evQ881113v000,4*03
$IIRSA,-6.0,A,,V*52
!AIVDM,1,1,,A,13`eH@G000PF>44NFPJL<8<V0PSu,0*00
$IIDPT,3.7,,*46
$IIDBT,12.2,f,3.7,M,,*4C
$IIVLW,4231.24,N,73.24,N*4D
!AIVDM,1,1,,A,13`fJDh01SPEsG0NDG5Vp04V0D<P,0*13
$IIVHW,177.1,T,178,M,6.63,N,12.28,K*7F
$IIMWV,34,R,27.8,N,A*29
!AIVDM,1,1,,A,E>jMk3i`HpnQ@22h9:db2a@:6V9P7c3P>vs7@81113v000,4*22
$IIVWR,34,R,27.8,N,14.3,M,51.5,K*5A
$IIMWV,49,T,25.2,N,A*2D
$IIVWT,49,R,25.2,N,13.0,M,46.7,K*5E
!AIVDM,1,1,,A,E>jMk3i`HpnQ@22h9:db2a@:6V9P7c3P>vs7@81113v000,4*22
$IIMWD,228.1,T,227,M,25.0,N,12.9,M*59
!AIVDO,1,1,,,B3aKV<P0?85H<=WUVEQb?wb5oP06,0*4B
$IIXDR,C,18.4,C,AirTemp*2B
$IIMTW,19.3,C*18
$IIHDG,182,,,,*5C
$IIHDM,182,M*37
!AIVDM,2,1,5,B,53bThJ02@6wA09`f221Hu>118DiD@F222222221620q3=5Wk`:Q1C`21C11D,0*47
$IIHDT,179.1,T*2C
!AIVDM,2,2,5,B,`8888888880,2*7A
$IIVTG,170,T,,M,6.4,N,11.9,K,A*39
!AIVDM,1,1,,A,402E351v=`<`DPEWC@NC:iG00<3T,0*52
$IIZDA,124020,16,06,2019,,*51
!AIVDM,1,1,,B,33bThJ0P@q0EqTdNCOCjaAvd012h,0*56
$IIGLL,5302.4207,N,00441.9603,E,124020,A,D*58
!AIVDO,1,1,,B,B3aKV<P0>p5H<?WUVDQc;wbUoP06,0*26
$IIRMC,124020,A,5302.4207,N,00441.9603,E,6.4,170,160619,1.1,E,D*17
!AIVDM,1,1,,A,13bWT600000Er:`NC6WJk92d0<2J,0*78
$IIXTE,A,A,0.05,R,N,A,*23
!AIVDM,1,1,,B,13HWdu?P03PEpQJNC>Q9Gwvb25RP,0*41
$IIRMB,A,0.06,R,,,,,,,1.6,180,5.46,A,A*5F
!AIVDM,1,1,,A,402E35Av=`<`EPE@mhN:Rd7005RP,0*32
$IIXDR,A,-26.9,D,ROLL*68
!AIVDM,1,1,,A,13bKfB001UPDwo2NA0sTokv`08<j,0*27
$PNKEP,01,7.43,N,3.82,K*61
!AIVDM,1,1,,B,E>jN6<?20W3Ra7bah0a2PP0000009HUO>sAdP00003v010,4*06
$PNKEP,02,288*70
$PNKEP,03,42,85,0*78
!AIVDM,1,1,,B,E>jN6<?20W3Ra7bah0a2PP0000009HUO>sAdP00003v010,4*06
$PNKEP,04,86,158,353,14*6A
$PNKEP,05,52,2.5,N,1.3,K*42
!AIVDM,1,1,,A,337SrF5001PEoC>NCI59fTvb02ti,0*04
!AIVDM,1,1,,B,13`q5j0P000EnaLNC1nbMwvd08=@,0*52
$PNKEP,11,13.4,2.39,0,100*63
$PNKEP,12,13.1,,,*72
!AIVDO,1,1,,,B3aKV<P0?85H<B7UVCQdGwc5oP06,0*2D
!AIVDM,1,1,,B,13m3FH001VPDNl<NI95i;i2d0D16,0*0F
!AIVDM,1,1,,B,15BO5P002IPCfm8NIifHuW6d08=J,0*5D
!AIVDM,1,1,,B,13`niF00000EqmjNC86acl@d2@=N,0*4D
!AIVDM,1,1,,B,13bAqH?000PF>DnNFPPElR`f08=O,0*3F
!AIVDM,1,1,,A,13aAPB0000PEpErNC?o001Lf28=R,0*67
!AIVDM,1,1,,B,13nMgR0Oh5PErOpNCLh:9S6h08=`,0*39
!AIVDM,1,1,,A,13aRt578<8<Eo94NCB<boD4`000,2*1A
!AIVDM,1,1,,B,177>7w00CG0DAQ0NHduQ4@rf0@=m,0*3C
$IIRSA,1.3,A,,V*7B
!AIVDM,1,1,,A,13aQdgh01bPEq`4NDBMP@PFb05RP,0*4A
$IIDPT,3.6,,*47
!AIVDM,1,1,,A,E>jMjb1WT;9h19Q00000000000006jDo>k9<0D2RRSv000,4*33
$IIDBT,11.8,f,3.6,M,,*44
!AIVDM,1,1,,A,E>jMjb1WT;9h19Q00000000000006jDo>k9<0D2RRSv000,4*33
$IIVLW,4231.24,N,73.24,N*4D
!AIVDM,1,1,,A,15S1D400000Eos:NCBJIcbFh28>9,0*0D
$IIVHW,179.1,T,173,M,6.78,N,12.56,K*79
!AIVDM,1,1,,A,13b80T0000PF<wJNFGQ8PATj28><,0*0C
$IIMWV,33,R,27.9,N,A*2F
$IIVWR,33,R,27.9,N,14.4,M,51.7,K*59
$IIMWV,48,T,24.8,N,A*27
$IIVWT,48,R,24.8,N,12.8,M,45.9,K*50
$IIMWD,222.1,T,226,M,24.8,N,12.8,M*5A
!AIVDO,1,1,,,B3aKV<P0?85H<G7UVAQakwd5oP06,0*04
$IIXDR,C,18.4,C,AirTemp*2B
$IIMTW,19.3,C*18
!AIVDM,1,1,,B,E>jMjbQRHq1000000000000000006LV@?T<mPI3;;;v000,4*4F
!AIVDM,1,1,,A,B3`geih0085MM47ToJ;Q3wd1nDgJ,0*37
$IIHDG,175,,,,*54
!AIVDM,1,1,,B,13bk6H70000EpeJNC=QQJ4:j08>h,0*3D
$IIHDM,175,M*3F
!AIVDM,1,1,,B,E>jMjbQRHq1000000000000000006LV@?T<mPI3;;;v000,4*4F
$IIHDT,174.1,T*21
$IIVTG,170,T,,M,6.3,N,11.7,K,A*30
$IIZDA,124024,16,06,2019,,*55
!AIVDM,1,1,,A,33bThJ0P@q0Eqa4NCOMjTQrl00qQ,0*6C
$IIGLL,5302.4139,N,00441.9620,E,124024,A,D*53
!AIVDM,1,1,,B,13`ia>00000F>@6NFPElw`Dl00R6,0*65
$IIRMC,124024,A,5302.4139,N,00441.9620,E,6.3,170,160619,1.1,E,D*1B
!AIVDM,1,1,,A,139osvPP000Epk@NC=H00?vl08??,0*0C
$IIXTE,A,A,0.05,R,N,A,*23
!AIVDM,1,1,,B,13miWD002UPDUhBNPOn7n6<n08?B,0*4B
$IIRMB,A,0.06,R,,,,,,,1.6,180,6.31,A,A*5C
!AIVDM,1,1,,A,13kpln0uB6PE4UHNNCR0t0dl05RP,0*5A
$IIXDR,A,-27.1,D,ROLL*61
!AIVDM,1,1,,A,13bbk800000Eq8HNC;hSTIpn0L28,0*7B
$PNKEP,01,7.36,N,3.79,K*67
$PNKEP,02,277*70
$PNKEP,03,42,88,0*75
$PNKEP,04,87,158,354,11*69
$PNKEP,05,52,2.3,N,1.2,K*45
$PNKEP,11,13.4,2.53,0,100*6F
$PNKEP,12,13.1,,,*72
!AIVDM,1,1,,A,13af8D70000Ep0DNCB;S@A:n0@?N,0*5A
$IIRSA,-5.3,A,,V*52
$IIDPT,3.6,,*47
$IIDBT,11.8,f,3.6,M,,*44
$IIVLW,4231.25,N,73.25,N*4D
$IIVHW,182.1,T,182,M,6.73,N,12.46,K*79
$IIMWV,34,R,28.2,N,A*2C
$IIVWR,34,R,28.2,N,14.5,M,52.2,K*5D
$IIMWV,48,T,24.9,N,A*26
$IIVWT,48,R,24.9,N,12.8,M,46.1,K*5A
$IIMWD,230.1,T,229,M,24.9,N,12.8,M*57
$IIHDG,182,,,,*5C
$IIHDM,182,M*37
$IIVTG,169,T,,M,6.1,N,11.3,K,A*3E
$IIZDA,124025,16,06,2019,,*54
$IIXDR,A,-27.3,D,ROLL*63
$IIRSA,2.0,A,,V*7B
$PNKEP,05,52,2.3,N,1.2,K*45
$IIGLL,5302.4127,N,00441.9620,E,124025,A,D*5D
$IIRMC,124025,A,5302.4127,N,00441.9620,E,6.1,169,160619,1.1,E,D*1F
$IIGLL,5302.4127,N,00441.9623,E,124025,A,D*5E
$IIRMC,124025,A,5302.4127,N,00441.9623,E,6.1,169,160619,1.1,E,D*1C
!AIVDM,1,1,,A,13`fKb`P00PEnARNCOBv4?vl2H?S,0*22
$PNKEP,11,13.4,2.54,0,100*68
$IIXDR,C,18.4,C,AirTemp*2B
$IIXDR,A,-27.6,D,ROLL*66
$IIRSA,4.0,A,,V*7D
!AIVDM,1,1,,A,E>jMjbiRpt0P00000000000000008wRn?NvA0I3;;;v000,4*2B
$IIVHW,183.1,T,182,M,6.73,N,12.46,K*78
$IIMWD,232.1,T,229,M,24.9,N,12.8,M*55
!AIVDM,1,1,,B,33aB:4U0000EpFFNCPIJTA6j0Dl:,0*5D
$IIXDR,A,-27.7,D,ROLL*67
$IIRSA,4.7,A,,V*7A
$IIMWV,48,T,25.2,N,A*2C
$IIVWT,48,R,25.2,N,13.0,M,46.7,K*5F
$IIMWD,232.1,T,229,M,25.2,N,13.0,M*56
!AIVDO,1,1,,,B3aKV<P0=`5H<M7UV?UbGwe5oP06,0*00
$IIMTW,19.3,C*18
$IIMWV,49,T,25.2,N,A*2D
$IIVWT,49,R,25.2,N,13.0,M,46.7,K*5E
$IIMWD,232.1,T,231,M,25.2,N,13.0,M*5F
$PNKEP,01,7.43,N,3.82,K*61
$PNKEP,02,279*7E
$PNKEP,03,42,86,0*7B
$PNKEP,04,82,159,353,13*68
$PNKEP,05,52,2.3,N,1.2,K*45
$IIZDA,124026,16,06,2019,,*57
$PNKEP,05,52,2.3,N,1.2,K*45
$IIXDR,A,-27.9,D,ROLL*69
$IIRSA,5.3,A,,V*7F
$IIVHW,183.1,T,182,M,6.70,N,12.40,K*7D
!AIVDM,1,1,,A,13aKV9wP00PF<onNFFvP0?vn20Ru,0*37
$IIMWV,34,R,28.1,N,A*2F
$IIVWR,34,R,28.1,N,14.5,M,52.0,K*5C
$IIVHW,183.1,T,175,M,6.70,N,12.40,K*75
$IIHDG,175,,,,*54
$IIHDM,175,M*3F
$IIVTG,169,T,,M,6.1,N,11.3,K,A*3E
$IIVTG,170,T,,M,6.1,N,11.3,K,A*36
$IIXDR,A,-28.4,D,ROLL*6B
$IIRSA,5.0,A,,V*7C
!AIVDM,1,1,,A,B3`m9th07h5S;@7UPFhNwweUoP06,0*56
!AIVDM,1,1,,A,33aB:4U0000EpFDNCPIbTA6l0DTr,0*02
$IIGLL,5302.4111,N,00441.9623,E,124026,A,D*58
$IIRMC,124026,A,5302.4111,N,00441.9623,E,6.1,170,160619,1.1,E,D*12
$IIGLL,5302.4111,N,00441.9625,E,124026,A,D*5E
$IIRMC,124026,A,5302.4111,N,00441.9625,E,6.1,170,160619,1.1,E,D*14
$IIXDR,A,-28.9,D,ROLL*66
$IIRSA,1.0,A,,V*78
$PNKEP,11,13.4,2.50,0,100*6C
$IIXDR,A,-29.3,D,ROLL*6D
$IIRSA,-5.7,A,,V*56
$IIRMB,A,0.06,R,,,,,,,1.5,180,6.02,A,A*5F
$IIMWD,232.1,T,224,M,25.2,N,13.0,M*5B
$IIXDR,A,-29.5,D,ROLL*6B
$IIRSA,-8.7,A,,V*5B
$IIHDT,176.1,T*23
$IIMWD,225.1,T,224,M,25.2,N,13.0,M*5D
!AIVDM,1,1,,A,13aNDV00000F=SjNFKW96hfn08@@,0*18
!AIVDM,1,1,,B,E>jMjbAWT;9h19PP0000000000006wgt>jap@D2RRSv000,4*61
$IIVHW,176.1,T,175,M,6.70,N,12.41,K*7E
$IIMWV,34,R,28.2,N,A*2C
$IIVWR,34,R,28.2,N,14.5,M,52.2,K*5D
$IIZDA,124027,16,06,2019,,*56
$IIHDG,178,,,,*59
$IIHDM,178,M*32
$IIXDR,A,-29.7,D,ROLL*69
$IIRSA,-9.7,A,,V*5A
$IIVTG,170,T,,M,6.0,N,11.1,K,A*35
!AIVDM,1,1,,B,E>jMjbAWT;9h19PP0000000000006wgt>jap@D2RRSv000,4*61
$PNKEP,02,280*78
$PNKEP,04,86,158,353,13*6D
$PNKEP,05,53,2.2,N,1.1,K*46
$IIVTG,172,T,,M,6.0,N,11.1,K,A*37
!AIVDM,1,1,,B,13bpan001mPCp9nNE;eiBQ0n20Sb,0*10
$PNKEP,05,53,2.2,N,1.1,K*46
$IIGLL,5302.4099,N,00441.9625,E,124027,A,D*5E
$IIRMC,124027,A,5302.4099,N,00441.9625,E,6.0,172,160619,1.1,E,D*17
$IIRSA,-4.7,A,,V*57
$IIGLL,5302.4099,N,00441.9629,E,124027,A,D*52
!AIVDM,1,1,,A,B3`onI000@5N:N7TpkBq?wf7CP06,0*47
$IIRMC,124027,A,5302.4099,N,00441.9629,E,6.0,172,160619,1.1,E,D*1B
$PNKEP,11,13.4,2.49,0,100*64
$PNKEP,12,13.1,,,*72
$IIXDR,A,-29.6,D,ROLL*68
$IIRSA,0.3,A,,V*7A
!AIVDM,1,1,,A,15BO5P0wjIPCfdjNIi;pv76n05RP,0*6E
$IIDPT,3.6,,*47
$IIDBT,11.8,f,3.6,M,,*44
$IIVLW,4231.25,N,73.25,N*4D
!AIVDM,1,1,,B,33bThJ0P@q0EqbNNCOQRR1pr0000,0*68
$IIXDR,A,-29.3,D,ROLL*6D
$IIRSA,2.3,A,,V*78
$IIMWV,34,R,28.0,N,A*2E
$IIVWR,34,R,28.0,N,14.4,M,51.9,K*56
$IIXDR,C,18.4,C,AirTemp*2B
$IIXDR,A,-29.1,D,ROLL*6F
$IIVHW,179.1,T,178,M,6.70,N,12.41,K*7C
$IIHDG,178,,,,*59
$IIHDM,178,M*32
$IIMWD,228.1,T,224,M,25.2,N,13.0,M*50
$IIHDG,173,,,,*52
$IIHDM,173,M*39
$IIVTG,172,T,,M,5.7,N,10.6,K,A*35
$PNKEP,01,7.43,N,3.82,K*61
$PNKEP,03,42,86,0*7B
$IIVTG,169,T,,M,5.7,N,10.6,K,A*3F
!AIVDM,1,1,,B,13blLD00000F=s>NFPB002Vr00RJ,0*33
$IIXDR,A,-29.2,D,ROLL*6C
$IIGLL,5302.4087,N,00441.9629,E,124027,A,D*5D
$IIRMC,124027,A,5302.4087,N,00441.9629,E,5.7,169,160619,1.1,E,D*1A
$IIMWV,49,T,25.2,N,A*2D
$IIVWT,49,R,25.2,N,13.0,M,46.7,K*5E
$IIMTW,19.3,C*18
$IIGLL,5302.4087,N,00441.9633,E,124027,A,D*56
$IIRMC,124027,A,5302.4087,N,00441.9633,E,5.7,169,160619,1.1,E,D*11
!AIVDO,1,1,,,B3aKV<P0>`5H<OWUV=aeKwf5oP06,0*5F
$PNKEP,11,13.4,2.46,0,100*6B
$PNKEP,05,53,2.2,N,1.1,K*46
$IIZDA,124028,16,06,2019,,*59
!AIVDM,1,1,,B,13aEOEPP00PEpqrNC<lFrOvp2D1r,0*7A
$PNKEP,05,53,2.2,N,1.1,K*46
$IIXDR,A,-29.7,D,ROLL*69
$IIRSA,2.0,A,,V*7B
!AIVDM,1,1,,B,13aB9f?P?w<tSF0l4Q@>4?wv0l1=,0*3C
$IIDPT,4.1,,*47
$IIDBT,13.5,f,4.1,M,,*4B
$IIXDR,A,-30.4,D,ROLL*62
$IIRSA,0.0,A,,V*79
$IIMWV,49,T,25.4,N,A*2B
$IIVWT,49,R,25.4,N,13.1,M,47.0,K*5F
$IIMWD,228.1,T,224,M,25.4,N,13.1,M*57
$IIMWD,228.1,T,227,M,25.4,N,13.1,M*54
!AIVDM,1,1,,A,E>jMk3QSIFPh40W=2h:6V9P00000:Q0F?evQ881113v000,4*00
!AIVDM,1,1,,A,13aDrE@P00PF<kHNFFJ@0?vr25RP,0*65
$IIXDR,A,-31.0,D,ROLL*67
$IIRSA,-0.7,A,,V*53
!AIVDM,1,1,,A,E>jMk3QSIFPh40W=2h:6V9P00000:Q0F?evQ881113v000,4*00
$IIVHW,179.1,T,173,M,6.71,N,12.43,K*74
$IIMWV,34,R,28.1,N,A*2F
$IIVWR,34,R,28.1,N,14.5,M,52.0,K*5C
$IIHDG,179,,,,*58
$IIHDM,179,M*33
$IIRMB,A,0.06,R,,,,,,,1.5,180,5.94,A,A*53
!AIVDM,1,1,,B,13b08b00000F=bnNFLwL=nDt0<2`,0*2A
!AIVDM,1,1,,A,177>7w0w3G0DAaTNHf=14Ppr05RP,0*57
$IIVTG,169,T,,M,5.6,N,10.4,K,A*3C
$IIXDR,A,-31.5,D,ROLL*62
$IIGLL,5302.4075,N,00441.9633,E,124028,A,D*54
$IIRMC,124028,A,5302.4075,N,00441.9633,E,5.6,169,160619,1.1,E,D*12
$IIGLL,5302.4075,N,00441.9636,E,124028,A,D*51
$IIRMC,124028,A,5302.4075,N,00441.9636,E,5.6,169,160619,1.1,E,D*17
!AIVDM,1,1,,B,13`eH@G000PF>44NFPJd<8<r0`AH,0*10
$PNKEP,11,13.4,2.45,0,100*68
$PNKEP,04,86,158,353,13*6D
$IIXDR,A,-31.9,D,ROLL*6E
$IIRSA,-4.0,A,,V*50
$IIVHW,180.1,T,179,M,6.71,N,12.43,K*78
$IIMWD,229.1,T,227,M,25.4,N,13.1,M*55
$IIZDA,124029,16,06,2019,,*58
$IIXDR,A,-31.8,D,ROLL*6F
$IIRSA,-6.0,A,,V*52
$PNKEP,01,7.44,N,3.83,K*67
$PNKEP,02,279*7E
$IIVLW,4231.26,N,73.26,N*4D
$PNKEP,04,85,158,353,13*6E
$PNKEP,05,53,2.2,N,1.1,K*46
$IIDPT,3.8,,*49
$IIDBT,12.5,f,3.8,M,,*44
$PNKEP,05,53,2.2,N,1.1,K*46
$IIMWV,49,T,25.3,N,A*2C
$IIVWT,49,R,25.3,N,13.0,M,46.9,K*51
$IIMWD,229.1,T,228,M,25.3,N,13.0,M*5C
!AIVDM,1,1,,B,13cN@600000EpwfNCQA=mqS005RP,0*30
$IIXDR,A,-31.5,D,ROLL*62
$IIRSA,-3.0,A,,V*57
$IIVHW,180.1,T,179,M,6.73,N,12.46,K*7F
$IIMWV,34,R,28.2,N,A*2C
$IIVWR,34,R,28.2,N,14.5,M,52.2,K*5D
$IIVHW,180.1,T,178,M,6.73,N,12.46,K*7E
$IIMWV,33,R,28.2,N,A*2B
$IIVWR,33,R,28.2,N,14.5,M,52.2,K*5A
!AIVDM,1,1,,A,13JfJL0025PDUoJNKOVi8@rr0l0`,0*6C
$IIHDG,178,,,,*59
$IIHDM,178,M*32
$PNKEP,12,13.1,,,*72
$IIVTG,169,T,,M,5.8,N,10.7,K,A*31
$IIVTG,166,T,,M,5.8,N,10.7,K,A*3E
$IIXDR,A,-31.2,D,ROLL*65
$IIRSA,0.0,A,,V*79
$IIGLL,5302.4063,N,00441.9636,E,124029,A,D*57
$IIRMC,124029,A,5302.4063,N,00441.9636,E,5.8,166,160619,1.1,E,D*10
$IIGLL,5302.4063,N,00441.9644,E,124029,A,D*52
$IIRMC,124029,A,5302.4063,N,00441.9644,E,5.8,166,160619,1.1,E,D*15
!AIVDM,1,1,,A,13rmQj00000ErJ`NCAa00?vr0<2=,0*38
$IIXDR,A,-30.8,D,ROLL*6E
$IIRSA,0.3,A,,V*7A
!AIVDM,1,1,,B,E>jMk3i`HpnQ@22h9:db2a@:6V9P7c3P>vs7@81113v000,4*21
$PNKEP,11,13.4,2.39,0,100*63
!AIVDM,1,1,,B,13`fJDh01RPEsG0NDErVu08v00SP,0*66
!AIVDM,1,1,,B,13bWT600000Er:JNC6W:k92v05RP,0*40
!AIVDM,1,1,,B,E>jMk3i`HpnQ@22h9:db2a@:6V9P7c3P>vs7@81113v000,4*21
$IIXDR,C,18.4,C,AirTemp*2B
$IIXDR,A,-30.4,D,ROLL*62
$IIRSA,-1.3,A,,V*56
$IIVHW,179.1,T,178,M,6.73,N,12.46,K*78
$IIMWD,227.1,T,228,M,25.3,N,13.0,M*52
$PNKEP,03,42,86,0*7B
!AIVDM,1,1,,A,33adNn50000EpUdNCJUP02>r0Dkr,0*53
$IIZDA,124030,16,06,2019,,*50
$IIMWV,48,T,25.3,N,A*2D
$IIVWT,48,R,25.3,N,13.0,M,46.9,K*50
$IIMWD,227.1,T,226,M,25.3,N,13.0,M*5C
$IIXDR,A,-30.2,D,ROLL*64
$IIRSA,-9.0,A,,V*5D
$IIMTW,19.3,C*18
$IIVHW,179.1,T,178,M,6.70,N,12.40,K*7D
$PNKEP,01,7.37,N,3.79,K*66
$PNKEP,02,277*70
$PNKEP,03,42,88,0*75
$PNKEP,04,87,158,354,11*69
$PNKEP,05,53,2.2,N,1.1,K*46
!AIVDO,1,1,,,B3aKV<P0?85H<V7UV;eVswg5oP06,0*77
$IIVHW,179.1,T,181,M,6.70,N,12.40,K*7B
$IIHDG,181,,,,*5F
$IIHDM,181,M*34
$PNKEP,05,53,2.2,N,1.1,K*46
$IIXDR,A,-30.1,D,ROLL*67
$IIRSA,-9.7,A,,V*5A
$IIVTG,166,T,,M,5.7,N,10.5,K,A*33
$IIVTG,167,T,,M,5.7,N,10.5,K,A*32
$IIDPT,4.0,,*46
$IIDBT,13.1,f,4.0,M,,*4E
$IIXTE,A,A,0.05,R,N,A,*23
$IIRMB,A,0.06,R,,,,,,,1.5,180,5.64,A,A*5C
$IIRSA,-9.3,A,,V*5E
$IIGLL,5302.4051,N,00441.9644,E,124030,A,D*5B
$IIRMC,124030,A,5302.4051,N,00441.9644,E,5.7,167,160619,1.1,E,D*12
!AIVDM,1,1,,B,402E351v=`<`NPEWC@NC:iG00<3V,0*59
$IIGLL,5302.4051,N,00441.9647,E,124030,A,D*58
$IIRMC,124030,A,5302.4051,N,00441.9647,E,5.7,167,160619,1.1,E,D*11
!AIVDM,1,1,,B,13bKVN?P00PEltRNCOMP0?vv2HBD,0*0A
!AIVDM,1,1,,A,13aEOE<P0I0Epw:NC<kSROvJ2HBF,0*01
$IIXDR,A,-30.0,D,ROLL*66
$IIRSA,-5.7,A,,V*56
!AIVDM,1,1,,A,13awq200000Ek7<NDvnP094p0HBH,0*19
$IIXDR,A,-29.7,D,ROLL*69
$IIRSA,-1.0,A,,V*55
!AIVDM,1,1,,B,402E35Av=`<`OPE@mhN:Rd7005RP,0*3B
$IIZDA,124031,16,06,2019,,*51
!AIVDM,1,1,,A,13a0NL0P1W0FIA6NDcjrRwvt0hBS,0*26
$IIVHW,179.1,T,181,M,6.72,N,12.45,K*7C
$IIMWV,33,R,28.3,N,A*2A
$IIVWR,33,R,28.3,N,14.6,M,52.4,K*5E
!AIVDM,1,1,,B,337SrF5000PEoCVNCI76=Tvt02wQ,0*15
$IIXDR,A,-29.4,D,ROLL*6A
$IIRSA,1.3,A,,V*7B
$IIVHW,182.1,T,179,M,6.72,N,12.45,K*7F
$IIMWD,230.1,T,226,M,25.3,N,13.0,M*5A
$IIHDG,179,,,,*58
$IIHDM,179,M*33
$IIVTG,167,T,,M,5.7,N,10.5,K,A*32
$IIVTG,169,T,,M,5.7,N,10.5,K,A*3C
$IIVLW,4231.26,N,73.26,N*4D
$IIXDR,A,-28.9,D,ROLL*66
$IIRSA,2.3,A,,V*78
$PNKEP,04,85,159,354,11*6A
$PNKEP,05,53,2.2,N,1.1,K*46
$IIGLL,5302.4038,N,00441.9647,E,124031,A,D*56
$IIRMC,124031,A,5302.4038,N,00441.9647,E,5.7,169,160619,1.1,E,D*11
!AIVDM,1,1,,A,33bThJ0P@p0EqeFNCOaBOio000th,0*41
$IIDPT,3.8,,*49
$IIDBT,12.5,f,3.8,M,,*44
$IIGLL,5302.4038,N,00441.9649,E,124031,A,D*58
$IIRMC,124031,A,5302.4038,N,00441.9649,E,5.7,169,160619,1.1,E,D*1F
$PNKEP,11,13.4,2.43,0,100*6E
$PNKEP,05,53,2.2,N,1.1,K*46
$IIXDR,A,-28.4,D,ROLL*6B
!AIVDM,1,1,,B,13bKfB001UPE02FNA0=Tq3vv08Bl,0*2D
!AIVDM,1,1,,A,13`q5j0P000EnaLNC1nbg?w00@Bm,0*4C
$PNKEP,12,13.1,,,*72
!AIVDM,1,1,,A,13miWD002UPDUcBNPNmGmV=208Bn,0*5E
!AIVDM,1,1,,A,13HWdu?P00PEpQBNC>PIWOvv2<2O,0*72
$IIXDR,A,-28.0,D,ROLL*6F
$IIMWV,48,T,25.4,N,A*2A
$IIVWT,48,R,25.4,N,13.1,M,47.0,K*5E
$IIMWD,230.1,T,229,M,25.4,N,13.1,M*53
!AIVDM,1,1,,A,E>jN6<?20W3Ra7bah0a2PP0000009HUO>sAdP00003v010,4*05
!AIVDM,1,1,,B,13aAPB0000PEpErNC?nP01M02@Bw,0*70
$IIXDR,A,-27.8,D,ROLL*68
$IIMWV,33,R,28.2,N,A*2B
$IIVWR,33,R,28.2,N,14.5,M,52.2,K*5A
$IIMWV,34,R,28.2,N,A*2C
$IIVWR,34,R,28.2,N,14.5,M,52.2,K*5D
$IIVHW,182.1,T,177,M,6.72,N,12.45,K*71
$IIHDG,177,,,,*56
$IIHDM,177,M*3D
$IIVTG,169,T,,M,5.6,N,10.3,K,A*3B
$IIZDA,124032,16,06,2019,,*52
$IIXDR,A,-28.0,D,ROLL*6F
$IIRSA,-1.3,A,,V*56
$IIVHW,178.1,T,177,M,6.72,N,12.45,K*74
$IIMWD,227.1,T,229,M,25.4,N,13.1,M*55
$IIXDR,C,18.4,C,AirTemp*2B
$PNKEP,01,7.37,N,3.79,K*66
$PNKEP,02,277*70
$PNKEP,03,42,88,0*75
$IIGLL,5302.4022,N,00441.9649,E,124032,A,D*50
$IIRMC,124032,A,5302.4022,N,00441.9649,E,5.6,169,160619,1.1,E,D*16
!AIVDM,1,1,,A,13m3FH001WPDNsdNI:31=1300HC:,0*6E
$IIGLL,5302.4022,N,00441.9651,E,124032,A,D*59
$IIRMC,124032,A,5302.4022,N,00441.9651,E,5.6,169,160619,1.1,E,D*1F
$PNKEP,11,13.4,2.41,0,100*6C
$IIXDR,A,-28.4,D,ROLL*6B
$IIRSA,-9.0,A,,V*5D
!AIVDM,1,1,,A,13`niF00000EqmbNC86qclA02<2T,0*6A
!AIVDM,1,1,,B,181:K`001n0D=nRNKoVGg66v0<0k,0*1B
$IIDPT,4.1,,*47
$IIDBT,13.5,f,4.1,M,,*4B
$IIMTW,19.3,C*18
$PNKEP,02,278*7F
$PNKEP,04,87,158,354,11*69
$PNKEP,05,53,2.2,N,1.1,K*46
!AIVDO,1,1,,,B3aKV<P0>H5H<b7UV9ec?wh5oP06,0*46
!AIVDM,1,1,,B,33a7o65P000EkSlNDvm@0?w00Dlb,0*0D
$PNKEP,05,53,2.2,N,1.1,K*46
$IIXDR,A,-28.8,D,ROLL*67
!AIVDM,1,1,,A,13adG20000PEpC0NCPRqbi?000RV,0*3C
$IIMWV,48,T,25.5,N,A*2B
$IIVWT,48,R,25.5,N,13.1,M,47.2,K*5D
$IIMWD,227.1,T,229,M,25.5,N,13.1,M*54
$IIMWV,49,T,25.5,N,A*2A
$IIVWT,49,R,25.5,N,13.1,M,47.2,K*5C
$IIMWD,227.1,T,226,M,25.5,N,13.1,M*5B
$IIRMB,A,0.06,R,,,,,,,1.5,180,5.60,A,A*58
$IIXDR,A,-28.9,D,ROLL*66
$IIRSA,-5.0,A,,V*51
!AIVDM,1,1,,A,E>jN6<?20W3Ra7bah0a2PP0000009HUO>sAdP00003v010,4*05
$IIVHW,178.1,T,181,M,6.72,N,12.45,K*7D
$IIHDG,181,,,,*5F
$IIHDM,181,M*34
$IIVTG,169,T,,M,5.5,N,10.2,K,A*39
$IIVTG,167,T,,M,5.5,N,10.2,K,A*37
$IIXDR,A,-28.7,D,ROLL*68
$IIRSA,-0.7,A,,V*53
!AIVDM,1,1,,B,13bKfb881UPE<2FNA<=Tq3vp000,2*1F
$IIGLL,5302.4008,N,00441.9651,E,124032,A,D*51
$IIRMC,124032,A,5302.4008,N,00441.9651,E,5.5,167,160619,1.1,E,D*1A
$IIGLL,5302.4008,N,00441.9655,E,124032,A,D*55
$IIRMC,124032,A,5302.4008,N,00441.9655,E,5.5,167,160619,1.1,E,D*1E
$IIXDR,A,-28.4,D,ROLL*6B
$IIRSA,0.0,A,,V*79
$PNKEP,11,13.4,2.43,0,100*6E
!AIVDM,1,1,,B,E>jMjb1WT;9h19Q00000000000006jDo>k9<0D2RRSv000,4*30
$IIVLW,4231.26,N,73.26,N*4D
!AIVDM,1,1,,A,13nMgR0Oh7PErNdNCLhrV3;40HCd,0*31
!AIVDM,1,1,,B,13aQdgh01bPEqafNDCV0?hFv00S3,0*54
$IIXDR,A,-28.1,D,ROLL*6E
$IIVHW,182.1,T,181,M,6.72,N,12.45,K*78
$IIMWD,231.1,T,226,M,25.5,N,13.1,M*5C
!AIVDM,1,1,,B,15S1D400000Eos0NCBL9drG425RP,0*30
$IIDPT,3.8,,*49
$IIDBT,12.5,f,3.8,M,,*44
!AIVDM,1,1,,A,13bAqH?000PF>DnNFPPElRa20D26,0*63
$IIMWV,49,T,25.4,N,A*2B
$IIVWT,49,R,25.4,N,13.1,M,47.0,K*5F
$IIMWD,231.1,T,226,M,25.4,N,13.1,M*5D
$IIMWD,231.1,T,230,M,25.4,N,13.1,M*5A
$IIXDR,A,-27.9,D,ROLL*69
$IIRSA,-6.0,A,,V*52
$PNKEP,01,7.44,N,3.83,K*67
$PNKEP,02,281*79
$PNKEP,03,42,86,0*7B
$PNKEP,04,83,159,353,13*69
$PNKEP,05,53,2.2,N,1.1,K*46
$IIVHW,182.1,T,181,M,6.69,N,12.38,K*78
$IIVHW,182.1,T,179,M,6.69,N,12.38,K*7F
$IIHDG,179,,,,*58
$IIHDM,179,M*33
$PNKEP,05,53,2.2,N,1.1,K*46
!AIVDM,1,1,,B,E>jMjb1WT;9h19Q00000000000006jDo>k9<0D2RRSv000,4*30
$IIXDR,A,-28.0,D,ROLL*6F
$IIRSA,-8.7,A,,V*5B
$IIVTG,167,T,,M,5.5,N,10.2,K,A*37
$IIVTG,168,T,,M,5.5,N,10.2,K,A*38
$PNKEP,12,13.1,,,*72
$IIZDA,124033,16,06,2019,,*53
$IIXDR,A,-28.2,D,ROLL*6D
$IIRSA,-7.7,A,,V*54
!AIVDM,1,1,,B,33bThJ0P@p0EqfhNCOe2Lik601:i,0*54
$PNKEP,11,13.4,2.46,0,100*6B
$IIMWV,34,R,28.2,N,A*2C
$IIVWR,34,R,28.2,N,14.5,M,52.2,K*5D
!AIVDM,1,1,,B,15BO5P002JPCfRnNIhR8uW7205RP,0*5D
$IIXDR,A,-28.3,D,ROLL*6C
$IIRSA,-3.7,A,,V*50
!AIVDM,1,1,,B,13aC=b?0000F=nLNFP57c6?60<1N,0*49
!AIVDM,1,1,,B,13`owN8P0`0E80:N?hfL2ww22HD@,0*23
$IIXDR,A,-28.4,D,ROLL*6B
$IIRSA,-1.0,A,,V*55
$IIVHW,180.1,T,179,M,6.69,N,12.38,K*7D
$IIMWD,229.1,T,230,M,25.4,N,13.1,M*53
$IIMWD,229.1,T,228,M,25.4,N,13.1,M*5A
!AIVDM,1,1,,A,13`jfoG000PF=ePNFN?WnFA20@DB,0*4D
$IIXDR,C,18.4,C,AirTemp*2B
!AIVDM,1,1,,A,E>jMjbQRHq1000000000000000006LV@?T<mPI3;;;v000,4*4C
$IIVHW,180.1,T,179,M,6.67,N,12.35,K*7E
!AIVDM,1,1,,A,13`ia>00000F>@@NFPETw`E600Sm,0*29
$IIRSA,-0.7,A,,V*53
$IIMWV,33,R,28.2,N,A*2B
$IIVWR,33,R,28.2,N,14.5,M,52.2,K*5A
$IIHDG,180,,,,*5E
$IIHDM,180,M*35
$IIDPT,3.6,,*47
$IIDBT,11.8,f,3.6,M,,*44
$IIVTG,168,T,,M,5.6,N,10.4,K,A*3D
$IIVTG,170,T,,M,5.6,N,10.4,K,A*34
$IIMTW,19.3,C*18
$IIXTE,A,A,0.05,R,N,A,*23
$IIRMB,A,0.06,R,,,,,,,1.5,180,5.39,A,A*54
$PNKEP,02,280*78
$PNKEP,03,42,85,0*78
$PNKEP,04,85,158,353,14*69
$PNKEP,05,53,2.2,N,1.1,K*46
!AIVDO,1,1,,,B3aKV<P0=p5H<eWUV7icwwi5oP06,0*51
$IIXDR,A,-28.2,D,ROLL*6D
$IIRSA,0.0,A,,V*79
$PNKEP,05,53,2.2,N,1.1,K*46
$IIGLL,5302.3996,N,00441.9655,E,124033,A,D*5D
$IIRMC,124033,A,5302.3996,N,00441.9655,E,5.6,170,160619,1.1,E,D*13
$IIGLL,5302.3996,N,00441.9657,E,124033,A,D*5F
$IIRMC,124033,A,5302.3996,N,00441.9657,E,5.6,170,160619,1.1,E,D*11
!AIVDM,1,1,,B,33c5J@5000PEpJ6NC?JWdQO60E2J,0*0B
$PNKEP,11,13.4,2.45,0,100*68
$IIXDR,A,-28.3,D,ROLL*6C
$IIRSA,0.3,A,,V*7A
!AIVDM,1,1,,B,13`fKb`P00PEnANNCOBN4?w625RP,0*4D
$IIZDA,124034,16,06,2019,,*54
$IIXDR,A,-28.4,D,ROLL*6B
!AIVDM,1,1,,A,E>jMjbQRHq1000000000000000006LV@?T<mPI3;;;v000,4*4C
!AIVDM,1,1,,B,177>7w0vkG0DAj8NHgLA4Pq600Rt,0*0E
!AIVDM,1,1,,A,B3`f5wh0905WeqWUek@SKwiUCP06,0*3E
!AIVDM,1,1,,A,13bk6H70000EpeHNC=QiJ4=80<2D,0*75
$IIXDR,A,-28.6,D,ROLL*69
$IIRSA,-2.7,A,,V*51
$IIVHW,180.1,T,180,M,6.69,N,12.38,K*7B
$IIMWV,33,R,28.1,N,A*28
$IIVWR,33,R,28.1,N,14.5,M,52.0,K*5B
!AIVDM,1,1,,B,13b80T0000PF=04NFGU`JiU82D1u,0*30
$IIHDG,179,,,,*58
$IIHDM,179,M*33
$IIVLW,4231.26,N,73.26,N*4D
$IIMWV,49,T,25.4,N,A*2B
$IIVWT,49,R,25.4,N,13.1,M,47.0,K*5F
$IIVTG,170,T,,M,5.9,N,10.9,K,A*36
$IIVTG,172,T,,M,5.9,N,10.9,K,A*34
$PNKEP,01,7.44,N,3.83,K*67
$IIXDR,A,-28.8,D,ROLL*67
$IIRSA,-10.7,A,,V*62
$IIVHW,181.1,T,179,M,6.69,N,12.38,K*7C
$IIDPT,3.9,,*48
$IIDBT,12.8,f,3.9,M,,*48
$IIGLL,5302.3982,N,00441.9657,E,124034,A,D*5D
$IIRMC,124034,A,5302.3982,N,00441.9657,E,5.9,172,160619,1.1,E,D*1E
$IIGLL,5302.3982,N,00441.9659,E,124034,A,D*53
$IIRMC,124034,A,5302.3982,N,00441.9659,E,5.9,172,160619,1.1,E,D*10
$PNKEP,11,13.4,2.39,0,100*63
$IIRSA,-11.0,A,,V*64
$PNKEP,03,42,86,0*7B
$PNKEP,05,53,2.2,N,1.1,K*46
!AIVDM,1,1,,B,13af8D70000Ep0DNCB93@A;80HE4,0*64
$PNKEP,05,53,2.2,N,1.1,K*46
$IIZDA,124035,16,06,2019,,*55
!AIVDM,1,1,,B,14`05p002;0DHTTNICCQKQ;40URP,0*24
$IIXDR,A,-28.6,D,ROLL*69
$IIRSA,-7.7,A,,V*54
$IIVLW,4231.27,N,73.27,N*4D
!AIVDM,1,1,,B,E>jMjbiRpt0P00000000000000008wRn?NvA0I3;;;v000,4*28
$IIMWV,48,T,25.1,N,A*2F
$IIVWT,48,R,25.1,N,12.9,M,46.5,K*56
$IIMWD,229.1,T,228,M,25.1,N,12.9,M*56
$PNKEP,12,13.1,,,*72
$IIXDR,A,-28.3,D,ROLL*6C
$IIRSA,-3.0,A,,V*57
!AIVDM,1,1,,B,E>jMjbiRpt0P00000000000000008wRn?NvA0I3;;;v000,4*28
$IIMWV,33,R,28.0,N,A*29
$IIVWR,33,R,28.0,N,14.4,M,51.9,K*51
!AIVDM,1,1,,B,13kpln0tj6PE4c`NNE60lPe:0@EC,0*52
$IIVHW,181.1,T,179,M,6.69,N,12.38,K*7C
$IIHDG,179,,,,*58
$IIHDM,179,M*33
$IIVTG,172,T,,M,6.1,N,11.4,K,A*33
$IIXDR,A,-27.8,D,ROLL*68
$IIRSA,-1.0,A,,V*55
$IIVTG,173,T,,M,6.1,N,11.4,K,A*32
$IIGLL,5302.3970,N,00441.9659,E,124035,A,D*5F
$IIRMC,124035,A,5302.3970,N,00441.9659,E,6.1,173,160619,1.1,E,D*16
!AIVDM,1,1,,A,33a8uJ50000EpV0NCJi@02960Dpr,0*33
!AIVDM,1,1,,B,139osvPP000Epj`NC=M00?w:08EL,0*75
$IIXDR,A,-27.3,D,ROLL*63
$IIRSA,-2.0,A,,V*56
$IIVHW,180.1,T,179,M,6.69,N,12.38,K*7D
$IIMWD,228.1,T,228,M,25.1,N,12.9,M*57
$IIGLL,5302.3970,N,00441.9665,E,124035,A,D*50
$IIRMC,124035,A,5302.3970,N,00441.9665,E,6.1,173,160619,1.1,E,D*19
$PNKEP,11,13.4,2.40,0,100*6D
$IIXDR,C,18.4,C,AirTemp*2B
$IIDPT,3.8,,*49
$IIDBT,12.5,f,3.8,M,,*44
$PNKEP,02,280*78
$PNKEP,04,85,158,353,14*69
!AIVDM,1,1,,B,13c4Ob00000G2fFNBWQoBUg:0L1C,0*19
$IIXDR,A,-26.8,D,ROLL*69
$IIRSA,-2.7,A,,V*51
$IIMTW,19.3,C*18
$IIRMB,A,0.06,R,,,,,,,1.5,180,6.05,A,A*58
!AIVDM,1,1,,B,13ad;D?P00PF=2@NFHl=Igv60URP,0*73
$PNKEP,01,7.36,N,3.79,K*67
$PNKEP,02,278*7F
$PNKEP,03,42,87,0*7A
$PNKEP,04,87,158,354,12*6A
$PNKEP,05,53,2.2,N,1.1,K*46
$IIMWV,48,T,25.0,N,A*2E
$IIVWT,48,R,25.0,N,12.9,M,46.3,K*51
$IIMWD,228.1,T,227,M,25.0,N,12.9,M*59
$IIXDR,A,-26.4,D,ROLL*65
$PNKEP,05,53,2.2,N,1.1,K*46
$IIRSA,-5.7,A,,V*56
!AIVDM,1,1,,B,13aKV9wP00PF<opNFFv00?w82<1J,0*4D
!AIVDO,1,1,,,B3aKV<P0?85H<i7UV5mcWwj5oP06,0*52
$IIZDA,124036,16,06,2019,,*56
$IIVHW,180.1,T,179,M,6.73,N,12.46,K*7F
$IIVHW,180.1,T,183,M,6.73,N,12.46,K*7A
$IIHDG,183,,,,*5D
$IIHDM,183,M*36
$IIXDR,A,-26.2,D,ROLL*63
$IIRSA,-11.7,A,,V*63
$IIVTG,173,T,,M,6.1,N,11.2,K,A*34
$IIVTG,172,T,,M,6.1,N,11.2,K,A*35
$IIXDR,A,-25.8,D,ROLL*6A
$IIRSA,-9.7,A,,V*5A
$IIGLL,5302.3954,N,00441.9665,E,124036,A,D*55
$IIRMC,124036,A,5302.3954,N,00441.9665,E,6.1,172,160619,1.1,E,D*1D
$IIGLL,5302.3954,N,00441.9670,E,124036,A,D*51
$IIRMC,124036,A,5302.3954,N,00441.9670,E,6.1,172,160619,1.1,E,D*19
$PNKEP,11,13.4,2.46,0,100*6B
$IIXDR,A,-25.3,D,ROLL*61
$IIRSA,-5.7,A,,V*56
!AIVDM,1,1,,A,E>jMjbAWT;9h19PP0000000000006wgt>jap@D2RRSv000,4*62
!AIVDM,1,1,,A,13blLD00000F=s0NFPAh02W<0@F2,0*36
$IIXDR,A,-24.8,D,ROLL*6B
$IIRSA,-3.7,A,,V*50
!AIVDM,1,1,,B,13bbk800000Eq8DNC;hSTIq<0HF5,0*5A
$IIVHW,184.1,T,183,M,6.73,N,12.46,K*7E
$IIMWV,48,T,24.8,N,A*27
$IIVWT,48,R,24.8,N,12.8,M,45.9,K*50
$IIMWD,232.1,T,231,M,24.8,N,12.8,M*5D
!AIVDM,1,1,,B,13miWD002UPDUV<NPMlomn=>0D<P,0*34
$IIDPT,3.7,,*46
$IIDBT,12.2,f,3.7,M,,*4C
$IIZDA,124037,16,06,2019,,*57
!AIVDM,1,1,,A,13aEOEPP00PEpqrNC<lFrOw:2HF:,0*01
$IIVLW,4231.27,N,73.27,N*4D
$IIXDR,A,-24.0,D,ROLL*63
$IIRSA,0.7,A,,V*7E
$IIVHW,184.1,T,183,M,6.73,N,12.47,K*7F
$IIHDG,183,,,,*5D
$IIHDM,183,M*36
$PNKEP,02,279*7E
$PNKEP,03,42,88,0*75
$PNKEP,04,83,159,354,11*6C
$PNKEP,05,53,2.2,N,1.1,K*46
$IIVHW,184.1,T,177,M,6.73,N,12.47,K*74
$IIMWV,33,R,27.8,N,A*2E
$IIVWR,33,R,27.8,N,14.3,M,51.5,K*5D
$IIHDG,177,,,,*56
$IIHDM,177,M*3D
!AIVDM,1,1,,A,E>jMjbAWT;9h19PP0000000000006wgt>jap@D2RRSv000,4*62
$IIVTG,172,T,,M,6.1,N,11.3,K,A*34
$IIVTG,173,T,,M,6.1,N,11.3,K,A*35
$PNKEP,05,53,2.2,N,1.1,K*46
$IIXDR,A,-23.2,D,ROLL*66
$IIRSA,2.3,A,,V*78
$IIGLL,5302.3942,N,00441.9670,E,124037,A,D*57
$IIRMC,124037,A,5302.3942,N,00441.9670,E,6.1,173,160619,1.1,E,D*1E
$IIGLL,5302.3942,N,00441.9673,E,124037,A,D*54
$IIRMC,124037,A,5302.3942,N,00441.9673,E,6.1,173,160619,1.1,E,D*1D
$PNKEP,12,13.1,,,*72
$PNKEP,11,13.4,2.47,0,100*6A
$IIXDR,A,-22.5,D,ROLL*60
!AIVDM,1,1,,B,13aNDV00000F=SbNFK`96hi<08FJ,0*75
!AIVDM,1,1,,A,B3q35T00@05KoMWW64L37wk5oP06,0*02
!AIVDM,1,1,,B,13aGDewP00PEmlRNCH?=jgw<2HFO,0*33
$IIXDR,A,-21.8,D,ROLL*6E
$IIRSA,0.7,A,,V*7E
!AIVDM,1,1,,A,33bThJ0P@p0EqibNCOlBI1g>0000,0*20
!AIVDM,1,1,,B,13bA6V00050EH?VNA8G7e6e>00RE,0*6D
!AIVDM,1,1,,B,13aFeu?P11PFpntNCO5bhgw82<2o,0*05
$IIXDR,A,-21.6,D,ROLL*60
$IIRSA,-7.7,A,,V*54
$IIVHW,178.1,T,177,M,6.73,N,12.47,K*77
$IIMWD,225.1,T,231,M,24.8,N,12.8,M*5B
$IIXDR,C,18.4,C,AirTemp*2B
$IIVHW,178.1,T,177,M,6.76,N,12.51,K*75
$IIRMB,A,0.06,R,,,,,,,1.5,180,6.06,A,A*5B
$IIDPT,4.1,,*47
$IIDBT,13.5,f,4.1,M,,*4B
$IIMWV,33,R,27.7,N,A*21
$IIVWR,33,R,27.7,N,14.2,M,51.3,K*55
$PNKEP,01,7.36,N,3.79,K*67
$IIVHW,178.1,T,176,M,6.76,N,12.51,K*74
$IIHDG,176,,,,*57
$IIHDM,176,M*3C
!AIVDM,1,1,,B,13aIj9PP00PG3QNNBUauLww<2<1i,0*0C
$IIVTG,173,T,,M,6.2,N,11.4,K,A*31
$IIVTG,174,T,,M,6.2,N,11.4,K,A*36
$IIXDR,A,-21.3,D,ROLL*65
$IIRSA,-11.7,A,,V*63
$IIMTW,19.3,C*18
$PNKEP,02,280*78
$PNKEP,04,87,158,354,11*69
$PNKEP,05,53,2.2,N,1.1,K*46
$IIZDA,124038,16,06,2019,,*58
$IIGLL,5302.3929,N,00441.9673,E,124038,A,D*56
$IIRMC,124038,A,5302.3929,N,00441.9673,E,6.2,174,160619,1.1,E,D*1B
$IIGLL,5302.3929,N,00441.9675,E,124038,A,D*50
$IIRMC,124038,A,5302.3929,N,00441.9675,E,6.2,174,160619,1.1,E,D*1D
$PNKEP,05,53,2.2,N,1.1,K*46
$IIXDR,A,-21.4,D,ROLL*62
$IIRSA,-12.0,A,,V*67
$PNKEP,11,13.4,2.49,0,100*64
!AIVDO,1,1,,,B3aKV<P0?85H<l7UV3meswk5oP06,0*72
!AIVDM,1,1,,B,33aDrE@P00PF<kDNFFJ4=gw:20W1,0*61
$IIXDR,A,-21.7,D,ROLL*61
!AIVDM,1,1,,A,13aEOB8P00PEpppNC<iB<gw<3`Fs,0*6C
!AIVDM,1,1,,B,13JfJL0027PDUwhNKPhQ70s<0PRq,0*31
!AIVDM,1,1,,A,13b08b00000F=bfNFM0<=nE@00Rw,0*59
$IIMWV,48,T,24.4,N,A*2B
$IIVWT,48,R,24.4,N,12.6,M,45.2,K*59
$IIMWD,225.1,T,231,M,24.4,N,12.6,M*59
$IIMWV,47,T,24.4,N,A*24
$IIVWT,47,R,24.4,N,12.6,M,45.2,K*56
$IIMWD,225.1,T,224,M,24.4,N,12.6,M*5D
!AIVDM,1,1,,A,13bpan001mPCpCjNE<qA?Q3<2<0T,0*23
!AIVDM,1,1,,B,E>jMk3QSIFPh40W=2h:6V9P00000:Q0F?evQ881113v000,4*03
$IIXDR,A,-22.0,D,ROLL*65
$IIRSA,-11.0,A,,V*64
$IIMTW,19.2,C*19
$IIVHW,178.1,T,176,M,6.80,N,12.59,K*75
$IIVHW,178.1,T,180,M,6.80,N,12.59,K*7C
$IIHDG,180,,,,*5E
$IIHDM,180,M*35
$IIXDR,A,-22.3,D,ROLL*66
$IIRSA,-5.7,A,,V*56
$IIVTG,174,T,,M,6.2,N,11.6,K,A*34
$IIVTG,173,T,,M,6.2,N,11.6,K,A*33
!AIVDM,2,1,6,B,577>7w82E;2eI94kV20tt<j0PtpN0dtpN2222216B;wGT5a?0P@QH6QAOT38,0*2D
!AIVDM,2,2,6,B,1i3`8888880,2*2A
!AIVDM,1,1,,A,83adG20j2d<<<<<<<0D`Jg`55a00,0*55
$IIDPT,3.9,,*48
$IIDBT,12.8,f,3.9,M,,*48
!AIVDM,2,1,7,B,53aDrE@000010SW;C21@EPDj3CB22222222222151@H35ubb003mA1Dhj2C1,0*26
!AIVDM,2,2,7,B,88888888880,2*20
$IIVLW,4231.27,N,73.27,N*4D
$IIGLL,5302.3916,N,00441.9675,E,124038,A,D*5C
$IIRMC,124038,A,5302.3916,N,00441.9675,E,6.2,173,160619,1.1,E,D*16
$PNKEP,03,42,88,0*75
!AIVDM,1,1,,B,E>jMk3QSIFPh40W=2h:6V9P00000:Q0F?evQ881113v000,4*03
$IIVHW,181.1,T,180,M,6.80,N,12.59,K*7A
$IIMWD,228.1,T,224,M,24.4,N,12.6,M*50
$IIGLL,5302.3916,N,00441.9680,E,124038,A,D*56
$IIRMC,124038,A,5302.3916,N,00441.9680,E,6.2,173,160619,1.1,E,D*1C
$IIXDR,A,-22.5,D,ROLL*60
$PNKEP,11,13.4,2.52,0,100*6E
$IIRSA,-3.3,A,,V*54
$IIZDA,124039,16,06,2019,,*59
$IIXDR,A,-22.8,D,ROLL*6D
!AIVDM,1,1,,B,13aL?`0P00PFU3PN@ctf4?w>20T:,0*44
$PNKEP,01,7.29,N,3.75,K*65
$PNKEP,02,277*70
$PNKEP,03,42,90,0*7C
$PNKEP,04,85,161,355,9*59
$PNKEP,05,53,2.2,N,1.1,K*46
$IIMWV,47,T,23.9,N,A*2E
$IIVWT,47,R,23.9,N,12.3,M,44.3,K*59
$IIMWD,228.1,T,224,M,23.9,N,12.3,M*5F
$IIMWD,228.1,T,227,M,23.9,N,12.3,M*5C
$PNKEP,05,53,2.2,N,1.1,K*46
$IIXDR,A,-23.1,D,ROLL*65
$PNKEP,12,13.1,,,*72
!AIVDM,1,1,,A,15BO5P002JPCfHlNIgp`uW7>0HGR,0*55
$IIMWV,33,R,27.6,N,A*20
$IIVWR,33,R,27.6,N,14.2,M,51.1,K*56
$IIMWV,34,R,27.6,N,A*27
$IIVWR,34,R,27.6,N,14.2,M,51.1,K*51
$IIXDR,A,-23.3,D,ROLL*67
$IIRSA,-2.7,A,,V*51
$IIVHW,181.1,T,182,M,6.80,N,12.59,K*78
$IIHDG,182,,,,*5C
$IIHDM,182,M*37
$IIVTG,173,T,,M,6.1,N,11.3,K,A*35
!AIVDM,1,1,,B,13rmQj00000ErJ`NCAa00?w>05RP,0*72
$IIVTG,172,T,,M,6.1,N,11.3,K,A*34
!AIVDM,1,1,,A,13`fJDh01RPEsFdNDE3W20=<00Rj,0*43
$IIXTE,A,A,0.05,R,N,A,*23
$IIRMB,A,0.06,R,,,,,,,1.5,180,6.17,A,A*5B
$IIXDR,A,-23.5,D,ROLL*61
$IIRSA,0.7,A,,V*7E
$IIGLL,5302.3903,N,00441.9680,E,124039,A,D*53
$IIRMC,124039,A,5302.3903,N,00441.9680,E,6.1,172,160619,1.1,E,D*1B
$IIGLL,5302.3903,N,00441.9683,E,124039,A,D*50
$IIRMC,124039,A,5302.3903,N,00441.9683,E,6.1,172,160619,1.1,E,D*18
!AIVDM,1,1,,A,13`eH@G000PF>3pNFPIL<8=@0`Gf,0*60
$PNKEP,11,13.4,2.51,0,100*6D
$IIXDR,A,-23.6,D,ROLL*62
$IIRSA,2.0,A,,V*7B
$IIXDR,C,18.4,C,AirTemp*2B
$IIDPT,3.4,,*45
$IIDBT,11.2,f,3.4,M,,*4C
!AIVDM,1,1,,A,E>jMk3i`HpnQ@22h9:db2a@:6V9P7c3P>vs7@81113v000,4*22
$IIZDA,124040,16,06,2019,,*57
!AIVDM,1,1,,A,13bKfB001VPE0<0N@wklp3u>0D0r,0*27
$IIVLW,4231.28,N,73.28,N*4D
$IIRSA,4.0,A,,V*7D
$IIVHW,183.1,T,182,M,6.80,N,12.59,K*7A
$IIMWD,231.1,T,227,M,23.9,N,12.3,M*54
$IIMWV,47,T,24.0,N,A*20
!AIVDM,1,1,,A,13cN@600000EpwVNCQBP4ISD0<2W,0*16
$IIVWT,48,R,24.0,N,12.3,M,44.4,K*5F
$IIMWD,231.1,T,230,M,24.0,N,12.3,M*5C
$PNKEP,04,82,161,355,9*5E
$PNKEP,05,53,2.2,N,1.1,K*46
$IIRSA,5.3,A,,V*7F
$PNKEP,05,53,2.2,N,1.1,K*46
$IIVHW,183.1,T,182,M,6.79,N,12.58,K*7D
$IIVHW,183.1,T,173,M,6.79,N,12.58,K*73
$IIHDG,173,,,,*52
$IIHDM,173,M*39
$IIVTG,172,T,,M,6.0,N,11.1,K,A*37
$IIVTG,173,T,,M,6.0,N,11.1,K,A*36
!AIVDO,1,1,,,B3aKV<P0>H5H<p7UV1idowl5oP06,0*03
!AIVDM,1,1,,A,13bWT600000Er:4NC6`Jk93B05RP,0*4F
$IIMTW,19.3,C*18
$IIXDR,A,-23.9,D,ROLL*6D
$IIRSA,5.0,A,,V*7C
!AIVDM,1,1,,B,13awq200000Ek7<NDvq0095:0@H7,0*53
!AIVDM,1,1,,A,402E351v=`<``PEWC@NC:iG00<3W,0*75
$IIGLL,5302.3888,N,00441.9683,E,124040,A,D*5C
$IIRMC,124040,A,5302.3888,N,00441.9683,E,6.0,173,160619,1.1,E,D*14
$PNKEP,11,13.4,2.47,0,100*6A
!AIVDM,1,1,,A,377>7w0vkG0DAq>NHhNQ40q@0DNM,0*48
$IIXDR,A,-24.5,D,ROLL*66
$IIRSA,2.3,A,,V*78
!AIVDM,1,1,,B,13`q5j0P000EnaLNC1nc5OwB08H@,0*41
!AIVDM,1,1,,A,13bKVN?P00PEltFNCOM00?wB28HC,0*35
$IIXDR,A,-25.5,D,ROLL*67
$IIRSA,-5.0,A,,V*51
$IIDPT,3.8,,*49
$IIDBT,12.5,f,3.8,M,,*44
$IIZDA,124041,16,06,2019,,*56
!AIVDM,1,1,,A,402E35Av=`<`aPE@mhN:Rd7005RP,0*16
$IIXDR,A,-26.3,D,ROLL*62
$IIRSA,-9.0,A,,V*5D
$IIVHW,174.1,T,173,M,6.79,N,12.58,K*7B
$IIMWD,222.1,T,230,M,24.0,N,12.3,M*5E
$IIVHW,174.1,T,173,M,6.77,N,12.53,K*7E
$IIMWV,34,R,27.5,N,A*24
$IIVWR,34,R,27.5,N,14.1,M,50.9,K*58
$IIVHW,174.1,T,174,M,6.77,N,12.53,K*79
$IIHDG,174,,,,*55
$IIHDM,174,M*3E
$IIVTG,173,T,,M,6.0,N,11.0,K,A*37
$IIVTG,172,T,,M,6.0,N,11.0,K,A*36
$IIXDR,A,-26.9,D,ROLL*68
$IIRSA,-8.7,A,,V*5B
!AIVDM,1,1,,A,E>jMk3i`HpnQ@22h9:db2a@:6V9P7c3P>vs7@81113v000,4*22
$PNKEP,01,7.29,N,3.75,K*65
$PNKEP,02,277*70
$PNKEP,03,42,90,0*7C
$PNKEP,02,276*71
$PNKEP,04,88,160,355,9*55
$PNKEP,05,53,2.2,N,1.1,K*46
$IIGLL,5302.3875,N,00441.9683,E,124041,A,D*5F
$IIRMC,124041,A,5302.3875,N,00441.9683,E,6.0,172,160619,1.1,E,D*16
$IIGLL,5302.3875,N,00441.9689,E,124041,A,D*55
$IIRMC,124041,A,5302.3875,N,00441.9689,E,6.0,172,160619,1.1,E,D*1C
$PNKEP,02,277*70
$IIXDR,A,-27.1,D,ROLL*61
$PNKEP,02,276*71
$PNKEP,05,53,2.2,N,1.1,K*46
$IIRSA,-2.7,A,,V*51
$PNKEP,11,13.4,2.48,0,100*65
$PNKEP,02,277*70
$PNKEP,02,276*71
$PNKEP,12,13.1,,,*72
$PNKEP,02,277*70
$PNKEP,02,276*71
$IIRSA,0.7,A,,V*7E
$PNKEP,02,277*70
$PNKEP,02,276*71
!AIVDM,1,1,,B,33bThJ0P@p0EqlNNCOtRDAaF00ph,0*19
$PNKEP,02,276*71
!AIVDM,2,1,8,A,53adG280000104<P00084hM`4p@000000000000O2800640Ht4Q1C`21C11D,0*4F
!AIVDM,2,2,8,A,P0000000000,2*4C
$IIMWD,222.1,T,221,M,24.0,N,12.3,M*5E
$IIRMB,A,0.06,R,,,,,,,1.5,180,5.96,A,A*51
$IIXDR,A,-27.2,D,ROLL*62
$IIRSA,1.3,A,,V*7B
$IIDPT,4.0,,*46
$IIDBT,13.1,f,4.0,M,,*4E
$IIVHW,174.1,T,174,M,6.78,N,12.55,K*70
!AIVDM,1,1,,B,E>jN6<?20W3Ra7bah0a2PP0000009HUO>sAdP00003v010,4*06
$IIZDA,124042,16,06,2019,,*55
$IIVHW,174.1,T,171,M,6.78,N,12.55,K*75
$IIHDG,171,,,,*50
$IIHDM,171,M*3B
$IIXDR,A,-27.4,D,ROLL*64
!AIVDM,1,1,,B,E>jN6<?20W3Ra7bah0a2PP0000009HUO>sAdP00003v010,4*06
$IIHDT,172.1,T*27
$IIMWD,220.1,T,221,M,24.0,N,12.3,M*5C
$IIVTG,172,T,,M,6.0,N,11.1,K,A*37
!AIVDM,1,1,,A,337SrF5000PEoE6NCI;V=TwB02wQ,0*2B
$IIVLW,4231.28,N,73.28,N*4D
$IIXDR,C,18.4,C,AirTemp*2B
$IIVTG,171,T,,M,6.0,N,11.1,K,A*34
!AIVDM,1,1,,A,13aAPB0000PEpE`NC?q001MD20RO,0*32
$IIXDR,A,-27.9,D,ROLL*69
$IIGLL,5302.3863,N,00441.9689,E,124042,A,D*51
$IIRMC,124042,A,5302.3863,N,00441.9689,E,6.0,171,160619,1.1,E,D*1B
$IIGLL,5302.3863,N,00441.9695,E,124042,A,D*5C
$IIRMC,124042,A,5302.3863,N,00441.9695,E,6.0,171,160619,1.1,E,D*16
$PNKEP,11,13.4,2.46,0,100*6B
$IIMWV,48,T,24.0,N,A*2F
$IIVWT,48,R,24.0,N,12.3,M,44.4,K*5F
!AIVDM,1,1,,A,181:K`001n0D=iLNKnG7g67B0D0l,0*2B
$PNKEP,02,269*7F
$PNKEP,05,52,2.0,N,1.0,K*44
!AIVDM,1,1,,A,13aUm47P1N0CeHfNIr18M7=@0`I9,0*32
$IIXDR,A,-28.6,D,ROLL*69
$IIRSA,2.3,A,,V*78
$PNKEP,05,52,2.0,N,1.0,K*44
!AIVDM,1,1,,B,13`niF00000EqmjNC8625lAF2@I>,0*6F
!AIVDM,1,1,,A,B39S1sP0=H5U>HWUTgjROwm5oP06,0*2C
!AIVDO,1,1,,,B3aKV<P0?85H<t7UUwiaswm5oP06,0*2B
$IIMTW,19.3,C*18
$IIXDR,A,-29.3,D,ROLL*6D
!AIVDM,1,1,,A,15S1D400000EorrNCBFaa:GF2<2v,0*52
$IIMWD,220.1,T,219,M,24.0,N,12.3,M*57
!AIVDM,1,1,,B,13m3FH001UPDO38NI;0i9A3D0@IB,0*52
$IIVHW,172.1,T,171,M,6.79,N,12.57,K*70
!AIVDM,1,1,,B,83aDrE@j2d<dtdeML0bP`hO56@L0,0*16
$IIXDR,A,-30.0,D,ROLL*66
$IIRSA,2.0,A,,V*7B
!AIVDM,1,1,,B,13nMgR000:PErM>NCLjs0S=H08IH,0*68
$IIVHW,172.1,T,179,M,6.79,N,12.57,K*78
$IIHDG,179,,,,*58
$IIHDM,179,M*33
!AIVDM,1,1,,A,13`hof@P00PEqGrNC5FN4?wF2D1l,0*45
$IIDPT,4.1,,*47
$IIDBT,13.5,f,4.1,M,,*4B
$IIVTG,171,T,,M,6.2,N,11.4,K,A*33
$IIVTG,168,T,,M,6.2,N,11.4,K,A*3B
!AIVDM,1,1,,A,E>jMjb1WT;9h19Q00000000000006jDo>k9<0D2RRSv000,4*33
$IIXDR,A,-30.5,D,ROLL*63
$IIRSA,0.7,A,,V*7E
!AIVDM,1,1,,A,13aQdgh01aPEqcFNDDf@?PEB0@IO,0*28
$IIGLL,5302.3849,N,00441.9695,E,124042,A,D*54
$IIRMC,124042,A,5302.3849,N,00441.9695,E,6.2,168,160619,1.1,E,D*14
!AIVDM,1,1,,B,B39jr@P0Ah5VEMWUckQmCwmUkP06,0*10
$IIGLL,5302.3849,N,00441.9703,E,124042,A,D*5A
$IIRMC,124042,A,5302.3849,N,00441.9703,E,6.2,168,160619,1.1,E,D*1A
$PNKEP,11,13.4,2.49,0,100*64
$IIMWV,34,R,27.5,N,A*24
$IIVWR,34,R,27.5,N,14.1,M,50.9,K*58
$IIRSA,-0.7,A,,V*53
$PNKEP,03,42,90,0*7C
$IIVHW,180.1,T,179,M,6.79,N,12.57,K*75
$IIMWD,229.1,T,219,M,24.0,N,12.3,M*5E
!AIVDM,1,1,,A,E>jMjb1WT;9h19Q00000000000006jDo>k9<0D2RRSv000,4*33
$IIXDR,A,-30.3,D,ROLL*65
$IIRSA,-1.0,A,,V*55
$IIMWV,48,T,24.2,N,A*2D
$IIVWT,48,R,24.2,N,12.4,M,44.8,K*56
$IIMWD,229.1,T,219,M,24.2,N,12.4,M*5B
$IIMWV,49,T,24.2,N,A*2C
$IIVWT,49,R,24.2,N,12.4,M,44.8,K*57
$IIMWD,229.1,T,228,M,24.2,N,12.4,M*59
$PNKEP,01,7.35,N,3.78,K*65
$PNKEP,02,271*76
$PNKEP,03,42,89,0*74
$PNKEP,04,83,160,354,11*66
$PNKEP,05,52,2.0,N,1.0,K*44
!AIVDM,1,1,,B,13bAqH?000PF>DlNFPP5lRaF00RP,0*14
!AIVDM,1,1,,A,13miWD002UPDUQ8NPLlGmn=J08Ii,0*59
$PNKEP,05,52,2.0,N,1.0,K*44
!AIVDM,1,1,,A,15S1D48<<<<EorrNCBFaa:G@000,2*24
$IIXDR,A,-29.9,D,ROLL*67
$IIRSA,0.3,A,,V*7A
$IIVTG,168,T,,M,6.1,N,11.4,K,A*38
$IIVHW,180.1,T,179,M,6.79,N,12.57,K*75
$IIHDG,179,,,,*58
$IIHDM,179,M*33
$IIXTE,A,A,0.05,R,N,A,*23
$IIRMB,A,0.06,R,,,,,,,1.5,180,6.07,A,A*5A
$IIVTG,165,T,,M,6.1,N,11.4,K,A*35
$PNKEP,12,13.1,,,*72
$IIXDR,A,-29.4,D,ROLL*6A
$IIRSA,0.7,A,,V*7E
$IIZDA,124043,16,06,2019,,*54
$PNKEP,11,13.4,2.43,0,100*6E
$IIXDR,A,-29.0,D,ROLL*6E
$IIRSA,2.7,A,,V*7C
$IIDPT,3.8,,*49
$IIDBT,12.5,f,3.8,M,,*44
$IIXDR,A,-28.9,D,ROLL*66
$IIRSA,3.3,A,,V*79
$IIVLW,4231.28,N,73.28,N*4D
$IIXDR,C,18.4,C,AirTemp*2B
$IIMWV,49,T,24.4,N,A*2A
$IIVWT,49,R,24.4,N,12.6,M,45.2,K*58
$IIMWD,229.1,T,228,M,24.4,N,12.6,M*5D
$IIRSA,2.3,A,,V*78
!AIVDM,1,1,,B,E>jMjbQRHq1000000000000000006LV@?T<mPI3;;;v000,4*4F
$IIVHW,180.1,T,178,M,6.79,N,12.57,K*74
$IIHDG,178,,,,*59
$IIHDM,178,M*32
$IIVTG,165,T,,M,6.1,N,11.3,K,A*32
$PNKEP,01,7.43,N,3.82,K*61
$PNKEP,02,274*73
$PNKEP,03,42,87,0*7A
$PNKEP,04,82,160,353,12*63
$PNKEP,05,52,2.0,N,1.0,K*44
$IIRSA,-3.0,A,,V*57
$PNKEP,05,52,2.0,N,1.0,K*44
$IIGLL,5302.3836,N,00441.9703,E,124043,A,D*53
$IIRMC,124043,A,5302.3836,N,00441.9703,E,6.1,165,160619,1.1,E,D*1D
$IIGLL,5302.3836,N,00441.9708,E,124043,A,D*58
$IIRMC,124043,A,5302.3836,N,00441.9708,E,6.1,165,160619,1.1,E,D*16
!AIVDO,1,1,,,B3aKV<P0>p5H=3WUUuiVCwn5oP06,0*42
$IIMTW,19.3,C*18
$IIRSA,-9.7,A,,V*5A
$PNKEP,11,13.4,2.36,0,100*6C
$IIZDA,124044,16,06,2019,,*53
$IIXDR,A,-28.7,D,ROLL*68
$IIRSA,-13.3,A,,V*65
$IIDPT,3.9,,*48
$IIDBT,12.8,f,3.9,M,,*48
!AIVDM,1,1,,A,33bThJ0P@p0EqnLNCP3B?1SL00pi,0*60
!AIVDM,1,1,,B,13`ia>00000F>@LNFPEDw`EL0@J`,0*28
$IIXDR,A,-28.3,D,ROLL*6C
$IIRSA,-13.0,A,,V*66
!AIVDM,1,1,,A,33`owN8P0g0E7rbN?i1Kp?wH268C,0*10
$IIVHW,180.1,T,178,M,6.78,N,12.55,K*77
$IIMWV,34,R,27.6,N,A*27
$IIVWR,34,R,27.6,N,14.2,M,51.1,K*51
$IIHDG,182,,,,*5C
$IIHDM,182,M*37
$IIXDR,A,-27.9,D,ROLL*69
$IIRSA,-12.0,A,,V*67
$IIVHW,179.1,T,182,M,6.78,N,12.55,K*74
$IIMWD,228.1,T,228,M,24.4,N,12.6,M*5C
$IIVTG,165,T,,M,5.9,N,11.0,K,A*3A
!AIVDM,1,1,,A,139osvPP000EpjtNC=M00?wL05RP,0*12
!AIVDM,1,1,,B,35DOHL58<<8ErDfNC6I8CG1H000,2*09
!AIVDM,1,1,,A,13b80T0000PF<wtNFGSHHQSL28Jl,0*4D
!AIVDM,1,1,,A,13aJFkPP00PF=KpNFJ7h0?wJ2<1q,0*53
$IIXDR,A,-27.7,D,ROLL*67
$IIRSA,-9.3,A,,V*5E
$IIGLL,5302.3819,N,00441.9708,E,124044,A,D*52
$IIRMC,124044,A,5302.3819,N,00441.9708,E,5.9,165,160619,1.1,E,D*17
!AIVDM,1,1,,A,33bC;J50000EtOtNE8w4F3KL0Dgr,0*2A
$PNKEP,04,83,160,353,12*62
$PNKEP,05,52,2.0,N,1.0,K*44
$IIGLL,5302.3819,N,00441.9714,E,124044,A,D*5F
$IIRMC,124044,A,5302.3819,N,00441.9714,E,5.9,165,160619,1.1,E,D*1A
$PNKEP,11,13.4,2.40,0,100*6D
$PNKEP,05,52,2.0,N,1.0,K*44
$IIXDR,A,-27.5,D,ROLL*65
$IIRSA,-5.7,A,,V*56
!AIVDM,1,1,,B,13bk6H70000EpeHNC=QiJ4=L08K1,0*0A
$IIRMB,A,0.06,R,,,,,,,1.5,180,5.90,A,A*57
$IIZDA,124045,16,06,2019,,*52
$IIVLW,4231.29,N,73.29,N*4D
$PNKEP,12,13.1,,,*72
$IIXDR,A,-27.3,D,ROLL*63
$IIRSA,-1.0,A,,V*55
!AIVDM,1,1,,A,E>jMjbiRpt0P00000000000000008wRn?NvA0I3;;;v000,4*2B
$IIMWD,228.1,T,227,M,24.4,N,12.6,M*53
$IIDPT,3.7,,*46
$IIDBT,12.2,f,3.7,M,,*4C
$IIVHW,179.1,T,182,M,6.77,N,12.53,K*7D
$IIXDR,A,-27.1,D,ROLL*61
$IIRSA,3.3,A,,V*79
$IIMWV,34,R,27.4,N,A*25
$IIVWR,34,R,27.4,N,14.1,M,50.7,K*57
$IIVHW,179.1,T,177,M,6.77,N,12.53,K*77
$IIHDG,177,,,,*56
$IIHDM,177,M*3D
!AIVDM,1,1,,A,13af8D70000Ep0DNCB93@A;N0D1u,0*28
$IIVTG,165,T,,M,5.9,N,10.9,K,A*32
!AIVDM,1,1,,A,B3aQ6P@08`5SN@WUQlpE;wo5oP06,0*64
$IIXDR,A,-26.8,D,ROLL*69
$IIRSA,4.0,A,,V*7D
$IIMWD,227.1,T,227,M,24.4,N,12.6,M*5C
!AIVDM,1,1,,B,15BO5P0wRIPCf>hNIg?8v77J0L<M,0*60
$IIMWV,49,T,24.4,N,A*2A
$IIVWT,49,R,24.4,N,12.6,M,45.2,K*58
$IIXDR,C,18.4,C,AirTemp*2B
$IIGLL,5302.3807,N,00441.9714,E,124045,A,D*51
$IIRMC,124045,A,5302.3807,N,00441.9714,E,5.9,165,160619,1.1,E,D*14
$IIGLL,5302.3807,N,00441.9717,E,124045,A,D*52
$IIRMC,124045,A,5302.3807,N,00441.9717,E,5.9,165,160619,1.1,E,D*17
$PNKEP,01,7.43,N,3.82,K*61
$PNKEP,02,274*73
$PNKEP,03,42,87,0*7A
!AIVDM,1,1,,A,13`fKb`P00PEnATNCOC>4?wL20R>,0*34
$PNKEP,11,13.4,2.42,0,100*6F
!AIVDM,1,1,,A,13ad;D?P00PF=2@NFHl=IgvJ0URP,0*0C
$IIXDR,A,-26.6,D,ROLL*67
!AIVDM,1,1,,A,B39mVE00DH5H2eWU`G;MGwo5oP06,0*36
$IIVHW,178.1,T,177,M,6.77,N,12.53,K*76
!AIVDM,1,1,,A,E>jMjbiRpt0P00000000000000008wRn?NvA0I3;;;v000,4*2B
$IIXDR,A,-26.7,D,ROLL*66
$IIRSA,3.0,A,,V*7A
$PNKEP,04,84,160,353,13*64
$PNKEP,05,52,2.0,N,1.0,K*44
$IIMWV,49,T,24.3,N,A*2D
$IIVWT,49,R,24.3,N,12.5,M,45.0,K*5E
$IIMWD,227.1,T,227,M,24.3,N,12.5,M*58
$IIMWD,227.1,T,226,M,24.3,N,12.5,M*59
$PNKEP,05,52,2.0,N,1.0,K*44
$IIZDA,124046,16,06,2019,,*51
$IIXDR,A,-27.1,D,ROLL*61
$IIRSA,0.3,A,,V*7A
$IIMTW,19.2,C*19
!AIVDO,1,1,,,B3aKV<P0>H5H=9WUUruc7woUoP06,0*4B
$IIVHW,178.1,T,177,M,6.72,N,12.45,K*74
$IIMWV,34,R,27.3,N,A*22
$IIVWR,34,R,27.3,N,14.0,M,50.6,K*50
$IIHDM,174,M*3E
$IIVTG,165,T,,M,5.7,N,10.5,K,A*30
$IIVTG,168,T,,M,5.7,N,10.5,K,A*3D
$IIXDR,A,-27.7,D,ROLL*67
$IIRSA,-7.0,A,,V*53
$IIDPT,4.1,,*47
$IIDBT,13.5,f,4.1,M,,*4B
$IIGLL,5302.3794,N,00441.9717,E,124046,A,D*54
$IIRMC,124046,A,5302.3794,N,00441.9717,E,5.7,168,160619,1.1,E,D*12
$IIGLL,5302.3794,N,00441.9720,E,124046,A,D*50
$IIRMC,124046,A,5302.3794,N,00441.9720,E,5.7,168,160619,1.1,E,D*16
$PNKEP,11,13.4,2.41,0,100*6C
!AIVDM,1,1,,B,177>7w0vkG0DB3<NHisA40qP00Rw,0*64
$IIXDR,A,-28.5,D,ROLL*6A
$IIRSA,-9.7,A,,V*5A
!AIVDM,1,1,,B,E>jMjbAWT;9h19PP0000000000006wgt>jap@D2RRSv000,4*61
$IIXDR,A,-29.0,D,ROLL*6E
!AIVDM,1,1,,A,13aNDV00000F=SRNFKa96hiN00Rd,0*07
$IIVHW,175.1,T,174,M,6.72,N,12.45,K*7A
$IIMWD,224.1,T,226,M,24.3,N,12.5,M*5A
$IIMWV,49,T,24.2,N,A*2C
$IIVWT,49,R,24.2,N,12.4,M,44.8,K*57
$IIMWD,224.1,T,226,M,24.2,N,12.4,M*5A
$IIMWD,224.1,T,223,M,24.2,N,12.4,M*5F
$IIZDA,124047,16,06,2019,,*50
$IIXDR,A,-29.2,D,ROLL*6C
$IIRSA,-8.7,A,,V*5B
$IIXTE,A,A,0.05,R,N,A,*23
$IIRMB,A,0.06,R,,,,,,,1.5,180,5.58,A,A*53
$PNKEP,01,7.42,N,3.82,K*60
$PNKEP,02,273*74
$PNKEP,03,42,86,0*7B
$PNKEP,04,86,159,353,13*6C
$PNKEP,05,52,2.0,N,1.0,K*44
$IIMWV,33,R,27.4,N,A*22
$IIVWR,33,R,27.4,N,14.1,M,50.7,K*50
$IIVHW,175.1,T,182,M,6.72,N,12.45,K*73
$IIHDG,182,,,,*5C
$IIHDM,182,M*37
$IIVTG,168,T,,M,5.8,N,10.6,K,A*31
$PNKEP,05,52,2.0,N,1.0,K*44
$IIXDR,A,-29.1,D,ROLL*6F
$IIRSA,-4.0,A,,V*50
$IIVTG,167,T,,M,5.8,N,10.6,K,A*3E
!AIVDM,1,1,,B,E>jMjbAWT;9h19PP0000000000006wgt>jap@D2RRSv000,4*61
!AIVDM,1,1,,A,13bbk800000Eq8DNC;gCTIqP0@L;,0*26
$IIVLW,4231.29,N,73.29,N*4D
$IIGLL,5302.3782,N,00441.9720,E,124047,A,D*56
$IIRMC,124047,A,5302.3782,N,00441.9720,E,5.8,167,160619,1.1,E,D*10
$PNKEP,12,13.1,,,*72
$IIXDR,A,-28.5,D,ROLL*6A
$IIRSA,0.3,A,,V*7A
$IIGLL,5302.3782,N,00441.9727,E,124047,A,D*51
$IIRMC,124047,A,5302.3782,N,00441.9727,E,5.8,167,160619,1.1,E,D*17
$PNKEP,11,13.4,2.42,0,100*6F
!AIVDM,1,1,,B,33bpan001mPCpKnNE=oABA3N21vC,0*72
!AIVDM,1,1,,A,13aC3;hP?w<tSF0l4Q@>4?wvPd1S,0*38
$IIDPT,3.6,,*47
$IIDBT,11.8,f,3.6,M,,*44
!AIVDM,1,1,,B,33bThJ0P@p0EqpFNCP:2:1OR0000,0*10
$IIXDR,A,-27.8,D,ROLL*68
$IIRSA,1.3,A,,V*7B
$IIXDR,A,-27.1,D,ROLL*61
$IIXDR,C,18.4,C,AirTemp*2B
!AIVDM,1,1,,B,13blLD00000F=rrNFPA002aR0@LP,0*1E
!AIVDM,1,1,,A,13JfJL0025PDV92NKR2A7PsP0`LQ,0*6D
$IIVHW,175.1,T,182,M,6.74,N,12.49,K*79
$IIMWV,33,R,27.2,N,A*24
$IIVWR,33,R,27.2,N,14.0,M,50.4,K*54
$IIVHW,175.1,T,176,M,6.74,N,12.49,K*72
$IIHDG,176,,,,*57
$IIHDM,176,M*3C
$IIXDR,A,-26.4,D,ROLL*65
$IIRSA,1.0,A,,V*78
$IIVHW,183.1,T,176,M,6.74,N,12.49,K*7B
$IIMWD,231.1,T,223,M,24.2,N,12.4,M*5B
$IIVTG,167,T,,M,5.8,N,10.8,K,A*30
!AIVDM,1,1,,B,13aEOEPP00PEpqlNC<nW7wwP20S4,0*7B
$IIXDR,A,-25.9,D,ROLL*6B
!AIVDM,1,1,,B,13b08b00000F=b`NFM0t=nCR0<2`,0*7B
$PNKEP,02,274*73
$PNKEP,04,80,160,353,13*60
$PNKEP,05,52,2.0,N,1.0,K*44
$IIGLL,5302.3769,N,00441.9730,E,124047,A,D*52
$IIRMC,124047,A,5302.3769,N,00441.9730,E,5.8,167,160619,1.1,E,D*14
!AIVDM,1,1,,A,E>jMk3QSIFPh40W=2h:6V9P00000:Q0F?evQ881113v000,4*00
$PNKEP,05,52,2.0,N,1.0,K*44
$PNKEP,11,13.4,2.38,0,100*62
$IIZDA,124048,16,06,2019,,*5F
$IIXDR,A,-25.3,D,ROLL*61
$IIMTW,19.3,C*18
!AIVDO,1,1,,,B3aKV<P0>p5H=>WUUpuckwpUoP06,0*35
$IIDPT,4.0,,*46
$IIDBT,13.1,f,4.0,M,,*4E
!AIVDM,1,1,,A,E>jMk3QSIFPh40W=2h:6V9P00000:Q0F?evQ881113v000,4*00
$IIXDR,A,-24.8,D,ROLL*6B
$IIRSA,-0.7,A,,V*53
$IIMWV,48,T,24.2,N,A*2D
$IIVWT,48,R,24.2,N,12.4,M,44.8,K*56
$IIMWD,231.1,T,230,M,24.2,N,12.4,M*59
!AIVDM,1,1,,A,33aGDewP00PEmlRNCH?=jgwP22mA,0*01
$IIXDR,A,-24.4,D,ROLL*67
$IIRSA,-8.7,A,,V*5B
$IIVHW,183.1,T,176,M,6.76,N,12.52,K*73
$IIMWV,34,R,27.2,N,A*23
$IIVWR,34,R,27.2,N,14.0,M,50.4,K*53
$IIHDG,179,,,,*58
$IIHDM,179,M*33
$IIVTG,167,T,,M,5.8,N,10.7,K,A*3F
$IIVTG,168,T,,M,5.8,N,10.7,K,A*30
$IIXDR,A,-23.9,D,ROLL*6D
$IIRSA,-7.0,A,,V*53
$IIVHW,180.1,T,179,M,6.76,N,12.52,K*7F
$IIMWD,229.1,T,230,M,24.2,N,12.4,M*50
$PNKEP,01,7.42,N,3.82,K*60
$PNKEP,03,42,86,0*7B
$IIGLL,5302.3757,N,00441.9730,E,124048,A,D*50
$IIRMC,124048,A,5302.3757,N,00441.9730,E,5.8,168,160619,1.1,E,D*19
$IIGLL,5302.3757,N,00441.9735,E,124048,A,D*55
$IIRMC,124048,A,5302.3757,N,00441.9735,E,5.8,168,160619,1.1,E,D*1C
$IIZDA,124049,16,06,2019,,*5E
$PNKEP,11,13.4,2.42,0,100*6F
$IIXDR,A,-23.3,D,ROLL*67
$IIRSA,-2.0,A,,V*56
!AIVDM,1,1,,A,13awq200000Ek7<NDvq0095L0HM=,0*21
$IIVLW,4231.29,N,73.29,N*4D
$IIRMB,A,0.06,R,,,,,,,1.5,180,5.65,A,A*5D
$PNKEP,01,7.36,N,3.79,K*67
$PNKEP,02,273*74
$PNKEP,03,42,88,0*75
$PNKEP,04,83,160,354,11*66
$PNKEP,05,52,2.0,N,1.0,K*44
$IIXDR,A,-23.0,D,ROLL*64
$IIRSA,-0.7,A,,V*53
$PNKEP,05,52,2.0,N,1.0,K*44
!AIVDM,1,1,,B,13bWT600000Er9tNC6b:k93T0D2J,0*60
$IIMWV,48,T,24.0,N,A*2F
$IIVWT,48,R,24.0,N,12.3,M,44.4,K*5F
$IIMWD,229.1,T,230,M,24.0,N,12.3,M*55
$IIMWV,49,T,24.0,N,A*2E
$IIVWT,49,R,24.0,N,12.3,M,44.4,K*5E
$IIMWD,229.1,T,228,M,24.0,N,12.3,M*5C
$PNKEP,12,13.1,,,*72
$IIXDR,A,-22.9,D,ROLL*6C
!AIVDO,1,1,,A,B3aKV<P0>85H=@7UUoucOwq5oP06,0*78
$IIRSA,0.0,A,,V*79
$IIVHW,180.1,T,179,M,6.71,N,12.42,K*79
!AIVDM,1,1,,B,13`eH@G000PF>3rNFPIL<8=T0l1K,0*22
$IIDPT,3.8,,*49
$IIDBT,12.5,f,3.8,M,,*44
$IIMWV,34,R,27.1,N,A*20
$IIVWR,34,R,27.1,N,13.9,M,50.2,K*58
$IIVTG,168,T,,M,5.8,N,10.7,K,A*30
$IIVTG,169,T,,M,5.8,N,10.7,K,A*31
$IIXDR,A,-23.1,D,ROLL*65
$IIVHW,180.1,T,179,M,6.71,N,12.42,K*79
$IIHDG,179,,,,*58
$IIHDM,179,M*33
!AIVDM,1,1,,B,E>jMk3i`HpnQ@22h9:db2a@:6V9P7c3P>vs7@81113v000,4*21
$IIGLL,5302.3742,N,00441.9735,E,124049,A,D*50
$IIRMC,124049,A,5302.3742,N,00441.9735,E,5.8,169,160619,1.1,E,D*18
!AIVDM,1,1,,A,13rmQj00000ErJbNCAa00?wR0@MV,0*73
$IIGLL,5302.3742,N,00441.9738,E,124049,A,D*5D
$IIRMC,124049,A,5302.3742,N,00441.9738,E,5.8,169,160619,1.1,E,D*15
$PNKEP,11,13.4,2.45,0,100*68
$IIXDR,C,18.4,C,AirTemp*2B
!AIVDM,1,1,,A,13aDk>70000G2PLNBbJUNkoV0D3@,0*60
$IIZDA,124050,16,06,2019,,*56
$IIXDR,A,-23.0,D,ROLL*64
!AIVDM,1,1,,B,E>jMk3i`HpnQ@22h9:db2a@:6V9P7c3P>vs7@81113v000,4*21
$IIMWV,49,T,23.8,N,A*21
$IIVWT,49,R,23.8,N,12.2,M,44.1,K*55
$IIMWD,229.1,T,228,M,23.8,N,12.2,M*52
$IIXDR,A,-22.8,D,ROLL*6D
$IIRSA,0.3,A,,V*7A
$PNKEP,01,7.42,N,3.82,K*60
$PNKEP,02,276*71
$PNKEP,03,42,86,0*7B
$PNKEP,04,82,160,353,13*62
$PNKEP,05,52,2.0,N,1.0,K*44
!AIVDM,1,1,,B,13cN@600000EpwBNCQAerqSb00Rj,0*3E
$IIVWR,34,R,27.2,N,14.0,M,50.4,K*53
$PNKEP,05,52,2.0,N,1.0,K*44
$IIVHW,180.1,T,179,M,6.67,N,12.36,K*7D
$IIVHW,180.1,T,177,M,6.67,N,12.36,K*73
$IIHDG,177,,,,*56
$IIHDM,177,M*3D
!AIVDM,1,1,,A,13HWdu?P00PEpQLNC>O94?wT25RP,0*55
$IIXDR,A,-22.7,D,ROLL*62
$IIRSA,-6.7,A,,V*55
$IIVTG,169,T,,M,5.7,N,10.6,K,A*3F
$IIMTW,19.3,C*18
$IIVTG,170,T,,M,5.7,N,10.6,K,A*37
$IIXDR,U,13.314,V,BatWiFi*11
$IIDPT,3.7,,*46
$IIDBT,12.2,f,3.7,M,,*4C
!AIVDO,1,1,,,B3aKV<P0=p5H=BWUUo1cOwqUoP06,0*34
!AIVDM,1,1,,B,402E351v=`<`jPEWC@NC:iG00<3b,0*49
!AIVDM,1,1,,B,13`fJDh01RPEsEhNDCkW70AT0D<P,0*20
$IIRMC,124050,A,5302.3730,N,00441.9738,E,5.7,170,160619,1.1,E,D*1F
$IIRSA,-8.0,A,,V*5C
$IIGLL,5302.3730,N,00441.9741,E,124050,A,D*5E
$IIRMC,124050,A,5302.3730,N,00441.9741,E,5.7,170,160619,1.1,E,D*11
$PNKEP,11,13.4,2.42,0,100*6F
!AIVDM,1,1,,B,13bKfB001VPE0IfN@vulmCuT0@N6,0*21
!AIVDM,1,1,,A,13a0NL0P1V0FHkVNDcl:ROwT0PS<,0*7D
$IIXDR,A,-23.0,D,ROLL*64
$IIRSA,-3.0,A,,V*57
!AIVDM,1,1,,A,33bThJ0P@o0EqrfNCPD26AG`0130,0*14
$IIVLW,4231.30,N,73.30,N*4D
$IIZDA,124051,16,06,2019,,*57
$IIMWV,49,T,23.7,N,A*2E
$IIVWT,49,R,23.7,N,12.2,M,43.9,K*55
$IIMWD,229.1,T,228,M,23.7,N,12.2,M*5D
$IIMWV,48,T,23.7,N,A*2F
$IIVWT,48,R,23.7,N,12.2,M,43.9,K*54
$IIMWD,229.1,T,225,M,23.7,N,12.2,M*50
$IIXTE,A,A,0.05,R,N,A,*23
$IIRMB,A,0.06,R,,,,,,,1.5,180,5.62,A,A*5A
!AIVDM,1,1,,B,402E35Av=`<`kPE@mhN:Rd7005RP,0*1F
$IIXDR,A,-23.5,D,ROLL*61
$IIRSA,-1.7,A,,V*52
$IIVHW,178.1,T,177,M,6.67,N,12.36,K*74
$IIMWD,226.1,T,225,M,23.7,N,12.2,M*5F
!AIVDM,1,1,,B,181:K`001n0D=dDNKm>og67T05RP,0*36
$IIVHW,178.1,T,177,M,6.66,N,12.33,K*70
$IIVWR,34,R,27.0,N,13.9,M,50.0,K*5B
$IIXDR,A,-24.0,D,ROLL*63
$IIHDG,173,,,,*52
$IIHDM,173,M*39
$IIVTG,170,T,,M,5.6,N,10.4,K,A*34
!AIVDM,1,1,,A,13aEOE<P0I0EpspNC<v3ROw420S:,0*58
$PNKEP,01,7.35,N,3.78,K*65
$PNKEP,02,273*74
$PNKEP,03,42,87,0*7A
$PNKEP,04,86,159,354,12*6A
$PNKEP,05,52,2.0,N,1.0,K*44
$IIXDR,A,-24.6,D,ROLL*65
$IIRSA,-1.3,A,,V*56
$PNKEP,05,52,2.0,N,1.0,K*44
$IIGLL,5302.3719,N,00441.9741,E,124051,A,D*54
$IIRMC,124051,A,5302.3719,N,00441.9741,E,5.6,170,160619,1.1,E,D*1A
!AIVDM,1,1,,A,E>jN6<?20W3Ra7bah0a2PP0000009HUO>sAdP00003v010,4*05
$IIDPT,4.1,,*47
$IIDBT,13.5,f,4.1,M,,*4B
$IIGLL,5302.3719,N,00441.9746,E,124051,A,D*53
$IIRMC,124051,A,5302.3719,N,00441.9746,E,5.6,170,160619,1.1,E,D*1D
!AIVDM,1,1,,B,337SrF5000PEoC:NCI66=TwV034A,0*09
$PNKEP,12,13.1,,,*72
$IIXDR,A,-25.1,D,ROLL*63
$IIRSA,-1.7,A,,V*52
!AIVDM,1,1,,B,13bKVN?P00PElspNCOKP0?w`2HNW,0*21
!AIVDM,1,1,,A,E>jN6<?20W3Ra7bah0a2PP0000009HUO>sAdP00003v010,4*05
$IIXDR,A,-25.4,D,ROLL*66
$IIZDA,124052,16,06,2019,,*54
$IIXDR,A,-25.6,D,ROLL*64
$IIRSA,-5.0,A,,V*51
$IIMWV,34,R,26.9,N,A*29
$IIVWR,34,R,26.9,N,13.8,M,49.8,K*52
$IIMWV,33,R,26.9,N,A*2E
$IIVWR,33,R,26.9,N,13.8,M,49.8,K*55
$IIHDG,179,,,,*58
$IIHDM,179,M*33
$IIXDR,C,18.4,C,AirTemp*2B
$IIVTG,170,T,,M,5.6,N,10.4,K,A*34
$IIVTG,167,T,,M,5.6,N,10.4,K,A*32
$IIXDR,A,-25.8,D,ROLL*6A
$IIRSA,-7.3,A,,V*50
$IIVHW,174.1,T,179,M,6.66,N,12.33,K*72
$IIMWD,222.1,T,225,M,23.7,N,12.2,M*5B
!AIVDM,1,1,,A,13adG20000PEpC0NCPRn@A?`00Ro,0*40
$IIGLL,5302.3703,N,00441.9746,E,124052,A,D*5B
$IIRMC,124052,A,5302.3703,N,00441.9746,E,5.6,167,160619,1.1,E,D*13
$IIGLL,5302.3703,N,00441.9753,E,124052,A,D*5F
$IIRMC,124052,A,5302.3703,N,00441.9753,E,5.6,167,160619,1.1,E,D*17
!AIVDM,1,1,,A,15BO5P002IPCf4fNIfUpuG7V0<<M,0*7C
$PNKEP,11,13.4,2.46,0,100*6B
$PNKEP,02,272*75
$PNKEP,04,87,159,354,12*6B
$PNKEP,05,52,2.0,N,1.0,K*44
$IIXDR,A,-25.7,D,ROLL*65
$IIRSA,-7.0,A,,V*53
$IIDPT,3.9,,*48
$IIDBT,12.8,f,3.9,M,,*48
$PNKEP,05,52,2.0,N,1.0,K*44
!AIVDM,1,1,,B,13aQdgh01aPEqdjNDEg0?@GT00Ru,0*25
$IIXDR,A,-25.2,D,ROLL*60
$IIRSA,-3.3,A,,V*54
!AIVDM,1,1,,B,13aAPB0000PEpEhNC?nh01Mb28O7,0*35
!AIVDM,1,1,,A,13m3FH001`PDO:`NI;vA@Q3`0D14,0*1C
$IIMTW,19.3,C*18
$IIMWV,48,T,23.5,N,A*2D
$IIVWT,48,R,23.5,N,12.1,M,43.5,K*59
$IIMWD,222.1,T,225,M,23.5,N,12.1,M*5A
$IIMWD,222.1,T,221,M,23.5,N,12.1,M*5E
!AIVDM,1,1,,B,33aB7l50000EpW4NCOkJVA;`0Dob,0*68
!AIVDO,1,1,,,B3aKV<P0>`5H=IWUUlua?wrUoP06,0*1A
$IIXDR,A,-24.9,D,ROLL*6A
$IIRSA,-1.0,A,,V*55
$IIVHW,174.1,T,179,M,6.68,N,12.37,K*78
$IIVLW,4231.30,N,73.30,N*4D
$IIVHW,174.1,T,179,M,6.68,N,12.37,K*78
$IIHDG,179,,,,*58
$IIHDM,179,M*33
$IIVTG,167,T,,M,5.7,N,10.6,K,A*31
!AIVDM,1,1,,A,177>7w0vkG0DB;bNHk:i3hq`08OC,0*1C
$IIXDR,A,-24.8,D,ROLL*6B
!AIVDM,1,1,,B,E>jMjb1WT;9h19Q00000000000006jDo>k9<0D2RRSv000,4*30
$IIGLL,5302.3694,N,00441.9753,E,124052,A,D*50
$IIRMC,124052,A,5302.3694,N,00441.9753,E,5.7,167,160619,1.1,E,D*19
$IIGLL,5302.3694,N,00441.9756,E,124052,A,D*55
$IIRMC,124052,A,5302.3694,N,00441.9756,E,5.7,167,160619,1.1,E,D*1C
$IIRMB,A,0.06,R,,,,,,,1.5,180,5.56,A,A*5D
$IIXDR,A,-24.9,D,ROLL*6A
$IIRSA,-5.7,A,,V*56
$IIVHW,180.1,T,179,M,6.68,N,12.37,K*73
$IIMWD,227.1,T,221,M,23.5,N,12.1,M*5B
$PNKEP,11,13.4,2.48,0,100*65
!AIVDM,1,1,,A,13bAqH?000PF>E6NFPPElRab08OL,0*11
$IIXDR,A,-25.2,D,ROLL*60
!AIVDM,1,1,,A,13nMgR000<PErKPNCLnKC3?d0@OR,0*60
$IIRSA,-8.7,A,,V*5B
$IIMWV,48,T,23.3,N,A*2B
$IIVWT,48,R,23.3,N,12.0,M,43.2,K*59
$IIMWD,227.1,T,221,M,23.3,N,12.0,M*5C
$PNKEP,01,7.35,N,3.78,K*65
$PNKEP,03,42,87,0*7A
$PNKEP,01,7.34,N,3.78,K*64
$PNKEP,04,85,159,354,12*69
$PNKEP,05,52,2.0,N,1.0,K*44
$IIMWV,47,T,23.3,N,A*24
$IIVWT,47,R,23.3,N,12.0,M,43.2,K*56
$IIMWD,227.1,T,226,M,23.3,N,12.0,M*5B
$PNKEP,01,7.35,N,3.78,K*65
$PNKEP,01,7.34,N,3.78,K*64
$PNKEP,05,52,2.0,N,1.0,K*44
$IIXDR,A,-25.6,D,ROLL*64
$IIRSA,-8.0,A,,V*5C
$PNKEP,01,7.35,N,3.78,K*65
$PNKEP,01,7.34,N,3.78,K*64
!AIVDM,1,1,,B,15S1D400000EorhNCBCIa:Gd20Rh,0*36
$PNKEP,01,7.35,N,3.78,K*65
$PNKEP,01,7.34,N,3.78,K*64
$IIDPT,3.7,,*46
$IIDBT,12.2,f,3.7,M,,*4C
$PNKEP,01,7.35,N,3.78,K*65
$PNKEP,01,7.34,N,3.78,K*64
$IIMWV,33,R,26.8,N,A*2F
$IIVWR,33,R,26.8,N,13.8,M,49.6,K*5A
$IIMWV,34,R,26.8,N,A*28
$IIVWR,34,R,26.8,N,13.8,M,49.6,K*5D
$PNKEP,12,13.1,,,*72
$PNKEP,01,7.35,N,3.78,K*65
$PNKEP,01,7.34,N,3.78,K*64
$IIXDR,A,-26.2,D,ROLL*63
$IIRSA,-5.0,A,,V*51
$IIVTG,167,T,,M,5.7,N,10.6,K,A*31
$IIVTG,170,T,,M,5.7,N,10.6,K,A*37
!AIVDM,1,1,,A,13`niF00000EqmrNC871vDAd2@Ol,0*6B
$IIZDA,124053,16,06,2019,,*55
$PNKEP,01,7.34,N,3.78,K*64
$IIXDR,A,-26.6,D,ROLL*67
$IIRSA,-2.0,A,,V*56
$IIVHW,180.1,T,179,M,6.68,N,12.37,K*73
$IIHDG,179,,,,*58
$IIHDM,179,M*33
!AIVDM,1,1,,B,13b80T0000PF<whNFGQHLQSf2@Op,0*1F
$PNKEP,11,13.4,2.47,0,100*6A
!AIVDM,2,1,9,A,53a7o642;sR@0000000kWG;N222222222222220S0000040Ht50000000000,0*29
!AIVDM,2,2,9,A,00000000008,2*25
$IIXDR,A,-26.7,D,ROLL*66
$IIRSA,1.3,A,,V*7B
$IIXDR,C,18.4,C,AirTemp*2B
$PNKEP,02,272*75
$IIMWV,48,T,23.3,N,A*2B
$IIVWT,48,R,23.3,N,12.0,M,43.2,K*59
$IIXDR,A,-26.8,D,ROLL*69
$IIRSA,2.7,A,,V*7C
$IIMWD,228.1,T,227,M,23.3,N,12.0,M*55
!AIVDM,1,1,,B,13aC=b?0010F=nLNFP57eF?f05RP,0*1A
!AIVDM,1,1,,A,13`ia>00000F>@RNFPDlw`Ef0@P9,0*75
$IIVHW,180.1,T,179,M,6.67,N,12.36,K*7D
$PNKEP,03,41,87,0*79
$PNKEP,04,81,161,353,12*61
$PNKEP,05,52,2.0,N,1.0,K*44
$IIXDR,A,-27.0,D,ROLL*60
$IIVHW,180.1,T,175,M,6.67,N,12.36,K*71
$IIHDG,175,,,,*54
$IIHDM,175,M*3F
$PNKEP,05,52,2.0,N,1.0,K*44
$IIDPT,3.9,,*48
$IIDBT,12.8,f,3.9,M,,*48
$IIVTG,170,T,,M,5.6,N,10.4,K,A*34
!AIVDM,1,1,,B,33bThJ0P@o0EqsrNCPIAv1Af00mi,0*4A
$IIXDR,A,-27.3,D,ROLL*63
$IIRSA,0.7,A,,V*7E
$IIGLL,5302.3682,N,00441.9756,E,124053,A,D*53
$IIRMC,124053,A,5302.3682,N,00441.9756,E,5.6,170,160619,1.1,E,D*1D
$IIMTW,19.3,C*18
$IIGLL,5302.3682,N,00441.9761,E,124053,A,D*57
$IIRMC,124053,A,5302.3682,N,00441.9761,E,5.6,170,160619,1.1,E,D*19
$PNKEP,11,13.4,2.42,0,100*6F
!AIVDM,1,1,,A,E>jMjbQRHq1000000000000000006LV@?T<mPI3;;;v000,4*4C
$IIZDA,124054,16,06,2019,,*52
!AIVDO,1,1,,,B3aKV<P0>H5H=L7UUk1cSwsUoP06,0*7B
!AIVDM,1,1,,A,E>jMjbQRHq1000000000000000006LV@?T<mPI3;;;v000,4*4C
$IIXDR,A,-27.8,D,ROLL*68
$IIRSA,-6.0,A,,V*52
!AIVDM,1,1,,A,33bk6H70000EpeFNC=R1J4=h04Mk,0*2A
$IIVLW,4231.30,N,73.30,N*4D
$IIXTE,A,A,0.05,R,N,A,*23
$IIRMB,A,0.06,R,,,,,,,1.5,180,5.62,A,A*5A
$IIXDR,A,-28.5,D,ROLL*6A
$IIRSA,-7.0,A,,V*53
!AIVDM,2,1,0,B,55S1D401@@DDPw;7;N0Lhtl5:1<<uEB22222220W38=255WF08i1C`21C11D,0*2C
!AIVDM,2,2,0,B,`8888888880,2*7F
$IIXDR,A,-29.1,D,ROLL*6F
$IIRSA,-6.7,A,,V*55
!AIVDM,1,1,,B,13ad;D?P00PF=2@NFHl=Igvd0hPT,0*1A
$IIVHW,176.1,T,175,M,6.67,N,12.36,K*78
$IIMWD,225.1,T,227,M,23.3,N,12.0,M*58
$IIVHW,176.1,T,175,M,6.66,N,12.33,K*7C
$IIMWV,34,R,26.6,N,A*26
$IIVWR,34,R,26.6,N,13.7,M,49.3,K*59
$IIVHW,176.1,T,177,M,6.66,N,12.33,K*7E
$IIHDG,177,,,,*56
$IIHDM,177,M*3D
$IIVTG,170,T,,M,5.6,N,10.3,K,A*33
$IIXDR,A,-29.7,D,ROLL*69
$IIDPT,4.3,,*45
$IIDBT,14.1,f,4.3,M,,*4A
!AIVDM,1,1,,A,13miWD002UPDUG2NPJk7mV=j0<<M,0*79
$IIGLL,5302.3666,N,00441.9761,E,124054,A,D*5A
$IIRMC,124054,A,5302.3666,N,00441.9761,E,5.6,170,160619,1.1,E,D*14
$PNKEP,02,271*76
$PNKEP,04,84,161,353,12*64
$PNKEP,05,52,2.0,N,1.0,K*44
$IIGLL,5302.3666,N,00441.9764,E,124054,A,D*5F
$IIRMC,124054,A,5302.3666,N,00441.9764,E,5.6,170,160619,1.1,E,D*11
$PNKEP,11,13.4,2.37,0,100*6D
$PNKEP,05,52,2.0,N,1.0,K*44
$IIXDR,A,-30.1,D,ROLL*67
$IIZDA,124055,16,06,2019,,*53
$PNKEP,12,13.1,,,*72
$PNKEP,01,7.34,N,3.78,K*64
$IIXDR,A,-30.4,D,ROLL*62
!AIVDM,1,1,,B,E>jMjbiRpt0P00000000000000008wRn?NvA0I3;;;v000,4*28
$IIMWV,48,T,23.5,N,A*2D
$IIVWT,48,R,23.5,N,12.1,M,43.5,K*59
$IIMWD,225.1,T,227,M,23.5,N,12.1,M*5F
$IIMWV,49,T,23.5,N,A*2C
$IIVWT,49,R,23.5,N,12.1,M,43.5,K*58
$IIMWD,225.1,T,224,M,23.5,N,12.1,M*5C
!AIVDM,2,1,1,A,55DOHL41hI1LQ23WWO@@F1I8uEN0l58TF222221J30<6240Ht00000000000,0*1C
!AIVDM,2,2,1,A,00000000000,2*25
$IIXDR,A,-30.6,D,ROLL*60
$IIRSA,-6.0,A,,V*52
!AIVDM,1,1,,B,13af8D70000Ep0DNCB6S@A;j0@Q2,0*43
$IIHDG,180,,,,*5E
$IIHDM,180,M*35
$IIVTG,168,T,,M,5.6,N,10.3,K,A*3A
$IIXDR,A,-30.7,D,ROLL*61
$IIRSA,-4.7,A,,V*57
$IIXDR,C,18.4,C,AirTemp*2B
$PNKEP,03,41,87,0*79
$IIGLL,5302.3654,N,00441.9764,E,124055,A,D*5F
$IIRMC,124055,A,5302.3654,N,00441.9764,E,5.6,168,160619,1.1,E,D*18
$IIGLL,5302.3654,N,00441.9771,E,124055,A,D*5B
$IIRMC,124055,A,5302.3654,N,00441.9771,E,5.6,168,160619,1.1,E,D*1C
$IIXDR,A,-30.8,D,ROLL*6E
$IIRSA,-4.0,A,,V*50
$IIVHW,181.1,T,180,M,6.66,N,12.33,K*7E
$IIMWD,230.1,T,224,M,23.5,N,12.1,M*58
$PNKEP,11,13.4,2.39,0,100*63
!AIVDM,1,1,,B,139osvPP000EpjtNC=M00?wj0D3S,0*24
$IIXDR,A,-31.0,D,ROLL*67
!AIVDM,1,1,,B,13`fKb`P00PEnARNCOCf4?wh20R`,0*13
$PNKEP,01,7.41,N,3.81,K*60
$PNKEP,02,273*74
$PNKEP,03,42,85,0*78
