$IIHDG,233,,,,*55
$IIHDM,233,M*3E
$GPGGA,162605.00,4729.97721,N,00222.58569,W,2,12,0.75,5.8,M,48.7,M,,0000*4B
$GPGSA,A,3,16,20,27,30,32,11,08,10,07,40,22,01,1.24,0.75,0.99*0E
$GPGSA,A,3,16,20,27,30,32,11,08,10,07,40,22,01,1.24,0.75,0.99*0E
$IIRSA,-1.3,A,,V*56
$GPGSV,4,1,15,01,29,256,37,07,06,273,34,08,81,312,46,10,49,066,49*75
$GPGSV,4,1,15,01,29,256,37,07,06,273,34,08,81,312,46,10,49,066,49*75
$IIRSA,-1.0,A,,V*55
$GPGSV,4,2,15,11,53,282,46,14,01,132,,16,21,176,40,20,20,047,43*77
$GPGSV,4,2,15,11,53,282,46,14,01,132,,16,21,176,40,20,20,047,43*77
$GPGSV,4,3,15,21,03,073,41,22,18,202,43,27,61,115,49,28,03,328,*7F
$GPGSV,4,3,15,21,03,073,41,22,18,202,43,27,61,115,49,28,03,328,*7F
$GPGSV,4,4,15,30,08,302,34,32,12,115,44,40,13,115,33*44
$GPGSV,4,4,15,30,08,302,34,32,12,115,44,40,13,115,33*44
$GPRMC,162606.00,A,4729.97719,N,00222.58568,W,0.025,,220520,,,D*6F
$GPVTG,,T,,M,0.025,N,0.047,K,D*22
$IIVTG,208,T,,M,0.0,N,0.1,K,A*0F
$IIMWV,37,T,10.0,N,A*20
$IIVWT,37,R,10.0,N,5.1,M,18.5,K*6C
$IIMWD,,T,269,M,10.0,N,5.1,M*4C
$IIMWD,,T,270,M,10.0,N,5.1,M*44
$IIRSA,-1.3,A,,V*56
$GPGGA,162606.00,4729.97719,N,00222.58568,W,2,12,0.75,5.9,M,48.7,M,,0000*43
$IIRSA,-1.0,A,,V*55
$IIMWV,37,R,9.9,N,A*17
$IIVWR,37,R,9.9,N,5.1,M,18.3,K*5D
$GPGSA,A,3,16,20,27,30,32,11,08,10,07,40,22,01,1.24,0.75,0.99*0E
$GPGSA,A,3,16,20,27,30,32,11,08,10,07,40,22,01,1.24,0.75,0.99*0E
$GPGSV,4,1,15,01,29,256,38,07,06,273,33,08,81,312,46,10,49,066,50*75
$GPGSV,4,1,15,01,29,256,38,07,06,273,33,08,81,312,46,10,49,066,50*75
$GPGSV,4,2,15,11,53,282,46,14,01,132,,16,21,176,40,20,20,047,43*77
$GPGSV,4,2,15,11,53,282,46,14,01,132,,16,21,176,40,20,20,047,43*77
$IIRSA,-1.3,A,,V*56
$GPGSV,4,3,15,21,03,073,42,22,18,202,42,27,61,115,49,28,03,328,*7D
$IIMWV,37,T,9.8,N,A*10
$IIVWT,37,R,9.8,N,5.0,M,18.1,K*59
$GPGSV,4,3,15,21,03,073,42,22,18,202,42,27,61,115,49,28,03,328,*7D
$IIMWD,,T,270,M,9.8,N,5.0,M*75
$PNKEP,01,4.00,N,2.06,K*68
$PNKEP,02,337*75
$PNKEP,03,44,109,87*74
$PNKEP,04,224,109,224,109*68
$PNKEP,05,204,0.9,N,0.5,K*7A
$IIRSA,-1.0,A,,V*55
$GPGSV,4,4,15,30,08,302,34,32,12,115,43,40,13,115,33*43
$GPGSV,4,4,15,30,08,302,34,32,12,115,43,40,13,115,33*43
$IIMWV,36,R,9.9,N,A*16
$IIVWR,36,R,9.9,N,5.1,M,18.3,K*5C
$GPRMC,162607.00,A,4729.97717,N,00222.58565,W,0.015,,220520,,,D*6E
$GPVTG,,T,,M,0.015,N,0.028,K,D*28
$IIVTG,208,T,,M,0.0,N,0.0,K,A*0E
$GPGGA,162607.00,4729.97717,N,00222.58565,W,2,12,0.75,6.0,M,48.7,M,,0000*4B
$IIRSA,-1.3,A,,V*56
$IIVHW,,T,233,M,0.00,N,0.00,K*67
$IIHDG,233,,,,*55
$IIHDM,233,M*3E
$GPGSA,A,3,16,20,27,30,32,11,08,10,07,40,22,01,1.24,0.75,0.99*0E
$GPGSA,A,3,16,20,27,30,32,11,08,10,07,40,22,01,1.24,0.75,0.99*0E
$IIRSA,-1.0,A,,V*55
$GPGSV,4,1,15,01,29,256,37,07,06,273,33,08,81,312,46,10,49,066,50*7A
$GPGSV,4,1,15,01,29,256,37,07,06,273,33,08,81,312,46,10,49,066,50*7A
$IIMWV,36,R,9.8,N,A*17
$IIVWR,36,R,9.8,N,5.0,M,18.1,K*5E
$GPGSV,4,2,15,11,53,282,45,14,01,132,,16,21,176,40,20,20,047,43*74
$IIRSA,-1.3,A,,V*56
$GPGSV,4,2,15,11,53,282,45,14,01,132,,16,21,176,40,20,20,047,43*74
$IIRSA,-1.0,A,,V*55
$GPGSV,4,3,15,21,03,073,42,22,18,202,43,27,61,115,49,28,03,328,*7C
$GPGSV,4,3,15,21,03,073,42,22,18,202,43,27,61,115,49,28,03,328,*7C
$PNKEP,01,5.0,N,9.3,K*67
$PNKEP,02,307.0*68
$PNKEP,03,44.0,0.0,0.0*5D
$PNKEP,04,226.0,0.0,226.0,0.0*68
$PNKEP,05,0.0,0.0,N,0.0,K*6E
$GPWPL,4730.358,N,00228.640,W,POI_GO*5C
$GPBWC,162807.00,4730.358,N,00228.640,W,275.4,T,,M,4.1,N,POI_GO*1F
$GPBWR,162807.00,4730.358,N,00228.640,W,275.3,T,,M,4.1,N,POI_GO*09
$GPRMB,A,0,L,POI_GO,LauBen,4730.358,N,00228.640,W,4.1,275.4,0.0,V,%14*13
$GPTXT,01,01,00,txbuf alloc*7F
$PNKEP,01,5.00,N,2.57,K*6D
$GPTXT,01,01,00,txbuf alloc*7F
$PNKEP,02,307*76
$PNKEP,03,44,0,0*43
$PNKEP,04,226,0,226,0*68
$PNKEP,05,0,0.0,N,0.0,K*70
$IIRMB,A,0.00,R,,,,,,,4.1,275,4.40,A,A*55
$IIXTE,A,A,0.00,R,N,A,*26
$IIRMB,A,0.01,R,,,,,,,4.1,275,4.40,A,A*54
$IIXTE,A,A,0.01,R,N,A,*27
$IIRMB,A,0.02,R,,,,,,,4.1,275,4.40,A,A*57
$GPRMC,162608.00,A,4729.97717,N,00222.58564,W,0.009,,220520,,,D*6D
$IIXTE,A,A,0.02,R,N,A,*24
$IIRMB,A,0.03,R,,,,,,,4.1,275,4.40,A,A*56
$IIXTE,A,A,0.03,R,N,A,*25
$IIRMB,A,0.04,R,,,,,,,4.1,275,4.40,A,A*51
$IIXTE,A,A,0.04,R,N,A,*22
$IIRMB,A,0.05,R,,,,,,,4.1,275,4.40,A,A*50
$GPVTG,,T,,M,0.009,N,0.017,K,D*29
$IIMWV,36,T,9.8,N,A*11
$IIVWT,36,R,9.8,N,5.0,M,18.1,K*58
$IIMWD,,T,269,M,9.8,N,5.0,M*7D
$IIVTG,208,T,,M,0.0,N,0.0,K,A*0E
$IIXTE,A,A,0.05,R,N,A,*23
$IIRMB,A,0.06,R,,,,,,,4.1,275,4.40,A,A*53
$IIDPT,4.9,,*4F
$IIDBT,16.1,f,4.9,M,,*42
$IIXTE,A,A,0.06,R,N,A,*20
$IIRMB,A,0.07,R,,,,,,,4.1,275,4.40,A,A*52
$IIXTE,A,A,0.07,R,N,A,*21
$IIRMB,A,0.08,R,,,,,,,4.1,275,4.40,A,A*5D
$IIXTE,A,A,0.08,R,N,A,*2E
$GPGGA,162608.00,4729.97717,N,00222.58564,W,2,12,0.75,6.0,M,48.7,M,,0000*45
$IIRMB,A,0.09,R,,,,,,,4.1,275,4.40,A,A*5C
$IIMWV,36,R,9.7,N,A*18
$IIVWR,36,R,9.7,N,5.0,M,18.0,K*50
$IIGLL,4729.9772,N,00222.5856,W,074528,A,D*44
$IIRMC,074528,A,4729.9772,N,00222.5856,W,0.0,208,010618,,,D*69
$IIXTE,A,A,0.09,R,N,A,*2F
$IIRMB,A,0.10,R,,,,,,,4.1,275,4.40,A,A*54
$IIMWV,35,R,9.7,N,A*1B
$IIVWR,35,R,9.7,N,5.0,M,18.0,K*53
$IIXTE,A,A,0.10,R,N,A,*27
$IIRMB,A,0.11,R,,,,,,,4.1,275,4.40,A,A*55
$IIRSA,-1.3,A,,V*56
$IIXTE,A,A,0.11,R,N,A,*26
$IIRMB,A,0.12,R,,,,,,,4.1,275,4.40,A,A*56
$IIXTE,A,A,0.12,R,N,A,*25
$GPGSA,A,3,16,20,27,30,32,11,08,10,07,40,22,01,1.24,0.75,0.99*0E
$IIRMB,A,0.13,R,,,,,,,4.1,275,4.40,A,A*57
$GPGSA,A,3,16,20,27,30,32,11,08,10,07,40,22,01,1.24,0.75,0.99*0E
$IIRMB,A,0.14,R,,,,,,,4.1,275,4.40,A,A*50
$IIXTE,A,A,0.14,R,N,A,*23
$IIRMB,A,0.15,R,,,,,,,4.1,275,4.40,A,A*51
$IIXTE,A,A,0.15,R,N,A,*22
$IIRMB,A,0.16,R,,,,,,,4.1,275,4.40,A,A*52
$IIXTE,A,A,0.16,R,N,A,*21
$IIRMB,A,0.17,R,,,,,,,4.1,275,4.40,A,A*53
$GPGSV,4,1,15,01,29,256,38,07,06,273,33,08,81,312,46,10,49,066,50*75
$IIXTE,A,A,0.17,R,N,A,*20
$IIRMB,A,0.18,R,,,,,,,4.1,275,4.40,A,A*5C
$GPGSV,4,1,15,01,29,256,38,07,06,273,33,08,81,312,46,10,49,066,50*75
$IIXTE,A,A,0.18,R,N,A,*2F
$IIRMB,A,0.19,R,,,,,,,4.1,275,4.40,A,A*5D
$IIXTE,A,A,0.19,R,N,A,*2E
$IIRMB,A,0.20,R,,,,,,,4.1,275,4.40,A,A*57
$IIXTE,A,A,0.20,R,N,A,*24
$IIRMB,A,0.21,R,,,,,,,4.1,275,4.40,A,A*56
$IIXTE,A,A,0.21,R,N,A,*25
$GPRMC,162609.00,A,4729.97717,N,00222.58562,W,0.030,,220520,,,D*60
$IIRMB,A,0.22,R,,,,,,,4.1,275,4.40,A,A*55
$IIXTE,A,A,0.22,R,N,A,*26
$IIRMB,A,0.23,R,,,,,,,4.1,275,4.40,A,A*54
$IIXDR,C,19.7,C,AirTemp*29
$IIXTE,A,A,0.23,R,N,A,*27
$GPVTG,,T,,M,0.030,N,0.055,K,D*25
$IIRMB,A,0.24,R,,,,,,,4.1,275,4.40,A,A*53
$IIMWV,36,T,9.7,N,A*1E
$IIVWT,36,R,9.7,N,5.0,M,18.0,K*56
$IIMWD,,T,269,M,9.7,N,5.0,M*72
$IIMWV,35,T,9.7,N,A*1D
$IIVWT,35,R,9.7,N,5.0,M,18.0,K*55
$IIVTG,208,T,,M,0.0,N,0.1,K,A*0F
$IIXTE,A,A,0.24,R,N,A,*20
$IIRMB,A,0.25,R,,,,,,,4.1,275,4.40,A,A*52
$IIRSA,-1.0,A,,V*55
$IIMWD,,T,268,M,9.7,N,5.0,M*73
$IIXTE,A,A,0.25,R,N,A,*21
$IIRMB,A,0.26,R,,,,,,,4.1,275,4.40,A,A*51
$IIXTE,A,A,0.26,R,N,A,*22
$IIRMB,A,0.27,R,,,,,,,4.1,275,4.40,A,A*50
$IIXTE,A,A,0.27,R,N,A,*23
$IIRMB,A,0.28,R,,,,,,,4.1,275,4.40,A,A*5F
$GPGGA,162609.00,4729.97717,N,00222.58562,W,2,12,0.75,6.1,M,48.7,M,,0000*43
$IIRSA,-1.3,A,,V*56
$IIXTE,A,A,0.28,R,N,A,*2C
$IIRMB,A,0.29,R,,,,,,,4.1,275,4.40,A,A*5E
$IIMWV,35,R,9.6,N,A*1A
$IIVWR,35,R,9.6,N,4.9,M,17.8,K*5D
$IIXTE,A,A,0.29,R,N,A,*2D
$IIRMB,A,0.30,R,,,,,,,4.1,275,4.40,A,A*56
$IIXTE,A,A,0.30,R,N,A,*25
$IIRMB,A,0.31,R,,,,,,,4.1,275,4.40,A,A*57
$IIXTE,A,A,0.31,R,N,A,*24
$GPGSA,A,3,16,20,27,30,32,11,08,10,07,40,22,01,1.24,0.75,0.99*0E
$IIRMB,A,0.32,R,,,,,,,4.1,275,4.40,A,A*54
$IIRSA,-1.0,A,,V*55
$GPGSA,A,3,16,20,27,30,32,11,08,10,07,40,22,01,1.24,0.75,0.99*0E
$IIDPT,4.8,,*4E
$IIDBT,15.8,f,4.8,M,,*49
$IIXTE,A,A,0.32,R,N,A,*27
$IIRMB,A,0.33,R,,,,,,,4.1,275,4.40,A,A*55
$IIXDR,U,12.104,V,BatWiFi*13
$IIXTE,A,A,0.33,R,N,A,*26
$IIRMB,A,0.34,R,,,,,,,4.1,275,4.40,A,A*52
$IIXTE,A,A,0.34,R,N,A,*21
$IIRMB,A,0.35,R,,,,,,,4.1,275,4.40,A,A*53
$IIXTE,A,A,0.35,R,N,A,*20
$GPGSV,4,1,15,01,29,256,38,07,06,273,35,08,81,312,46,10,49,066,50*73
$IIRMB,A,0.36,R,,,,,,,4.1,275,4.40,A,A*50
$GPGSV,4,1,15,01,29,256,38,07,06,273,35,08,81,312,46,10,49,066,50*73
$IIXTE,A,A,0.36,R,N,A,*23
$IIRMB,A,0.37,R,,,,,,,4.1,275,4.40,A,A*51
$IIXTE,A,A,0.37,R,N,A,*22
$IIRMB,A,0.38,R,,,,,,,4.1,275,4.40,A,A*5E
$IIXTE,A,A,0.38,R,N,A,*2D
$IIRMB,A,0.39,R,,,,,,,4.1,275,4.40,A,A*5F
$GPGSV,4,2,15,11,53,282,46,14,01,132,,16,21,176,39,20,20,047,43*79
$IIXTE,A,A,0.39,R,N,A,*2C
$IIRMB,A,0.40,R,,,,,,,4.1,275,4.40,A,A*51
$GPGSV,4,2,15,11,53,282,46,14,01,132,,16,21,176,39,20,20,047,43*79
$IIXTE,A,A,0.40,R,N,A,*22
$IIRMB,A,0.41,R,,,,,,,4.1,275,4.40,A,A*50
$IIXTE,A,A,0.41,R,N,A,*23
$IIRMB,A,0.42,R,,,,,,,4.1,275,4.40,A,A*53
$IIXTE,A,A,0.42,R,N,A,*20
$IIRMB,A,0.43,R,,,,,,,4.1,275,4.40,A,A*52
$IIXTE,A,A,0.43,R,N,A,*21
$GPGSV,4,3,15,21,03,073,41,22,18,202,43,27,61,115,49,28,03,328,*7F
$IIRMB,A,0.44,R,,,,,,,4.1,275,4.40,A,A*55
$GPGSV,4,3,15,21,03,073,41,22,18,202,43,27,61,115,49,28,03,328,*7F
$IIRSA,-1.3,A,,V*56
$IIXTE,A,A,0.44,R,N,A,*26
$IIRMB,A,0.45,R,,,,,,,4.1,275,4.40,A,A*54
$IIRMB,A,0.46,R,,,,,,,4.1,275,4.40,A,A*57
$IIXTE,A,A,0.46,R,N,A,*24
$IIRMB,A,0.47,R,,,,,,,4.1,275,4.40,A,A*56
$IIXTE,A,A,0.47,R,N,A,*25
$GPGSV,4,4,15,30,08,302,32,32,12,115,44,40,13,115,32*43
$IIRMB,A,0.48,R,,,,,,,4.1,275,4.40,A,A*59
$GPGSV,4,4,15,30,08,302,32,32,12,115,44,40,13,115,32*43
$IIRSA,-1.0,A,,V*55
$IIXTE,A,A,0.48,R,N,A,*2A
$IIRMB,A,0.49,R,,,,,,,4.1,275,4.40,A,A*58
$IIMWV,35,R,9.5,N,A*19
$IIVWR,35,R,9.5,N,4.9,M,17.6,K*50
$IIXTE,A,A,0.49,R,N,A,*2B
$IIRMB,A,0.50,R,,,,,,,4.1,275,4.40,A,A*50
$IIZDA,074528,01,06,2018,,*5F
$IIXTE,A,A,0.50,R,N,A,*23
$IIRMB,A,0.51,R,,,,,,,4.1,275,4.40,A,A*51
$IIVHW,,T,233,M,0.00,N,0.00,K*67
$GPRMC,162610.00,A,4729.97716,N,00222.58561,W,0.006,,220520,,,D*6F
$IIHDG,233,,,,*55
$IIHDM,233,M*3E
$IIXTE,A,A,0.51,R,N,A,*22
$IIRMB,A,0.52,R,,,,,,,4.1,275,4.40,A,A*52
$IIXTE,A,A,0.52,R,N,A,*21
$IIRMB,A,0.53,R,,,,,,,4.1,275,4.40,A,A*53
$GPVTG,,T,,M,0.006,N,0.012,K,D*23
$IIVTG,208,T,,M,0.0,N,0.0,K,A*0E
$GPGGA,162610.00,4729.97716,N,00222.58561,W,2,12,0.75,6.2,M,48.7,M,,0000*4A
$GPGSA,A,3,16,20,27,30,32,11,08,10,07,40,22,01,1.24,0.75,0.99*0E
$GPGSA,A,3,16,20,27,30,32,11,08,10,07,40,22,01,1.24,0.75,0.99*0E
$IIMWV,35,T,9.5,N,A*1F
$IIVWT,35,R,9.5,N,4.9,M,17.6,K*56
$IIMWD,,T,268,M,9.5,N,4.9,M*79
$IIVLW,525.16,N,30.16,N*7C
$IIMTW,21.9,C*19
$GPGSV,4,1,15,01,29,256,39,07,06,273,35,08,81,312,46,10,49,066,50*72
$GPGSV,4,1,15,01,29,256,39,07,06,273,35,08,81,312,46,10,49,066,50*72
$GPGSV,4,2,15,11,53,282,45,14,01,132,,16,21,176,39,20,20,047,43*7A
$GPGSV,4,2,15,11,53,282,45,14,01,132,,16,21,176,39,20,20,047,43*7A
$GPGSV,4,3,15,21,03,073,42,22,18,202,43,27,61,115,49,28,03,328,*7C
$GPGSV,4,3,15,21,03,073,42,22,18,202,43,27,61,115,49,28,03,328,*7C
$GPGSV,4,4,15,30,08,302,31,32,12,115,45,40,13,115,31*42
$GPGSV,4,4,15,30,08,302,31,32,12,115,45,40,13,115,31*42
$IIRSA,-1.3,A,,V*56
$GPRMC,162611.00,A,4729.97716,N,00222.58558,W,0.009,,220520,,,D*6B
$IIRSA,-1.0,A,,V*55
$GPVTG,,T,,M,0.009,N,0.016,K,D*28
$IIVTG,208,T,,M,0.0,N,0.0,K,A*0E
$PNKEP,01,4.7,N,8.7,K*64
$PNKEP,02,303.0*6C
$PNKEP,03,44.0,0.0,0.0*5D
$PNKEP,04,224.0,0.0,224.0,0.0*68
$PNKEP,05,0.0,0.0,N,0.0,K*6E
$GPWPL,4730.358,N,00228.640,W,POI_GO*5C
$GPBWC,162810.00,4730.358,N,00228.640,W,275.4,T,,M,4.1,N,POI_GO*19
$GPBWR,162810.00,4730.358,N,00228.640,W,275.3,T,,M,4.1,N,POI_GO*0F
$GPRMB,A,0,L,POI_GO,LauBen,4730.358,N,00228.640,W,4.1,275.4,0.0,V,%14*13
$PNKEP,01,4.70,N,2.42,K*6F
$PNKEP,02,303*72
$PNKEP,04,224,0,224,0*68
$IIXTE,A,A,0.00,R,N,A,*26
$IIRMB,A,0.00,R,,,,,,,4.1,275,0.00,A,A*55
$IIXTE,A,A,0.00,R,N,A,*26
$IIRMB,A,0.01,R,,,,,,,4.1,275,0.00,A,A*54
$IIXTE,A,A,0.01,R,N,A,*27
$IIRMB,A,0.02,R,,,,,,,4.1,275,0.00,A,A*57
$GPGGA,162611.00,4729.97716,N,00222.58558,W,2,12,0.75,6.2,M,48.7,M,,0000*41
$IIXTE,A,A,0.02,R,N,A,*24
$IIRMB,A,0.03,R,,,,,,,4.1,275,0.00,A,A*56
$IIXTE,A,A,0.03,R,N,A,*25
$IIRMB,A,0.04,R,,,,,,,4.1,275,0.00,A,A*51
$IIXTE,A,A,0.04,R,N,A,*22
$IIRMB,A,0.05,R,,,,,,,4.1,275,0.00,A,A*50
$IIRMB,A,0.06,R,,,,,,,4.1,275,0.00,A,A*53
$IIXTE,A,A,0.06,R,N,A,*20
$IIRMB,A,0.07,R,,,,,,,4.1,275,0.00,A,A*52
$GPGSA,A,3,16,20,27,30,32,11,08,10,07,40,22,01,1.24,0.75,0.99*0E
$GPGSA,A,3,16,20,27,30,32,11,08,10,07,40,22,01,1.24,0.75,0.99*0E
$IIXTE,A,A,0.07,R,N,A,*21
$IIRMB,A,0.08,R,,,,,,,4.1,275,0.00,A,A*5D
$IIXTE,A,A,0.08,R,N,A,*2E
$IIRMB,A,0.09,R,,,,,,,4.1,275,0.00,A,A*5C
$IIXTE,A,A,0.09,R,N,A,*2F
$IIRMB,A,0.10,R,,,,,,,4.1,275,0.00,A,A*54
$IIXTE,A,A,0.10,R,N,A,*27
$IIRMB,A,0.11,R,,,,,,,4.1,275,0.00,A,A*55
$GPGSV,4,1,15,01,29,256,39,07,06,273,35,08,81,312,46,10,49,066,50*72
$IIXTE,A,A,0.11,R,N,A,*26
$IIRMB,A,0.12,R,,,,,,,4.1,275,0.00,A,A*56
$GPGSV,4,1,15,01,29,256,39,07,06,273,35,08,81,312,46,10,49,066,50*72
$IIXTE,A,A,0.12,R,N,A,*25
$IIRMB,A,0.13,R,,,,,,,4.1,275,0.00,A,A*57
$IIXTE,A,A,0.13,R,N,A,*24
$IIRMB,A,0.14,R,,,,,,,4.1,275,0.00,A,A*50
$IIXTE,A,A,0.14,R,N,A,*23
$IIRMB,A,0.15,R,,,,,,,4.1,275,0.00,A,A*51
$GPGSV,4,2,15,11,53,282,45,14,01,132,,16,21,176,39,20,20,047,43*7A
$IIXTE,A,A,0.15,R,N,A,*22
$IIRMB,A,0.16,R,,,,,,,4.1,275,0.00,A,A*52
$GPGSV,4,2,15,11,53,282,45,14,01,132,,16,21,176,39,20,20,047,43*7A
$IIRSA,-1.3,A,,V*56
$IIXTE,A,A,0.16,R,N,A,*21
$IIRMB,A,0.17,R,,,,,,,4.1,275,0.00,A,A*53
$IIXTE,A,A,0.17,R,N,A,*20
$IIRMB,A,0.18,R,,,,,,,4.1,275,0.00,A,A*5C
$IIXTE,A,A,0.18,R,N,A,*2F
$IIRMB,A,0.19,R,,,,,,,4.1,275,0.00,A,A*5D
$GPGSV,4,3,15,21,03,073,41,22,18,202,43,27,61,115,49,28,03,328,*7F
$IIXTE,A,A,0.19,R,N,A,*2E
$IIRMB,A,0.20,R,,,,,,,4.1,275,0.00,A,A*57
$GPGSV,4,3,15,21,03,073,41,22,18,202,43,27,61,115,49,28,03,328,*7F
$IIMWV,35,R,9.4,N,A*18
$IIVWR,35,R,9.4,N,4.8,M,17.4,K*52
$IIXTE,A,A,0.20,R,N,A,*24
$IIRMB,A,0.21,R,,,,,,,4.1,275,0.00,A,A*56
$IIXTE,A,A,0.21,R,N,A,*25
$IIRMB,A,0.22,R,,,,,,,4.1,275,0.00,A,A*55
$IIXTE,A,A,0.22,R,N,A,*26
$GPGSV,4,4,15,30,08,302,31,32,12,115,44,40,13,115,30*42
$IIRMB,A,0.23,R,,,,,,,4.1,275,0.00,A,A*54
$GPGSV,4,4,15,30,08,302,31,32,12,115,44,40,13,115,30*42
$IIRSA,-1.0,A,,V*55
$IIXTE,A,A,0.23,R,N,A,*27
$IIRMB,A,0.24,R,,,,,,,4.1,275,0.00,A,A*53
$IIXTE,A,A,0.24,R,N,A,*20
$IIRMB,A,0.25,R,,,,,,,4.1,275,0.00,A,A*52
$IIXTE,A,A,0.25,R,N,A,*21
$GPGLL,4729.97716,N,00222.58558,W,162611.00,A,D*7C
$IIRMB,A,0.26,R,,,,,,,4.1,275,0.00,A,A*51
$IIXTE,A,A,0.26,R,N,A,*22
$IIRMB,A,0.27,R,,,,,,,4.1,275,0.00,A,A*50
$IIXTE,A,A,0.27,R,N,A,*23
$IIRMB,A,0.28,R,,,,,,,4.1,275,0.00,A,A*5F
$IIXTE,A,A,0.28,R,N,A,*2C
$IIRMB,A,0.29,R,,,,,,,4.1,275,0.00,A,A*5E
$IIXTE,A,A,0.29,R,N,A,*2D
$IIRMB,A,0.30,R,,,,,,,4.1,275,0.00,A,A*56
$GPRMC,162612.00,A,4729.97716,N,00222.58556,W,0.006,,220520,,,D*69
$IIXTE,A,A,0.30,R,N,A,*25
$IIRMB,A,0.31,R,,,,,,,4.1,275,0.00,A,A*57
$IIRSA,-1.3,A,,V*56
$IIDPT,4.9,,*4F
$IIDBT,16.1,f,4.9,M,,*42
$IIXTE,A,A,0.31,R,N,A,*24
$IIRMB,A,0.32,R,,,,,,,4.1,275,0.00,A,A*54
$GPVTG,,T,,M,0.006,N,0.011,K,D*20
$IIXTE,A,A,0.32,R,N,A,*27
$IIRMB,A,0.33,R,,,,,,,4.1,275,0.00,A,A*55
$IIVTG,208,T,,M,0.0,N,0.0,K,A*0E
$IIRSA,-1.0,A,,V*55
$IIXTE,A,A,0.33,R,N,A,*26
$IIRMB,A,0.34,R,,,,,,,4.1,275,0.00,A,A*52
$IIXTE,A,A,0.34,R,N,A,*21
$IIRMB,A,0.35,R,,,,,,,4.1,275,0.00,A,A*53
$IIMWV,35,T,9.4,N,A*1E
$IIVWT,35,R,9.4,N,4.8,M,17.4,K*54
$IIMWD,,T,268,M,9.4,N,4.8,M*79
$IIXTE,A,A,0.35,R,N,A,*20
$IIRMB,A,0.36,R,,,,,,,4.1,275,0.00,A,A*50
$IIRSA,-1.3,A,,V*56
$GPGGA,162612.00,4729.97716,N,00222.58556,W,2,12,0.75,6.2,M,48.7,M,,0000*4C
$IIXTE,A,A,0.36,R,N,A,*23
$IIRMB,A,0.37,R,,,,,,,4.1,275,0.00,A,A*51
$IIXTE,A,A,0.37,R,N,A,*22
$IIRMB,A,0.38,R,,,,,,,4.1,275,0.00,A,A*5E
$IIVHW,,T,233,M,0.00,N,0.00,K*67
$IIHDG,233,,,,*55
$IIHDM,233,M*3E
$IIXTE,A,A,0.38,R,N,A,*2D
$IIRMB,A,0.39,R,,,,,,,4.1,275,0.00,A,A*5F
$IIXTE,A,A,0.39,R,N,A,*2C
$IIRMB,A,0.40,R,,,,,,,4.1,275,0.00,A,A*51
$GPGSA,A,3,16,20,27,30,32,11,08,10,07,40,22,01,1.24,0.75,0.99*0E
$IIXTE,A,A,0.40,R,N,A,*22
$IIRMB,A,0.41,R,,,,,,,4.1,275,0.00,A,A*50
$GPGSA,A,3,16,20,27,30,32,11,08,10,07,40,22,01,1.24,0.75,0.99*0E
$IIXTE,A,A,0.41,R,N,A,*23
$IIRMB,A,0.42,R,,,,,,,4.1,275,0.00,A,A*53
$IIRSA,-1.0,A,,V*55
$GPGSV,4,1,15,01,29,256,37,07,06,273,36,08,81,312,46,10,49,066,49*77
$GPGSV,4,1,15,01,29,256,37,07,06,273,36,08,81,312,46,10,49,066,49*77
$IIRSA,-1.3,A,,V*56
$GPGSV,4,2,15,11,53,282,46,14,01,132,,16,21,176,39,20,20,047,42*78
$GPGSV,4,2,15,11,53,282,46,14,01,132,,16,21,176,39,20,20,047,42*78
$IIRSA,-1.0,A,,V*55
$GPGSV,4,3,15,21,03,073,41,22,18,202,42,27,61,115,49,28,03,328,*7E
$GPGSV,4,3,15,21,03,073,41,22,18,202,42,27,61,115,49,28,03,328,*7E
$GPGSV,4,4,15,30,08,302,32,32,12,115,44,40,13,115,30*41
$IIDPT,4.8,,*4E
$IIDBT,15.8,f,4.8,M,,*49
$GPGSV,4,4,15,30,08,302,32,32,12,115,44,40,13,115,30*41
$IIRSA,-1.3,A,,V*56
$GPRMC,162613.00,A,4729.97716,N,00222.58556,W,0.023,,220520,,,D*6F
$GPVTG,,T,,M,0.023,N,0.043,K,D*20
$IIVTG,208,T,,M,0.0,N,0.0,K,A*0E
$IIRSA,-1.0,A,,V*55
$GPGGA,162613.00,4729.97716,N,00222.58556,W,2,12,0.75,6.1,M,48.7,M,,0000*4E
$GPGSA,A,3,16,20,27,30,32,11,08,10,07,40,22,01,1.24,0.75,0.99*0E
$GPGSA,A,3,16,20,27,30,32,11,08,10,07,40,22,01,1.24,0.75,0.99*0E
$IIRSA,-1.3,A,,V*56
$GPGSV,4,1,15,01,29,256,38,07,06,273,35,08,81,312,46,10,49,066,50*73
$GPGSV,4,1,15,01,29,256,38,07,06,273,35,08,81,312,46,10,49,066,50*73
$IIRSA,-1.0,A,,V*55
$GPRMC,162614.00,A,4729.97715,N,00222.58554,W,0.037,,220520,,,D*6C
$IIMWV,35,R,9.3,N,A*1F
$IIVWR,35,R,9.3,N,4.8,M,17.2,K*53
$IIMWV,35,R,9.3,N,A*1F
$IIVWR,35,R,9.3,N,4.8,M,17.2,K*53
$GPVTG,,T,,M,0.037,N,0.068,K,D*2C
$IIVTG,208,T,,M,0.0,N,0.1,K,A*0F
$PNKEP,01,4.7,N,8.6,K*65
$PNKEP,02,303.0*6C
$PNKEP,03,44.0,0.0,0.0*5D
$PNKEP,04,224.0,0.0,224.0,0.0*68
$PNKEP,05,0.0,0.0,N,0.0,K*6E
$GPGGA,162614.00,4729.97715,N,00222.58554,W,2,12,0.75,6.1,M,48.7,M,,0000*48
$GPWPL,4730.358,N,00228.640,W,POI_GO*5C
$GPBWC,162813.00,4730.358,N,00228.640,W,275.4,T,,M,4.1,N,POI_GO*1A
$GPBWR,162813.00,4730.358,N,00228.640,W,275.3,T,,M,4.1,N,POI_GO*0C
$GPRMB,A,0,L,POI_GO,LauBen,4730.358,N,00228.640,W,4.1,275.4,0.0,V,%14*13
$IIGLL,4729.9772,N,00222.5855,W,074528,A,D*47
$IIRMC,074528,A,4729.9772,N,00222.5855,W,0.0,208,010618,,,D*6A
$IIXTE,A,A,0.00,R,N,A,*26
$IIRMB,A,0.00,R,,,,,,,4.1,275,0.00,A,A*55
$IIXTE,A,A,0.00,R,N,A,*26
$IIRMB,A,0.01,R,,,,,,,4.1,275,0.00,A,A*54
$IIXTE,A,A,0.01,R,N,A,*27
$IIRMB,A,0.02,R,,,,,,,4.1,275,0.00,A,A*57
$GPGSA,A,3,16,20,27,30,32,11,08,10,07,40,22,01,1.24,0.75,0.99*0E
$GPGSA,A,3,16,20,27,30,32,11,08,10,07,40,22,01,1.24,0.75,0.99*0E
$IIXTE,A,A,0.02,R,N,A,*24
$IIRMB,A,0.03,R,,,,,,,4.1,275,0.00,A,A*56
$IIXTE,A,A,0.03,R,N,A,*25
$IIRMB,A,0.04,R,,,,,,,4.1,275,0.00,A,A*51
$IIXTE,A,A,0.04,R,N,A,*22
$IIRMB,A,0.05,R,,,,,,,4.1,275,0.00,A,A*50
$GPGSV,4,1,15,01,29,256,38,07,06,273,35,08,81,312,46,10,49,066,50*73
$IIXTE,A,A,0.05,R,N,A,*23
$IIRMB,A,0.06,R,,,,,,,4.1,275,0.00,A,A*53
$IIMWV,35,T,9.3,N,A*19
$IIVWT,35,R,9.3,N,4.8,M,17.2,K*55
$IIMWD,,T,268,M,9.3,N,4.8,M*7E
$IIMWV,36,T,9.3,N,A*1A
$IIVWT,36,R,9.3,N,4.8,M,17.2,K*56
$IIMWD,,T,269,M,9.3,N,4.8,M*7F
$GPGSV,4,1,15,01,29,256,38,07,06,273,35,08,81,312,46,10,49,066,50*73
$IIXTE,A,A,0.06,R,N,A,*20
$IIRMB,A,0.07,R,,,,,,,4.1,275,0.00,A,A*52
$IIXTE,A,A,0.07,R,N,A,*21
$IIRMB,A,0.08,R,,,,,,,4.1,275,0.00,A,A*5D
$IIXTE,A,A,0.08,R,N,A,*2E
$IIRMB,A,0.09,R,,,,,,,4.1,275,0.00,A,A*5C
$GPGSV,4,2,15,11,53,282,45,14,01,132,,16,21,176,39,20,20,047,42*7B
$IIXTE,A,A,0.09,R,N,A,*2F
$IIRMB,A,0.10,R,,,,,,,4.1,275,0.00,A,A*54
$GPGSV,4,2,15,11,53,282,45,14,01,132,,16,21,176,39,20,20,047,42*7B
$IIMWV,35,R,9.2,N,A*1E
$IIVWR,35,R,9.2,N,4.7,M,17.0,K*5F
$IIXTE,A,A,0.10,R,N,A,*27
$IIRMB,A,0.11,R,,,,,,,4.1,275,0.00,A,A*55
$IIXTE,A,A,0.11,R,N,A,*26
$IIRMB,A,0.12,R,,,,,,,4.1,275,0.00,A,A*56
$IIRSA,-1.3,A,,V*56
$IIXTE,A,A,0.12,R,N,A,*25
$IIRMB,A,0.13,R,,,,,,,4.1,275,0.00,A,A*57
$GPGSV,4,3,15,21,03,073,41,22,18,202,43,27,61,115,49,28,03,328,*7F
$IIXTE,A,A,0.13,R,N,A,*24
$IIRMB,A,0.14,R,,,,,,,4.1,275,0.00,A,A*50
$GPGSV,4,3,15,21,03,073,41,22,18,202,43,27,61,115,49,28,03,328,*7F
$IIXTE,A,A,0.14,R,N,A,*23
$IIRMB,A,0.15,R,,,,,,,4.1,275,0.00,A,A*51
$IIXTE,A,A,0.15,R,N,A,*22
$IIRMB,A,0.16,R,,,,,,,4.1,275,0.00,A,A*52
$IIXTE,A,A,0.16,R,N,A,*21
$GPGSV,4,4,15,30,08,302,32,32,12,115,43,40,13,115,33*45
$IIRMB,A,0.17,R,,,,,,,4.1,275,0.00,A,A*53
$GPGSV,4,4,15,30,08,302,32,32,12,115,43,40,13,115,33*45
$IIXTE,A,A,0.17,R,N,A,*20
$IIRMB,A,0.18,R,,,,,,,4.1,275,0.00,A,A*5C
$IIRSA,-1.0,A,,V*55
$GPRMC,162615.00,A,4729.97716,N,00222.58552,W,0.011,,220520,,,D*6C
$IIVHW,,T,233,M,0.00,N,0.00,K*67
$IIHDG,233,,,,*55
$IIHDM,233,M*3E
$IIRSA,-1.3,A,,V*56
$GPVTG,,T,,M,0.011,N,0.020,K,D*24
$IIVTG,208,T,,M,0.0,N,0.0,K,A*0E
$IIMWV,36,T,9.2,N,A*1B
$IIVWT,36,R,9.2,N,4.7,M,17.0,K*5A
$IIMWD,,T,269,M,9.2,N,4.7,M*71
$IIMWV,35,T,9.2,N,A*18
$IIVWT,35,R,9.2,N,4.7,M,17.0,K*59
$IIMWD,,T,268,M,9.2,N,4.7,M*70
$GPGGA,162615.00,4729.97716,N,00222.58552,W,2,12,0.75,6.0,M,48.7,M,,0000*4D
$IIRSA,-1.0,A,,V*55
$IIMWV,35,R,9.1,N,A*1D
$IIVWR,35,R,9.1,N,4.7,M,16.9,K*54
$IIMWV,34,R,9.1,N,A*1C
$IIVWR,34,R,9.1,N,4.7,M,16.9,K*55
$IIHDG,232,,,,*54
$IIHDM,232,M*3F
$GPGSA,A,3,16,20,27,30,32,11,08,10,07,40,22,01,1.24,0.75,0.99*0E
$GPGSA,A,3,16,20,27,30,32,11,08,10,07,40,22,01,1.24,0.75,0.99*0E
$IIRSA,-1.3,A,,V*56
$GPGSV,4,1,15,01,29,256,37,07,06,273,34,08,81,312,46,10,49,066,49*75
$GPGSV,4,1,15,01,29,256,37,07,06,273,34,08,81,312,46,10,49,066,49*75
$PNKEP,03,44,0,0*43
$PNKEP,05,0,0.0,N,0.0,K*70
$IIRSA,-1.0,A,,V*55
$GPGSV,4,2,15,11,53,282,45,14,01,132,,16,21,176,37,20,20,047,41*76
$GPGSV,4,2,15,11,53,282,45,14,01,132,,16,21,176,37,20,20,047,41*76
$GPGSV,4,3,15,21,03,073,41,22,18,202,43,27,61,115,49,28,03,328,*7F
$GPGSV,4,3,15,21,03,073,41,22,18,202,43,27,61,115,49,28,03,328,*7F
$IIRSA,-1.3,A,,V*56
$GPGSV,4,4,15,30,08,302,33,32,12,115,43,40,13,115,31*46
$GPGSV,4,4,15,30,08,302,33,32,12,115,43,40,13,115,31*46
$IIRSA,-1.0,A,,V*55
$IIMWV,34,R,9.0,N,A*1D
$IIVWR,34,R,9.0,N,4.6,M,16.7,K*5B
$IIVHW,,T,233,M,0.00,N,0.00,K*67
$IIHDG,233,,,,*55
$IIHDM,233,M*3E
$GPRMC,162616.00,A,4729.97716,N,00222.58551,W,0.016,,220520,,,D*6B
$GPVTG,,T,,M,0.016,N,0.030,K,D*22
$IIVTG,208,T,,M,0.0,N,0.0,K,A*0E
$GPGGA,162616.00,4729.97716,N,00222.58551,W,2,12,0.75,6.0,M,48.7,M,,0000*4D
$GPGSA,A,3,16,20,27,30,32,11,08,10,07,40,22,01,1.24,0.75,0.99*0E
$GPGSA,A,3,16,20,27,30,32,11,08,10,07,40,22,01,1.24,0.75,0.99*0E
$IIMWV,35,T,9.1,N,A*1B
$IIVWT,35,R,9.1,N,4.7,M,16.9,K*52
$IIMWD,,T,268,M,9.1,N,4.7,M*73
$IIMWV,34,T,9.1,N,A*1A
$IIVWT,34,R,9.1,N,4.7,M,16.9,K*53
$IIMWD,,T,266,M,9.1,N,4.7,M*7D
$IIXDR,C,19.7,C,AirTemp*29
$GPGSV,4,1,15,01,29,256,36,07,06,273,34,08,81,312,46,10,49,066,50*7C
$GPGSV,4,1,15,01,29,256,36,07,06,273,34,08,81,312,46,10,49,066,50*7C
$IIMWV,34,R,8.9,N,A*15
$IIVWR,34,R,8.9,N,4.6,M,16.5,K*51
$IIMWV,35,R,8.9,N,A*14
$IIVWR,35,R,8.9,N,4.6,M,16.5,K*50
$IIMWV,34,R,8.9,N,A*15
$IIVWR,34,R,8.9,N,4.6,M,16.5,K*51
$IIMWV,35,R,8.9,N,A*14
$IIVWR,35,R,8.9,N,4.6,M,16.5,K*50
$IIMWV,34,R,8.9,N,A*15
$IIVWR,34,R,8.9,N,4.6,M,16.5,K*51
$GPGSV,4,2,15,11,53,282,45,14,01,132,,16,21,176,39,20,20,047,41*78
$GPGSV,4,2,15,11,53,282,45,14,01,132,,16,21,176,39,20,20,047,41*78
$IIMWV,35,R,8.9,N,A*14
$IIVWR,35,R,8.9,N,4.6,M,16.5,K*50
$IIMWV,34,R,8.9,N,A*15
$IIVWR,34,R,8.9,N,4.6,M,16.5,K*51
$IIRSA,-1.3,A,,V*56
$IIMWV,35,R,8.9,N,A*14
$IIVWR,35,R,8.9,N,4.6,M,16.5,K*50
$IIMWV,34,R,8.9,N,A*15
$IIVWR,34,R,8.9,N,4.6,M,16.5,K*51
$IIMWV,35,R,8.9,N,A*14
$IIVWR,35,R,8.9,N,4.6,M,16.5,K*50
$IIMWV,35,R,8.9,N,A*14
$IIVWR,35,R,8.9,N,4.6,M,16.5,K*50
$IIRSA,-1.0,A,,V*55
$GPGSV,4,3,15,21,03,073,41,22,18,202,42,27,61,115,49,28,03,328,*7E
$GPGSV,4,3,15,21,03,073,41,22,18,202,42,27,61,115,49,28,03,328,*7E
$GPGSV,4,4,15,30,08,302,33,32,12,115,43,40,13,115,32*45
$GPGSV,4,4,15,30,08,302,33,32,12,115,43,40,13,115,32*45
$GPGLL,4729.97716,N,00222.58551,W,162616.00,A,D*72
$IIMWV,34,T,8.9,N,A*13
$PNKEP,01,4.5,N,8.2,K*63
$PNKEP,02,300.0*6F
$PNKEP,03,44.0,0.0,0.0*5D
$PNKEP,04,222.0,0.0,222.0,0.0*68
$PNKEP,05,0.0,0.0,N,0.0,K*6E
$GPWPL,4730.358,N,00228.640,W,POI_GO*5C
$GPBWC,162816.00,4730.358,N,00228.640,W,275.4,T,,M,4.1,N,POI_GO*1F
$GPBWR,162816.00,4730.358,N,00228.640,W,275.3,T,,M,4.1,N,POI_GO*09
$GPRMB,A,0,L,POI_GO,LauBen,4730.358,N,00228.640,W,4.1,275.4,0.0,V,%14*13
$IIVWT,34,R,8.9,N,4.6,M,16.5,K*57
$IIMWD,,T,266,M,8.9,N,4.6,M*75
$IIMWV,35,T,8.9,N,A*12
$IIVWT,35,R,8.9,N,4.6,M,16.5,K*56
$IIMWD,,T,268,M,8.9,N,4.6,M*7B
$PNKEP,01,4.50,N,2.31,K*69
$PNKEP,02,300*71
$PNKEP,04,222,0,222,0*68
$IIRSA,-1.3,A,,V*56
$IIXTE,A,A,0.00,R,N,A,*26
$IIRMB,A,0.00,R,,,,,,,4.1,275,0.00,A,A*55
$IIZDA,074528,01,06,2018,,*5F
$GPRMC,162617.00,A,4729.97717,N,00222.58549,W,0.019,,220520,,,D*6D
$IIXTE,A,A,0.00,R,N,A,*26
$IIRMB,A,0.01,R,,,,,,,4.1,275,0.00,A,A*54
$IIXTE,A,A,0.01,R,N,A,*27
$IIRMB,A,0.02,R,,,,,,,4.1,275,0.00,A,A*57
$GPVTG,,T,,M,0.019,N,0.035,K,D*28
$IIRSA,-1.0,A,,V*55
$IIXTE,A,A,0.02,R,N,A,*24
$IIRMB,A,0.03,R,,,,,,,4.1,275,0.00,A,A*56
$IIVTG,208,T,,M,0.0,N,0.0,K,A*0E
$IIMWV,35,R,8.8,N,A*15
$IIVWR,35,R,8.8,N,4.5,M,16.3,K*54
$IIXTE,A,A,0.03,R,N,A,*25
$IIRMB,A,0.04,R,,,,,,,4.1,275,0.00,A,A*51
$IIXTE,A,A,0.04,R,N,A,*22
$IIRMB,A,0.05,R,,,,,,,4.1,275,0.00,A,A*50
$IIXTE,A,A,0.05,R,N,A,*23
$IIRMB,A,0.06,R,,,,,,,4.1,275,0.00,A,A*53
$IIXTE,A,A,0.06,R,N,A,*20
$IIRMB,A,0.07,R,,,,,,,4.1,275,0.00,A,A*52
$GPGGA,162617.00,4729.97717,N,00222.58549,W,2,12,0.75,6.0,M,48.7,M,,0000*44
$IIXTE,A,A,0.07,R,N,A,*21
$IIRMB,A,0.08,R,,,,,,,4.1,275,0.00,A,A*5D
$IIXTE,A,A,0.08,R,N,A,*2E
$IIRMB,A,0.09,R,,,,,,,4.1,275,0.00,A,A*5C
$IIXTE,A,A,0.09,R,N,A,*2F
$IIRMB,A,0.10,R,,,,,,,4.1,275,0.00,A,A*54
$IIXTE,A,A,0.10,R,N,A,*27
$IIRMB,A,0.11,R,,,,,,,4.1,275,0.00,A,A*55
$GPGSA,A,3,16,20,27,30,32,11,08,10,07,40,22,01,1.24,0.75,0.99*0E
$IIXTE,A,A,0.11,R,N,A,*26
$IIRMB,A,0.12,R,,,,,,,4.1,275,0.00,A,A*56
$GPGSA,A,3,16,20,27,30,32,11,08,10,07,40,22,01,1.24,0.75,0.99*0E
$IIXTE,A,A,0.12,R,N,A,*25
$IIRMB,A,0.13,R,,,,,,,4.1,275,0.00,A,A*57
$IIXTE,A,A,0.13,R,N,A,*24
$IIRMB,A,0.14,R,,,,,,,4.1,275,0.00,A,A*50
$IIXTE,A,A,0.14,R,N,A,*23
$IIRMB,A,0.15,R,,,,,,,4.1,275,0.00,A,A*51
$GPGSV,4,1,15,01,29,256,37,07,06,273,34,08,81,312,46,10,49,066,50*7D
$IIXTE,A,A,0.15,R,N,A,*22
$IIRMB,A,0.16,R,,,,,,,4.1,275,0.00,A,A*52
$GPGSV,4,1,15,01,29,256,37,07,06,273,34,08,81,312,46,10,49,066,50*7D
$IIXTE,A,A,0.16,R,N,A,*21
$IIRMB,A,0.17,R,,,,,,,4.1,275,0.00,A,A*53
$IIXTE,A,A,0.17,R,N,A,*20
$IIRMB,A,0.18,R,,,,,,,4.1,275,0.00,A,A*5C
$IIXTE,A,A,0.18,R,N,A,*2F
$IIRMB,A,0.19,R,,,,,,,4.1,275,0.00,A,A*5D
$GPGSV,4,2,15,11,53,282,45,14,01,132,,16,21,176,40,20,20,047,41*76
$IIRSA,-1.3,A,,V*56
$IIXTE,A,A,0.19,R,N,A,*2E
$IIRMB,A,0.20,R,,,,,,,4.1,275,0.00,A,A*57
$GPGSV,4,2,15,11,53,282,45,14,01,132,,16,21,176,40,20,20,047,41*76
$IIXTE,A,A,0.20,R,N,A,*24
$IIRMB,A,0.21,R,,,,,,,4.1,275,0.00,A,A*56
$IIXTE,A,A,0.21,R,N,A,*25
$IIRMB,A,0.22,R,,,,,,,4.1,275,0.00,A,A*55
$IIRSA,-1.0,A,,V*55
$IIVLW,525.16,N,30.16,N*7C
$IIXTE,A,A,0.22,R,N,A,*26
$IIRMB,A,0.23,R,,,,,,,4.1,275,0.00,A,A*54
$IIMTW,22.0,C*13
$IIXTE,A,A,0.23,R,N,A,*27
$IIRMB,A,0.24,R,,,,,,,4.1,275,0.00,A,A*53
$GPGSV,4,3,15,21,03,073,41,22,18,202,42,27,61,115,48,28,03,328,*7F
$IIVHW,,T,232,M,0.00,N,0.00,K*66
$IIHDG,232,,,,*54
$IIHDM,232,M*3F
$IIRMB,A,0.25,R,,,,,,,4.1,275,0.00,A,A*52
$GPGSV,4,3,15,21,03,073,41,22,18,202,42,27,61,115,48,28,03,328,*7F
$IIXTE,A,A,0.25,R,N,A,*21
$IIRMB,A,0.26,R,,,,,,,4.1,275,0.00,A,A*51
$IIRSA,-1.3,A,,V*56
$IIXTE,A,A,0.26,R,N,A,*22
$IIRMB,A,0.27,R,,,,,,,4.1,275,0.00,A,A*50
$GPGSV,4,4,15,30,08,302,32,32,12,115,43,40,13,115,33*45
$IIXTE,A,A,0.27,R,N,A,*23
$IIRMB,A,0.28,R,,,,,,,4.1,275,0.00,A,A*5F
$GPGSV,4,4,15,30,08,302,32,32,12,115,43,40,13,115,33*45
$IIXTE,A,A,0.28,R,N,A,*2C
$IIRMB,A,0.29,R,,,,,,,4.1,275,0.00,A,A*5E
$IIRSA,-1.0,A,,V*55
$IIXTE,A,A,0.29,R,N,A,*2D
$IIRMB,A,0.30,R,,,,,,,4.1,275,0.00,A,A*56
$IIXTE,A,A,0.30,R,N,A,*25
$IIRMB,A,0.31,R,,,,,,,4.1,275,0.00,A,A*57
$GPRMC,162618.00,A,4729.97718,N,00222.58549,W,0.010,,220520,,,D*64
$IIXTE,A,A,0.31,R,N,A,*24
$IIRMB,A,0.32,R,,,,,,,4.1,275,0.00,A,A*54
$IIXTE,A,A,0.32,R,N,A,*27
$IIRMB,A,0.33,R,,,,,,,4.1,275,0.00,A,A*55
$IIXTE,A,A,0.33,R,N,A,*26
$IIRMB,A,0.34,R,,,,,,,4.1,275,0.00,A,A*52
$GPVTG,,T,,M,0.010,N,0.019,K,D*2F
$IIVTG,208,T,,M,0.0,N,0.0,K,A*0E
$IIXTE,A,A,0.34,R,N,A,*21
$IIRMB,A,0.35,R,,,,,,,4.1,275,0.00,A,A*53
$IIXTE,A,A,0.35,R,N,A,*20
$IIRMB,A,0.36,R,,,,,,,4.1,275,0.00,A,A*50
$IIXTE,A,A,0.36,R,N,A,*23
$IIRMB,A,0.37,R,,,,,,,4.1,275,0.00,A,A*51
$IIXTE,A,A,0.37,R,N,A,*22
$IIRMB,A,0.38,R,,,,,,,4.1,275,0.00,A,A*5E
$IIMWV,35,T,8.8,N,A*13
$IIVWT,35,R,8.8,N,4.5,M,16.3,K*52
$IIMWD,,T,268,M,8.8,N,4.5,M*79
$IIXTE,A,A,0.38,R,N,A,*2D
$GPGGA,162618.00,4729.97718,N,00222.58549,W,2,12,0.75,5.9,M,48.7,M,,0000*4E
$IIRMB,A,0.39,R,,,,,,,4.1,275,0.00,A,A*5F
$IIRSA,-1.3,A,,V*56
$IIXTE,A,A,0.39,R,N,A,*2C
$IIRMB,A,0.40,R,,,,,,,4.1,275,0.00,A,A*51
$IIXTE,A,A,0.40,R,N,A,*22
$IIRMB,A,0.41,R,,,,,,,4.1,275,0.00,A,A*50
$IIXTE,A,A,0.41,R,N,A,*23
$IIRMB,A,0.42,R,,,,,,,4.1,275,0.00,A,A*53
$GPGSA,A,3,16,20,27,30,32,11,08,10,07,40,22,01,1.24,0.75,0.99*0E
$IIXTE,A,A,0.42,R,N,A,*20
$IIRMB,A,0.43,R,,,,,,,4.1,275,0.00,A,A*52
$IIRSA,-1.0,A,,V*55
$GPGSA,A,3,16,20,27,30,32,11,08,10,07,40,22,01,1.24,0.75,0.99*0E
$IIXTE,A,A,0.43,R,N,A,*21
$IIRMB,A,0.44,R,,,,,,,4.1,275,0.00,A,A*55
$IIXTE,A,A,0.44,R,N,A,*26
$IIRMB,A,0.45,R,,,,,,,4.1,275,0.00,A,A*54
$IIHDG,233,,,,*55
$IIHDM,233,M*3E
$IIXTE,A,A,0.45,R,N,A,*27
$IIRMB,A,0.46,R,,,,,,,4.1,275,0.00,A,A*57
$IIXTE,A,A,0.46,R,N,A,*24
$IIRMB,A,0.47,R,,,,,,,4.1,275,0.00,A,A*56
$GPGSV,4,1,15,01,29,256,37,07,06,273,32,08,81,312,46,10,49,066,50*7B
$IIXTE,A,A,0.47,R,N,A,*25
$IIRMB,A,0.48,R,,,,,,,4.1,275,0.00,A,A*59
$GPGSV,4,1,15,01,29,256,37,07,06,273,32,08,81,312,46,10,49,066,50*7B
$IIXTE,A,A,0.48,R,N,A,*2A
$IIRMB,A,0.49,R,,,,,,,4.1,275,0.00,A,A*58
$IIXTE,A,A,0.49,R,N,A,*2B
$IIRMB,A,0.50,R,,,,,,,4.1,275,0.00,A,A*50
$IIDPT,4.9,,*4F
$IIDBT,16.1,f,4.9,M,,*42
$IIXTE,A,A,0.50,R,N,A,*23
$IIRMB,A,0.51,R,,,,,,,4.1,275,0.00,A,A*51
$GPGSV,4,2,15,11,53,282,45,14,01,132,,16,21,176,38,20,20,047,41*79
$GPGSV,4,2,15,11,53,282,45,14,01,132,,16,21,176,38,20,20,047,41*79
$GPGSV,4,3,15,21,03,073,41,22,18,202,42,27,61,115,49,28,03,328,*7E
$GPGSV,4,3,15,21,03,073,41,22,18,202,42,27,61,115,49,28,03,328,*7E
$IIRSA,-1.3,A,,V*56
$GPTXT,01,01,00,txbuf alloc*7F
$GPTXT,01,01,00,txbuf alloc*7F
$IIRSA,-1.0,A,,V*55
$GPRMC,162619.00,A,4729.97719,N,00222.58550,W,0.024,,220520,,,D*6B
$IIRSA,-1.3,A,,V*56
$GPVTG,,T,,M,0.024,N,0.044,K,D*20
$IIMWV,35,R,8.9,N,A*14
$IIVWR,35,R,8.9,N,4.6,M,16.5,K*50
$IIMWV,36,R,8.9,N,A*17
$IIVWR,36,R,8.9,N,4.6,M,16.5,K*53
$IIVTG,208,T,,M,0.0,N,0.0,K,A*0E
$IIMWV,35,R,8.9,N,A*14
$IIVWR,35,R,8.9,N,4.6,M,16.5,K*50
$IIMWV,36,R,8.9,N,A*17
$IIVWR,36,R,8.9,N,4.6,M,16.5,K*53
$IIMWV,35,R,8.9,N,A*14
$IIVWR,35,R,8.9,N,4.6,M,16.5,K*50
$IIMWV,36,R,8.9,N,A*17
$IIVWR,36,R,8.9,N,4.6,M,16.5,K*53
$IIMWV,35,R,8.9,N,A*14
$IIVWR,35,R,8.9,N,4.6,M,16.5,K*50
$IIRSA,-1.0,A,,V*55
$IIMWV,36,R,8.9,N,A*17
$IIVWR,36,R,8.9,N,4.6,M,16.5,K*53
$IIMWV,35,R,8.9,N,A*14
$IIVWR,35,R,8.9,N,4.6,M,16.5,K*50
$IIMWV,36,R,8.9,N,A*17
$IIVWR,36,R,8.9,N,4.6,M,16.5,K*53
$IIMWV,35,R,8.9,N,A*14
$IIVWR,35,R,8.9,N,4.6,M,16.5,K*50
$GPGGA,162619.00,4729.97719,N,00222.58550,W,2,12,0.75,5.9,M,48.7,M,,0000*46
$IIMWV,36,R,8.9,N,A*17
$IIVWR,36,R,8.9,N,4.6,M,16.5,K*53
$IIMWV,35,R,8.9,N,A*14
$IIVWR,35,R,8.9,N,4.6,M,16.5,K*50
$IIMWV,36,R,8.9,N,A*17
$IIVWR,36,R,8.9,N,4.6,M,16.5,K*53
$IIMWV,35,R,8.9,N,A*14
$IIVWR,35,R,8.9,N,4.6,M,16.5,K*50
$IIMWV,36,R,8.9,N,A*17
$IIVWR,36,R,8.9,N,4.6,M,16.5,K*53
$IIMWV,35,R,8.9,N,A*14
$IIVWR,35,R,8.9,N,4.6,M,16.5,K*50
$IIMWV,36,R,8.9,N,A*17
$IIVWR,36,R,8.9,N,4.6,M,16.5,K*53
$IIMWV,35,R,8.9,N,A*14
$IIVWR,35,R,8.9,N,4.6,M,16.5,K*50
$GPGSA,A,3,16,20,27,30,32,11,08,10,07,40,22,01,1.24,0.75,0.99*0E
$IIMWV,36,R,8.9,N,A*17
$IIVWR,36,R,8.9,N,4.6,M,16.5,K*53
$IIMWV,35,R,8.9,N,A*14
$IIVWR,35,R,8.9,N,4.6,M,16.5,K*50
$GPGSA,A,3,16,20,27,30,32,11,08,10,07,40,22,01,1.24,0.75,0.99*0E
$IIMWV,36,R,8.9,N,A*17
$IIVWR,36,R,8.9,N,4.6,M,16.5,K*53
$IIMWV,35,R,8.9,N,A*14
$IIVWR,35,R,8.9,N,4.6,M,16.5,K*50
$IIMWV,36,R,8.9,N,A*17
$IIVWR,36,R,8.9,N,4.6,M,16.5,K*53
$IIMWV,35,R,8.9,N,A*14
$IIVWR,35,R,8.9,N,4.6,M,16.5,K*50
$IIMWV,36,R,8.9,N,A*17
$IIVWR,36,R,8.9,N,4.6,M,16.5,K*53
$IIMWV,35,R,8.9,N,A*14
$IIVWR,35,R,8.9,N,4.6,M,16.5,K*50
$IIRSA,-1.3,A,,V*56
$IIMWV,36,R,8.9,N,A*17
$IIVWR,36,R,8.9,N,4.6,M,16.5,K*53
$IIMWV,35,R,8.9,N,A*14
$IIVWR,35,R,8.9,N,4.6,M,16.5,K*50
$GPGSV,4,1,15,01,29,256,37,07,06,273,32,08,81,312,47,10,49,066,50*7A
$GPGSV,4,1,15,01,29,256,37,07,06,273,32,08,81,312,47,10,49,066,50*7A
$IIMWV,35,R,8.9,N,A*14
$IIVWR,35,R,8.9,N,4.6,M,16.5,K*50
$GPRMC,162620.00,A,4729.97719,N,00222.58551,W,0.009,,220520,,,D*6F
$GPVTG,,T,,M,0.009,N,0.016,K,D*28
$IIMWV,35,R,9.0,N,A*1C
$IIVWR,35,R,9.0,N,4.6,M,16.7,K*5A
$IIVTG,208,T,,M,0.0,N,0.0,K,A*0E
$IIVHW,,T,232,M,0.00,N,0.00,K*66
$IIMWV,35,R,9.0,N,A*1C
$IIVWR,35,R,9.0,N,4.6,M,16.7,K*5A
$IIHDG,232,,,,*54
$IIHDM,232,M*3F
$PNKEP,01,4.5,N,8.3,K*62
$PNKEP,02,303.0*6C
$PNKEP,03,44.0,0.0,0.0*5D
$PNKEP,04,224.0,0.0,224.0,0.0*68
$PNKEP,05,0.0,0.0,N,0.0,K*6E
$GPWPL,4730.358,N,00228.640,W,POI_GO*5C
$GPBWC,162819.00,4730.358,N,00228.640,W,275.4,T,,M,4.1,N,POI_GO*10
$GPBWR,162819.00,4730.358,N,00228.640,W,275.3,T,,M,4.1,N,POI_GO*06
$GPRMB,A,0,L,POI_GO,LauBen,4730.358,N,00228.640,W,4.1,275.4,0.0,V,%14*13
$PNKEP,02,303*72
$PNKEP,04,224,0,224,0*68
$GPGGA,162620.00,4729.97719,N,00222.58551,W,2,12,0.75,5.8,M,48.7,M,,0000*4C
$IIXTE,A,A,0.00,R,N,A,*26
$IIRMB,A,0.00,R,,,,,,,4.1,275,0.00,A,A*55
$IIXTE,A,A,0.00,R,N,A,*26
$IIRMB,A,0.01,R,,,,,,,4.1,275,0.00,A,A*54
$IIXTE,A,A,0.01,R,N,A,*27
$IIRMB,A,0.02,R,,,,,,,4.1,275,0.00,A,A*57
$IIXTE,A,A,0.02,R,N,A,*24
$IIRMB,A,0.03,R,,,,,,,4.1,275,0.00,A,A*56
$IIXTE,A,A,0.03,R,N,A,*25
$IIRMB,A,0.04,R,,,,,,,4.1,275,0.00,A,A*51
$IIRSA,-1.0,A,,V*55
$GPGSA,A,3,16,20,27,30,32,11,08,10,07,40,22,01,1.24,0.75,0.99*0E
$GPGSA,A,3,16,20,27,30,32,11,08,10,07,40,22,01,1.24,0.75,0.99*0E
$IIXTE,A,A,0.04,R,N,A,*22
$IIRMB,A,0.05,R,,,,,,,4.1,275,0.00,A,A*50
$IIXTE,A,A,0.05,R,N,A,*23
$IIRMB,A,0.06,R,,,,,,,4.1,275,0.00,A,A*53
$IIXTE,A,A,0.06,R,N,A,*20
$IIRMB,A,0.07,R,,,,,,,4.1,275,0.00,A,A*52
$IIXTE,A,A,0.07,R,N,A,*21
$IIRMB,A,0.08,R,,,,,,,4.1,275,0.00,A,A*5D
$GPGSV,4,1,15,01,29,256,37,07,06,273,31,08,81,312,46,10,49,066,50*78
$IIXTE,A,A,0.08,R,N,A,*2E
$IIRMB,A,0.09,R,,,,,,,4.1,275,0.00,A,A*5C
$GPGSV,4,1,15,01,29,256,37,07,06,273,31,08,81,312,46,10,49,066,50*78
$IIMWV,35,T,8.9,N,A*12
$IIVWT,35,R,8.9,N,4.6,M,16.5,K*56
$IIMWD,,T,268,M,8.9,N,4.6,M*7B
$IIXTE,A,A,0.09,R,N,A,*2F
$IIRMB,A,0.10,R,,,,,,,4.1,275,0.00,A,A*54
$IIMWV,36,T,8.9,N,A*11
$IIVWT,36,R,8.9,N,4.6,M,16.5,K*55
$IIMWD,,T,269,M,8.9,N,4.6,M*7A
$IIRSA,-1.3,A,,V*56
$IIXTE,A,A,0.10,R,N,A,*27
$IIRMB,A,0.11,R,,,,,,,4.1,275,0.00,A,A*55
$GPGSV,4,2,15,11,53,282,45,14,01,132,,16,21,176,40,20,20,047,41*76
$GPGSV,4,2,15,11,53,282,45,14,01,132,,16,21,176,40,20,20,047,41*76
$IIRSA,-1.0,A,,V*55
$IIMWV,35,R,9.1,N,A*1D
$IIVWR,35,R,9.1,N,4.7,M,16.9,K*54
$IIMWV,37,R,9.1,N,A*1F
$IIVWR,37,R,9.1,N,4.7,M,16.9,K*56
$IIHDG,233,,,,*55
$IIHDM,233,M*3E
$IIMWV,35,R,9.1,N,A*1D
$IIVWR,35,R,9.1,N,4.7,M,16.9,K*54
$GPGSV,4,3,15,21,03,073,42,22,18,202,41,27,61,115,49,28,03,328,*7E
$IIMWV,37,R,9.1,N,A*1F
$IIVWR,37,R,9.1,N,4.7,M,16.9,K*56
$GPGSV,4,3,15,21,03,073,42,22,18,202,41,27,61,115,49,28,03,328,*7E
$IIMWV,35,R,9.1,N,A*1D
$IIVWR,35,R,9.1,N,4.7,M,16.9,K*54
$IIMWV,37,R,9.1,N,A*1F
$IIVWR,37,R,9.1,N,4.7,M,16.9,K*56
$IIMWV,35,R,9.1,N,A*1D
$IIVWR,35,R,9.1,N,4.7,M,16.9,K*54
$IIMWV,37,R,9.1,N,A*1F
$IIVWR,37,R,9.1,N,4.7,M,16.9,K*56
$IIMWV,35,R,9.1,N,A*1D
$GPGSV,4,4,15,30,08,302,30,32,12,115,43,40,13,115,32*46
$IIVWR,35,R,9.1,N,4.7,M,16.9,K*54
$IIMWV,37,R,9.1,N,A*1F
$IIVWR,37,R,9.1,N,4.7,M,16.9,K*56
$IIMWV,35,R,9.1,N,A*1D
$IIVWR,35,R,9.1,N,4.7,M,16.9,K*54
$GPGSV,4,4,15,30,08,302,30,32,12,115,43,40,13,115,32*46
$IIMWV,37,R,9.1,N,A*1F
$IIVWR,37,R,9.1,N,4.7,M,16.9,K*56
$IIMWV,35,R,9.1,N,A*1D
$IIVWR,35,R,9.1,N,4.7,M,16.9,K*54
$IIMWV,37,R,9.1,N,A*1F
$IIVWR,37,R,9.1,N,4.7,M,16.9,K*56
$IIVWR,35,R,9.1,N,4.7,M,16.9,K*54
$IIMWV,37,R,9.1,N,A*1F
$IIVWR,37,R,9.1,N,4.7,M,16.9,K*56
$GPRMC,162621.00,A,4729.97718,N,00222.58551,W,0.021,,220520,,,D*65
$GPVTG,,T,,M,0.021,N,0.038,K,D*2E
$IIVTG,208,T,,M,0.0,N,0.0,K,A*0E
$IIMWV,36,T,9.1,N,A*18
$IIVWT,36,R,9.1,N,4.7,M,16.9,K*51
$IIMWD,,T,269,M,9.1,N,4.7,M*72
$IIMWV,37,T,9.1,N,A*19
$IIVWT,37,R,9.1,N,4.7,M,16.9,K*50
$IIMWD,,T,270,M,9.1,N,4.7,M*7A
$GPGGA,162621.00,4729.97718,N,00222.58551,W,2,12,0.75,5.8,M,48.7,M,,0000*4C
$IIRSA,-1.3,A,,V*56
$GPGSA,A,3,16,20,27,30,32,11,08,10,07,40,22,01,1.24,0.75,0.99*0E
$GPGSA,A,3,16,20,27,30,32,11,08,10,07,40,22,01,1.24,0.75,0.99*0E
$IIMWV,37,R,9.3,N,A*1D
$IIVWR,37,R,9.3,N,4.8,M,17.2,K*51
$IIMWV,39,R,9.3,N,A*13
$IIVWR,39,R,9.3,N,4.8,M,17.2,K*5F
$IIMWV,37,R,9.3,N,A*1D
$IIVWR,37,R,9.3,N,4.8,M,17.2,K*51
$IIMWV,39,R,9.3,N,A*13
$IIVWR,39,R,9.3,N,4.8,M,17.2,K*5F
$IIMWV,37,R,9.3,N,A*1D
$IIVWR,37,R,9.3,N,4.8,M,17.2,K*51
$IIMWV,39,R,9.3,N,A*13
$IIVWR,39,R,9.3,N,4.8,M,17.2,K*5F
$GPGSV,4,1,15,01,29,256,37,07,06,273,33,08,82,312,46,10,49,066,50*79
$IIMWV,37,R,9.3,N,A*1D
$IIVWR,37,R,9.3,N,4.8,M,17.2,K*51
$IIMWV,39,R,9.3,N,A*13
$IIVWR,39,R,9.3,N,4.8,M,17.2,K*5F
$IIGLL,4729.9772,N,00222.5855,W,074528,A,D*47
$IIRMC,074528,A,4729.9772,N,00222.5855,W,0.0,208,010618,,,D*6A
$GPGSV,4,1,15,01,29,256,37,07,06,273,33,08,82,312,46,10,49,066,50*79
$IIMWV,37,R,9.3,N,A*1D
$IIVWR,37,R,9.3,N,4.8,M,17.2,K*51
$IIMWV,39,R,9.3,N,A*13
$IIVWR,39,R,9.3,N,4.8,M,17.2,K*5F
$IIMWV,37,R,9.3,N,A*1D
$IIVWR,37,R,9.3,N,4.8,M,17.2,K*51
$IIRSA,-1.0,A,,V*55
$IIMWV,39,R,9.3,N,A*13
$IIVWR,39,R,9.3,N,4.8,M,17.2,K*5F
$GPGSV,4,2,15,11,53,282,46,14,01,132,,16,21,176,38,20,20,047,41*7A
$GPGSV,4,2,15,11,53,282,46,14,01,132,,16,21,176,38,20,20,047,41*7A
$GPGSV,4,3,15,21,03,073,42,22,18,202,41,27,61,115,49,28,03,328,*7E
$GPGSV,4,3,15,21,03,073,42,22,18,202,41,27,61,115,49,28,03,328,*7E
$IIRSA,-1.3,A,,V*56
$IIDPT,4.8,,*4E
$IIDBT,15.8,f,4.8,M,,*49
$GPRMC,162622.00,A,4729.97716,N,00222.58552,W,0.031,,220520,,,D*6A
$GPVTG,,T,,M,0.031,N,0.057,K,D*26
$IIVTG,208,T,,M,0.0,N,0.1,K,A*0F
$IIRSA,-1.0,A,,V*55
$IIMWV,39,R,9.4,N,A*14
$IIVWR,39,R,9.4,N,4.8,M,17.4,K*5E
$IIMWV,41,R,9.4,N,A*1B
$IIVWR,41,R,9.4,N,4.8,M,17.4,K*51
$GPGGA,162622.00,4729.97716,N,00222.58552,W,2,12,0.75,5.8,M,48.7,M,,0000*42
$GPGSA,A,3,16,20,27,30,32,11,08,10,07,40,22,01,1.24,0.75,0.99*0E
$GPGSA,A,3,16,20,27,30,32,11,08,10,07,40,22,01,1.24,0.75,0.99*0E
$GPGSV,4,1,15,01,29,256,38,07,06,273,32,08,82,312,46,10,49,066,50*77
$GPGSV,4,1,15,01,29,256,38,07,06,273,32,08,82,312,46,10,49,066,50*77
$IIMWV,37,T,9.3,N,A*1B
$IIVWT,37,R,9.3,N,4.8,M,17.2,K*57
$IIMWD,,T,270,M,9.3,N,4.8,M*77
$IIMWV,39,T,9.3,N,A*15
$IIVWT,39,R,9.3,N,4.8,M,17.2,K*59
$IIRSA,-1.3,A,,V*56
$IIMWD,,T,272,M,9.3,N,4.8,M*75
$GPGSV,4,2,15,11,53,282,46,14,01,132,,16,21,176,38,20,20,047,41*7A
$GPGSV,4,2,15,11,53,282,46,14,01,132,,16,21,176,38,20,20,047,41*7A
$IIRSA,-1.0,A,,V*55
$GPGSV,4,3,15,21,03,073,42,22,18,202,41,27,61,115,49,28,03,328,*7E
$IIVWR,41,R,9.5,N,4.9,M,17.6,K*53
$IIMWV,42,R,9.5,N,A*19
$IIVWR,42,R,9.5,N,4.9,M,17.6,K*50
$GPGSV,4,3,15,21,03,073,42,22,18,202,41,27,61,115,49,28,03,328,*7E
$PNKEP,03,44,0,0*43
$PNKEP,05,0,0.0,N,0.0,K*70
$GPGSV,4,4,15,30,08,302,33,32,12,115,43,40,13,115,31*46
$GPGSV,4,4,15,30,08,302,33,32,12,115,43,40,13,115,31*46
$IIVHW,,T,233,M,0.00,N,0.00,K*67
$IIHDG,233,,,,*55
$IIHDM,233,M*3E
$GPRMC,162623.00,A,4729.97716,N,00222.58551,W,0.017,,220520,,,D*6C
$GPVTG,,T,,M,0.017,N,0.032,K,D*21
$IIVTG,208,T,,M,0.0,N,0.0,K,A*0E
$PNKEP,01,5.1,N,9.4,K*61
$PNKEP,02,311.0*6F
$PNKEP,03,44.0,0.0,0.0*5D
$PNKEP,04,228.0,0.0,228.0,0.0*68
$PNKEP,05,0.0,0.0,N,0.0,K*6E
$GPWPL,4730.358,N,00228.640,W,POI_GO*5C
$GPBWC,162822.00,4730.358,N,00228.640,W,275.4,T,,M,4.1,N,POI_GO*18
$GPBWR,162822.00,4730.358,N,00228.640,W,275.3,T,,M,4.1,N,POI_GO*0E
$GPRMB,A,0,L,POI_GO,LauBen,4730.358,N,00228.640,W,4.1,275.4,0.0,V,%14*13
$PNKEP,01,5.10,N,2.62,K*6A
$PNKEP,02,311*71
$PNKEP,04,228,0,228,0*68
$IIRSA,-1.3,A,,V*56
$IIXTE,A,A,0.00,R,N,A,*26
$IIRMB,A,0.00,R,,,,,,,4.1,275,0.00,A,A*55
$IIXTE,A,A,0.00,R,N,A,*26
$IIRMB,A,0.01,R,,,,,,,4.1,275,0.00,A,A*54
$GPGGA,162623.00,4729.97716,N,00222.58551,W,2,12,0.75,5.7,M,48.7,M,,0000*4F
$IIXTE,A,A,0.01,R,N,A,*27
$IIRMB,A,0.02,R,,,,,,,4.1,275,0.00,A,A*57
$IIMWV,39,T,9.5,N,A*13
$IIVWT,39,R,9.5,N,4.9,M,17.6,K*5A
$IIMWD,,T,272,M,9.5,N,4.9,M*72
$IIMWV,42,T,9.5,N,A*1F
$IIVWT,42,R,9.5,N,4.9,M,17.6,K*56
$IIMWD,,T,275,M,9.5,N,4.9,M*75
$IIXTE,A,A,0.02,R,N,A,*24
$IIRMB,A,0.03,R,,,,,,,4.1,275,0.00,A,A*56
$IIXTE,A,A,0.03,R,N,A,*25
$IIRMB,A,0.04,R,,,,,,,4.1,275,0.00,A,A*51
$IIRMB,A,0.05,R,,,,,,,4.1,275,0.00,A,A*50
$IIXTE,A,A,0.05,R,N,A,*23
$IIRMB,A,0.06,R,,,,,,,4.1,275,0.00,A,A*53
$IIXTE,A,A,0.06,R,N,A,*20
$GPGSA,A,3,16,20,27,30,32,11,08,10,07,40,22,01,1.24,0.75,0.99*0E
$IIRMB,A,0.07,R,,,,,,,4.1,275,0.00,A,A*52
$IIRSA,-1.0,A,,V*55
$GPGSA,A,3,16,20,27,30,32,11,08,10,07,40,22,01,1.24,0.75,0.99*0E
$IIMWV,42,R,9.6,N,A*1A
$IIVWR,42,R,9.6,N,4.9,M,17.8,K*5D
$IIRMB,A,0.08,R,,,,,,,4.1,275,0.00,A,A*5D
$IIXTE,A,A,0.08,R,N,A,*2E
$IIRMB,A,0.09,R,,,,,,,4.1,275,0.00,A,A*5C
$IIXTE,A,A,0.09,R,N,A,*2F
$IIRMB,A,0.10,R,,,,,,,4.1,275,0.00,A,A*54
$IIXTE,A,A,0.10,R,N,A,*27
$IIRMB,A,0.11,R,,,,,,,4.1,275,0.00,A,A*55
$GPGSV,4,1,15,01,29,256,37,07,06,273,33,08,82,312,46,10,49,065,50*7A
$GPGSV,4,1,15,01,29,256,37,07,06,273,33,08,82,312,46,10,49,065,50*7A
$IIXTE,A,A,0.11,R,N,A,*26
$IIRMB,A,0.12,R,,,,,,,4.1,275,0.00,A,A*56
$IIXTE,A,A,0.12,R,N,A,*25
$IIRMB,A,0.13,R,,,,,,,4.1,275,0.00,A,A*57
$IIXTE,A,A,0.13,R,N,A,*24
$IIRMB,A,0.14,R,,,,,,,4.1,275,0.00,A,A*50
$IIXTE,A,A,0.14,R,N,A,*23
$IIRMB,A,0.15,R,,,,,,,4.1,275,0.00,A,A*51
$GPGSV,4,2,15,11,53,282,45,14,01,132,,16,21,176,40,20,20,047,41*76
$IIXTE,A,A,0.15,R,N,A,*22
$GPGSV,4,2,15,11,53,282,45,14,01,132,,16,21,176,40,20,20,047,41*76
$IIRMB,A,0.16,R,,,,,,,4.1,275,0.00,A,A*52
$IIXTE,A,A,0.16,R,N,A,*21
$IIRMB,A,0.17,R,,,,,,,4.1,275,0.00,A,A*53
$IIXTE,A,A,0.17,R,N,A,*20
$IIRMB,A,0.18,R,,,,,,,4.1,275,0.00,A,A*5C
$IIXTE,A,A,0.18,R,N,A,*2F
$IIRMB,A,0.19,R,,,,,,,4.1,275,0.00,A,A*5D
$GPGSV,4,3,15,21,03,073,41,22,18,202,41,27,61,115,48,28,03,328,*7C
$IIXTE,A,A,0.19,R,N,A,*2E
$GPGSV,4,3,15,21,03,073,41,22,18,202,41,27,61,115,48,28,03,328,*7C
$IIRMB,A,0.20,R,,,,,,,4.1,275,0.00,A,A*57
$IIXTE,A,A,0.20,R,N,A,*24
$IIRMB,A,0.21,R,,,,,,,4.1,275,0.00,A,A*56
$IIXTE,A,A,0.21,R,N,A,*25
$IIRMB,A,0.22,R,,,,,,,4.1,275,0.00,A,A*55
$GPGSV,4,4,15,30,08,302,34,32,12,115,44,40,13,115,32*45
$IIXTE,A,A,0.22,R,N,A,*26
$IIRMB,A,0.23,R,,,,,,,4.1,275,0.00,A,A*54
$GPGSV,4,4,15,30,08,302,34,32,12,115,44,40,13,115,32*45
$IIXTE,A,A,0.23,R,N,A,*27
$IIRMB,A,0.24,R,,,,,,,4.1,275,0.00,A,A*53
$IIXDR,C,19.7,C,AirTemp*29
$IIXTE,A,A,0.24,R,N,A,*20
$IIRMB,A,0.25,R,,,,,,,4.1,275,0.00,A,A*52
$GPGLL,4729.97716,N,00222.58551,W,162623.00,A,D*74
$IIXTE,A,A,0.25,R,N,A,*21
$IIRMB,A,0.26,R,,,,,,,4.1,275,0.00,A,A*51
$IIXTE,A,A,0.26,R,N,A,*22
$IIRMB,A,0.27,R,,,,,,,4.1,275,0.00,A,A*50
$IIXTE,A,A,0.27,R,N,A,*23
$IIRMB,A,0.28,R,,,,,,,4.1,275,0.00,A,A*5F
$IIXTE,A,A,0.28,R,N,A,*2C
$IIRMB,A,0.29,R,,,,,,,4.1,275,0.00,A,A*5E
$GPRMC,162624.00,A,4729.97715,N,00222.58547,W,0.012,,220520,,,D*6A
$IIRSA,-1.3,A,,V*56
$IIXTE,A,A,0.29,R,N,A,*2D
$IIRMB,A,0.30,R,,,,,,,4.1,275,0.00,A,A*56
$IIRMB,A,0.31,R,,,,,,,4.1,275,0.00,A,A*57
$IIXTE,A,A,0.31,R,N,A,*24
$IIRMB,A,0.32,R,,,,,,,4.1,275,0.00,A,A*54
$GPVTG,,T,,M,0.012,N,0.023,K,D*24
$IIVTG,208,T,,M,0.0,N,0.0,K,A*0E
$IIXTE,A,A,0.32,R,N,A,*27
$IIRMB,A,0.33,R,,,,,,,4.1,275,0.00,A,A*55
$IIRSA,-1.0,A,,V*55
$IIXTE,A,A,0.33,R,N,A,*26
$IIRMB,A,0.34,R,,,,,,,4.1,275,0.00,A,A*52
$IIXTE,A,A,0.34,R,N,A,*21
$IIRMB,A,0.35,R,,,,,,,4.1,275,0.00,A,A*53
$IIXTE,A,A,0.35,R,N,A,*20
$IIRMB,A,0.36,R,,,,,,,4.1,275,0.00,A,A*50
$IIXTE,A,A,0.36,R,N,A,*23
$IIRMB,A,0.37,R,,,,,,,4.1,275,0.00,A,A*51
$GPGGA,162624.00,4729.97715,N,00222.58547,W,2,12,0.75,5.7,M,48.7,M,,0000*4C
$IIXTE,A,A,0.37,R,N,A,*22
$IIRMB,A,0.38,R,,,,,,,4.1,275,0.00,A,A*5E
$IIXTE,A,A,0.38,R,N,A,*2D
$IIRMB,A,0.39,R,,,,,,,4.1,275,0.00,A,A*5F
$IIXTE,A,A,0.39,R,N,A,*2C
$IIRMB,A,0.40,R,,,,,,,4.1,275,0.00,A,A*51
$IIZDA,074528,01,06,2018,,*5F
$IIXTE,A,A,0.40,R,N,A,*22
$IIRMB,A,0.41,R,,,,,,,4.1,275,0.00,A,A*50
$IIXTE,A,A,0.41,R,N,A,*23
$GPGSA,A,3,16,20,27,30,32,11,08,10,07,40,22,01,1.24,0.75,0.99*0E
$IIRMB,A,0.42,R,,,,,,,4.1,275,0.00,A,A*53
$GPGSA,A,3,16,20,27,30,32,11,08,10,07,40,22,01,1.24,0.75,0.99*0E
$IIXTE,A,A,0.42,R,N,A,*20
$IIRMB,A,0.43,R,,,,,,,4.1,275,0.00,A,A*52
$IIMWV,42,T,9.6,N,A*1C
$IIVWT,42,R,9.6,N,4.9,M,17.8,K*5B
$IIMWD,,T,275,M,9.6,N,4.9,M*76
$IIXTE,A,A,0.43,R,N,A,*21
$IIRMB,A,0.44,R,,,,,,,4.1,275,0.00,A,A*55
$IIRSA,-1.3,A,,V*56
$IIDPT,4.9,,*4F
$IIDBT,16.1,f,4.9,M,,*42
$IIXTE,A,A,0.44,R,N,A,*26
$IIRMB,A,0.45,R,,,,,,,4.1,275,0.00,A,A*54
$GPGSV,4,1,15,01,29,256,36,07,06,273,35,08,82,312,46,10,49,065,50*7D
$IIRMB,A,0.46,R,,,,,,,4.1,275,0.00,A,A*57
$GPGSV,4,1,15,01,29,256,36,07,06,273,35,08,82,312,46,10,49,065,50*7D
$IIXTE,A,A,0.46,R,N,A,*24
$IIRMB,A,0.47,R,,,,,,,4.1,275,0.00,A,A*56
$IIXTE,A,A,0.47,R,N,A,*25
$IIRMB,A,0.48,R,,,,,,,4.1,275,0.00,A,A*59
$IIXTE,A,A,0.48,R,N,A,*2A
$IIRMB,A,0.49,R,,,,,,,4.1,275,0.00,A,A*58
$IIMWV,42,R,9.7,N,A*1B
$IIVWR,42,R,9.7,N,5.0,M,18.0,K*53
$IIXTE,A,A,0.49,R,N,A,*2B
$GPGSV,4,2,15,11,54,282,46,14,01,132,,16,21,176,37,20,20,047,40*73
$IIRMB,A,0.50,R,,,,,,,4.1,275,0.00,A,A*50
$GPGSV,4,2,15,11,54,282,46,14,01,132,,16,21,176,37,20,20,047,40*73
$IIRSA,-1.0,A,,V*55
$IIXTE,A,A,0.50,R,N,A,*23
$IIRMB,A,0.51,R,,,,,,,4.1,275,0.00,A,A*51
$IIXTE,A,A,0.51,R,N,A,*22
$IIRMB,A,0.52,R,,,,,,,4.1,275,0.00,A,A*52
$IIXTE,A,A,0.52,R,N,A,*21
$IIRMB,A,0.53,R,,,,,,,4.1,275,0.00,A,A*53
$GPGSV,4,3,15,21,03,073,40,22,18,202,42,27,61,115,48,28,03,328,*7E
$IIRSA,-1.3,A,,V*56
$GPGSV,4,3,15,21,03,073,40,22,18,202,42,27,61,115,48,28,03,328,*7E
$GPGSV,4,4,15,30,08,302,36,32,12,115,44,40,13,115,32*47
$IIRSA,-1.0,A,,V*55
$GPGSV,4,4,15,30,08,302,36,32,12,115,44,40,13,115,32*47
$GPGLL,4729.97715,N,00222.58547,W,162624.00,A,D*77
$IIVLW,525.16,N,30.16,N*7C
$IIMWV,42,T,9.7,N,A*1D
$IIVWT,42,R,9.7,N,5.0,M,18.0,K*55
$IIMWD,,T,275,M,9.7,N,5.0,M*7F
$IIRSA,-1.3,A,,V*56
$GPRMC,162625.00,A,4729.97713,N,00222.58545,W,0.002,,220520,,,D*6E
$GPVTG,,T,,M,0.002,N,0.003,K,D*27
$IIVTG,208,T,,M,0.0,N,0.0,K,A*0E
$IIMWV,42,R,9.8,N,A*14
$IIVWR,42,R,9.8,N,5.0,M,18.1,K*5D
$IIMTW,22.0,C*13
$IIMWV,40,R,9.8,N,A*16
$IIVWR,40,R,9.8,N,5.0,M,18.1,K*5F
$IIHDG,233,,,,*55
$IIHDM,233,M*3E
$IIRSA,-1.0,A,,V*55
$GPGGA,162625.00,4729.97713,N,00222.58545,W,2,12,0.75,5.7,M,48.7,M,,0000*49
$IIGLL,4729.9771,N,00222.5855,W,074528,A,D*44
$IIRMC,074528,A,4729.9771,N,00222.5855,W,0.0,208,010618,,,D*69
$IIRSA,-1.3,A,,V*56
$IIDPT,4.8,,*4E
$IIDBT,15.8,f,4.8,M,,*49
$GPGSA,A,3,16,20,27,30,32,11,08,10,07,40,22,01,1.24,0.75,0.99*0E
$GPGSA,A,3,16,20,27,30,32,11,08,10,07,40,22,01,1.24,0.75,0.99*0E
$IIRSA,-1.0,A,,V*55
$IIRSA,-1.3,A,,V*56
$GPGSV,4,1,15,01,29,256,37,07,06,273,36,08,82,312,46,10,49,065,49*77
$GPGSV,4,1,15,01,29,256,37,07,06,273,36,08,82,312,46,10,49,065,49*77
$IIRSA,-1.0,A,,V*55
$IIMWD,,T,273,M,9.7,N,5.0,M*79
$GPRMC,162626.00,A,4729.97711,N,00222.58543,W,0.019,,220520,,,D*63
$GPVTG,,T,,M,0.019,N,0.036,K,D*2B
$IIVTG,208,T,,M,0.0,N,0.0,K,A*0E
$PNKEP,01,5.6,N,10.3,K*59
$PNKEP,02,315.0*6B
$PNKEP,03,44.0,0.0,0.0*5D
$PNKEP,04,229.0,0.0,229.0,0.0*68
$PNKEP,05,0.0,0.0,N,0.0,K*6E
$GPWPL,4730.358,N,00228.640,W,POI_GO*5C
$GPBWC,162825.00,4730.358,N,00228.640,W,275.4,T,,M,4.1,N,POI_GO*1F
$GPBWR,162825.00,4730.358,N,00228.640,W,275.3,T,,M,4.1,N,POI_GO*09
$GPRMB,A,0,L,POI_GO,LauBen,4730.358,N,00228.640,W,4.1,275.4,0.0,V,%14*13
$PNKEP,01,5.60,N,2.88,K*69
$PNKEP,02,315*75
$PNKEP,04,229,0,229,0*68
$IIRSA,-1.3,A,,V*56
$IIXTE,A,A,0.00,R,N,A,*26
$IIRMB,A,0.00,R,,,,,,,4.1,275,0.00,A,A*55
$GPGGA,162626.00,4729.97711,N,00222.58543,W,2,12,0.75,5.7,M,48.7,M,,0000*4E
$IIXTE,A,A,0.00,R,N,A,*26
$IIRMB,A,0.01,R,,,,,,,4.1,275,0.00,A,A*54
$IIGLL,4729.9771,N,00222.5854,W,074528,A,D*45
$IIRMC,074528,A,4729.9771,N,00222.5854,W,0.0,208,010618,,,D*68
$IIXTE,A,A,0.01,R,N,A,*27
$IIRMB,A,0.02,R,,,,,,,4.1,275,0.00,A,A*57
$IIXTE,A,A,0.02,R,N,A,*24
$IIRMB,A,0.03,R,,,,,,,4.1,275,0.00,A,A*56
$IIRSA,-1.0,A,,V*55
$IIXTE,A,A,0.03,R,N,A,*25
$IIRMB,A,0.04,R,,,,,,,4.1,275,0.00,A,A*51
$GPGSA,A,3,16,20,27,30,32,11,08,10,07,40,22,01,1.24,0.75,0.99*0E
$IIXTE,A,A,0.04,R,N,A,*22
$IIRMB,A,0.05,R,,,,,,,4.1,275,0.00,A,A*50
$GPGSA,A,3,16,20,27,30,32,11,08,10,07,40,22,01,1.24,0.75,0.99*0E
$IIXTE,A,A,0.05,R,N,A,*23
$IIRMB,A,0.06,R,,,,,,,4.1,275,0.00,A,A*53
$IIXTE,A,A,0.06,R,N,A,*20
$IIRMB,A,0.07,R,,,,,,,4.1,275,0.00,A,A*52
$IIXTE,A,A,0.07,R,N,A,*21
$IIRMB,A,0.08,R,,,,,,,4.1,275,0.00,A,A*5D
$GPGSV,4,1,15,01,29,256,38,07,06,273,36,08,82,312,46,10,49,065,50*70
$IIXTE,A,A,0.08,R,N,A,*2E
$IIRMB,A,0.09,R,,,,,,,4.1,275,0.00,A,A*5C
$GPGSV,4,1,15,01,29,256,38,07,06,273,36,08,82,312,46,10,49,065,50*70
$IIXTE,A,A,0.09,R,N,A,*2F
$IIRMB,A,0.10,R,,,,,,,4.1,275,0.00,A,A*54
$IIXTE,A,A,0.10,R,N,A,*27
$IIRMB,A,0.11,R,,,,,,,4.1,275,0.00,A,A*55
$IIMWV,42,T,9.8,N,A*12
$IIVWT,42,R,9.8,N,5.0,M,18.1,K*5B
$IIMWD,,T,273,M,9.8,N,5.0,M*76
$IIMWV,40,T,9.8,N,A*10
$IIVWT,40,R,9.8,N,5.0,M,18.1,K*59
$IIXTE,A,A,0.11,R,N,A,*26
$IIRMB,A,0.12,R,,,,,,,4.1,275,0.00,A,A*56
$IIRSA,-1.3,A,,V*56
$GPGSV,4,2,15,11,54,282,45,14,01,132,,16,21,176,38,20,20,047,40*7F
$IIRMB,A,0.13,R,,,,,,,4.1,275,0.00,A,A*57
$GPGSV,4,2,15,11,54,282,45,14,01,132,,16,21,176,38,20,20,047,40*7F
$IIRMB,A,0.14,R,,,,,,,4.1,275,0.00,A,A*50
$IIXTE,A,A,0.14,R,N,A,*23
$IIRMB,A,0.15,R,,,,,,,4.1,275,0.00,A,A*51
$IIXTE,A,A,0.15,R,N,A,*22
$IIRMB,A,0.16,R,,,,,,,4.1,275,0.00,A,A*52
$IIRSA,-1.0,A,,V*55
$GPGSV,4,3,15,21,03,073,40,22,18,202,41,27,61,115,48,28,03,328,*7D
$IIXTE,A,A,0.16,R,N,A,*21
$IIRMB,A,0.17,R,,,,,,,4.1,275,0.00,A,A*53
$IIMWV,40,R,9.7,N,A*19
$IIVWR,40,R,9.7,N,5.0,M,18.0,K*51
$IIMWV,39,R,9.7,N,A*17
$IIVWR,39,R,9.7,N,5.0,M,18.0,K*5F
$GPGSV,4,3,15,21,03,073,40,22,18,202,41,27,61,115,48,28,03,328,*7D
$IIMWV,40,R,9.7,N,A*19
$IIVWR,40,R,9.7,N,5.0,M,18.0,K*51
$IIXTE,A,A,0.17,R,N,A,*20
$IIRMB,A,0.18,R,,,,,,,4.1,275,0.00,A,A*5C
$IIMWV,39,R,9.7,N,A*17
$IIVWR,40,R,9.7,N,5.0,M,18.0,K*51
$IIXTE,A,A,0.18,R,N,A,*2F
$IIRMB,A,0.19,R,,,,,,,4.1,275,0.00,A,A*5D
$IIMWV,39,R,9.7,N,A*17
$IIVWR,39,R,9.7,N,5.0,M,18.0,K*5F
$IIXTE,A,A,0.19,R,N,A,*2E
$IIRMB,A,0.20,R,,,,,,,4.1,275,0.00,A,A*57
$GPRMC,162627.00,A,4729.97709,N,00222.58539,W,0.022,,220520,,,D*6E
$IIXTE,A,A,0.20,R,N,A,*24
$IIRMB,A,0.21,R,,,,,,,4.1,275,0.00,A,A*56
$IIRSA,-1.3,A,,V*56
$IIXTE,A,A,0.21,R,N,A,*25
$IIRMB,A,0.22,R,,,,,,,4.1,275,0.00,A,A*55
$GPVTG,,T,,M,0.022,N,0.042,K,D*20
$IIXTE,A,A,0.22,R,N,A,*26
$IIRMB,A,0.23,R,,,,,,,4.1,275,0.00,A,A*54
$IIXTE,A,A,0.23,R,N,A,*27
$IIRMB,A,0.24,R,,,,,,,4.1,275,0.00,A,A*53
$IIXTE,A,A,0.24,R,N,A,*20
$IIRMB,A,0.25,R,,,,,,,4.1,275,0.00,A,A*52
$IIRSA,-1.0,A,,V*55
$IIXTE,A,A,0.25,R,N,A,*21
$IIRMB,A,0.26,R,,,,,,,4.1,275,0.00,A,A*51
$IIXTE,A,A,0.26,R,N,A,*22
$IIRMB,A,0.27,R,,,,,,,4.1,275,0.00,A,A*50
$GPGGA,162627.00,4729.97709,N,00222.58539,W,2,12,0.75,5.7,M,48.7,M,,0000*4B
$IIXTE,A,A,0.27,R,N,A,*23
$IIRMB,A,0.28,R,,,,,,,4.1,275,0.00,A,A*5F
$IIXTE,A,A,0.28,R,N,A,*2C
$IIRMB,A,0.29,R,,,,,,,4.1,275,0.00,A,A*5E
$IIRSA,-1.3,A,,V*56
$IIXTE,A,A,0.29,R,N,A,*2D
$IIRMB,A,0.30,R,,,,,,,4.1,275,0.00,A,A*56
$IIXTE,A,A,0.30,R,N,A,*25
$IIRMB,A,0.31,R,,,,,,,4.1,275,0.00,A,A*57
$IIMWV,40,T,9.7,N,A*1F
$GPGSA,A,3,16,20,27,30,32,11,08,10,07,40,22,01,1.24,0.75,0.99*0E
$IIVWT,40,R,9.7,N,5.0,M,18.0,K*57
$IIMWD,,T,273,M,9.7,N,5.0,M*79
$IIMWV,39,T,9.7,N,A*11
$IIVWT,39,R,9.7,N,5.0,M,18.0,K*59
$IIMWD,,T,272,M,9.7,N,5.0,M*78
$IIXTE,A,A,0.31,R,N,A,*24
$IIRMB,A,0.32,R,,,,,,,4.1,275,0.00,A,A*54
$GPGSA,A,3,16,20,27,30,32,11,08,10,07,40,22,01,1.24,0.75,0.99*0E
$IIRSA,-1.0,A,,V*55
$IIXTE,A,A,0.32,R,N,A,*27
$IIRMB,A,0.33,R,,,,,,,4.1,275,0.00,A,A*55
$IIXTE,A,A,0.33,R,N,A,*26
$IIRMB,A,0.34,R,,,,,,,4.1,275,0.00,A,A*52
$IIXTE,A,A,0.34,R,N,A,*21
$IIRMB,A,0.35,R,,,,,,,4.1,275,0.00,A,A*53
$GPGSV,4,1,15,01,29,256,38,07,06,273,37,08,82,312,46,10,49,065,49*79
$IIXTE,A,A,0.35,R,N,A,*20
$IIRMB,A,0.36,R,,,,,,,4.1,275,0.00,A,A*50
$GPGSV,4,1,15,01,29,256,38,07,06,273,37,08,82,312,46,10,49,065,49*79
$IIXTE,A,A,0.36,R,N,A,*23
$IIRMB,A,0.37,R,,,,,,,4.1,275,0.00,A,A*51
$IIXTE,A,A,0.37,R,N,A,*22
$IIRMB,A,0.38,R,,,,,,,4.1,275,0.00,A,A*5E
$IIXTE,A,A,0.38,R,N,A,*2D
$IIRMB,A,0.39,R,,,,,,,4.1,275,0.00,A,A*5F
$IIXTE,A,A,0.39,R,N,A,*2C
$GPGSV,4,2,15,11,54,282,46,14,01,132,,16,21,176,36,20,20,047,38*7D
$IIRMB,A,0.40,R,,,,,,,4.1,275,0.00,A,A*51
$GPGSV,4,2,15,11,54,282,46,14,01,132,,16,21,176,36,20,20,047,38*7D
$IIXTE,A,A,0.40,R,N,A,*22
$IIRMB,A,0.41,R,,,,,,,4.1,275,0.00,A,A*50
$IIXTE,A,A,0.41,R,N,A,*23
$IIRMB,A,0.42,R,,,,,,,4.1,275,0.00,A,A*53
$IIXTE,A,A,0.42,R,N,A,*20
$IIRMB,A,0.43,R,,,,,,,4.1,275,0.00,A,A*52
$GPGSV,4,3,15,21,03,073,40,22,18,202,42,27,61,115,48,28,03,328,*7E
$IIXTE,A,A,0.43,R,N,A,*21
$IIRMB,A,0.44,R,,,,,,,4.1,275,0.00,A,A*55
$GPGSV,4,3,15,21,03,073,40,22,18,202,42,27,61,115,48,28,03,328,*7E
$IIXTE,A,A,0.44,R,N,A,*26
$IIRMB,A,0.45,R,,,,,,,4.1,275,0.00,A,A*54
$IIXTE,A,A,0.45,R,N,A,*27
$IIRMB,A,0.46,R,,,,,,,4.1,275,0.00,A,A*57
$IIXTE,A,A,0.46,R,N,A,*24
$IIRMB,A,0.47,R,,,,,,,4.1,275,0.00,A,A*56
$GPGSV,4,4,15,30,08,302,35,32,12,115,45,40,13,115,31*46
$IIXTE,A,A,0.47,R,N,A,*25
$IIRMB,A,0.48,R,,,,,,,4.1,275,0.00,A,A*59
$GPGSV,4,4,15,30,08,302,35,32,12,115,45,40,13,115,31*46
$IIXTE,A,A,0.48,R,N,A,*2A
$IIRMB,A,0.49,R,,,,,,,4.1,275,0.00,A,A*58
$IIXTE,A,A,0.49,R,N,A,*2B
$IIRMB,A,0.50,R,,,,,,,4.1,275,0.00,A,A*50
$IIXTE,A,A,0.50,R,N,A,*23
$IIRMB,A,0.51,R,,,,,,,4.1,275,0.00,A,A*51
$GPRMC,162628.00,A,4729.97709,N,00222.58536,W,0.013,,220520,,,D*6C
$IIVHW,,T,233,M,0.00,N,0.00,K*67
$IIHDG,233,,,,*55
$IIHDM,233,M*3E
$IIXTE,A,A,0.51,R,N,A,*22
$IIRMB,A,0.52,R,,,,,,,4.1,275,0.00,A,A*52
$IIXTE,A,A,0.52,R,N,A,*21
$IIRMB,A,0.53,R,,,,,,,4.1,275,0.00,A,A*53
$GPVTG,,T,,M,0.013,N,0.023,K,D*25
$IIVTG,208,T,,M,0.0,N,0.0,K,A*0E
$IIMWV,39,R,9.6,N,A*16
$IIVWR,39,R,9.6,N,4.9,M,17.8,K*51
$GPGGA,162628.00,4729.97709,N,00222.58536,W,2,12,0.75,5.6,M,48.7,M,,0000*4A
$GPGSA,A,3,16,20,27,30,32,11,08,10,07,40,22,01,1.24,0.75,0.99*0E
$GPGSA,A,3,16,20,27,30,32,11,08,10,07,40,22,01,1.24,0.75,0.99*0E
$GPGSV,4,1,15,01,29,256,39,07,06,273,37,08,82,312,47,10,49,065,50*71
$GPGSV,4,1,15,01,29,256,39,07,06,273,37,08,82,312,47,10,49,065,50*71
$GPGSV,4,2,15,11,54,282,46,14,01,132,,16,21,176,37,20,20,047,40*73
$GPGSV,4,2,15,11,54,282,46,14,01,132,,16,21,176,37,20,20,047,40*73
$GPGSV,4,3,15,21,03,073,39,22,18,202,42,27,61,115,48,28,03,328,*70
$IIMWV,39,R,9.7,N,A*17
$IIVWR,39,R,9.7,N,5.0,M,18.0,K*5F
$GPGSV,4,3,15,21,03,073,39,22,18,202,42,27,61,115,48,28,03,328,*70
$IIRSA,-1.3,A,,V*56
$GPGSV,4,4,15,30,08,302,34,32,12,115,44,40,13,115,32*45
$GPGSV,4,4,15,30,08,302,34,32,12,115,44,40,13,115,32*45
$IIRSA,-1.0,A,,V*55
$GPGLL,4729.97709,N,00222.58536,W,162628.00,A,D*70
$GPRMC,162629.00,A,4729.97709,N,00222.58532,W,0.010,,220520,,,D*6A
$GPVTG,,T,,M,0.010,N,0.019,K,D*2F
$PNKEP,01,5.2,N,9.7,K*61
$PNKEP,02,311.0*6F
$PNKEP,03,44.0,0.0,0.0*5D
$PNKEP,04,228.0,0.0,228.0,0.0*68
$PNKEP,05,0.0,0.0,N,0.0,K*6E
$GPWPL,4730.358,N,00228.640,W,POI_GO*5C
$GPBWC,162828.00,4730.358,N,00228.640,W,275.4,T,,M,4.1,N,POI_GO*12
$GPBWR,162828.00,4730.358,N,00228.640,W,275.3,T,,M,4.1,N,POI_GO*04
$GPRMB,A,0,L,POI_GO,LauBen,4730.358,N,00228.640,W,4.1,275.4,0.0,V,%14*13
$PNKEP,01,5.20,N,2.67,K*6C
$PNKEP,02,311*71
$PNKEP,04,228,0,228,0*68
$IIXTE,A,A,0.00,R,N,A,*26
$IIRMB,A,0.00,R,,,,,,,4.1,275,0.00,A,A*55
$IIXTE,A,A,0.00,R,N,A,*26
$IIRMB,A,0.01,R,,,,,,,4.1,275,0.00,A,A*54
$GPGGA,162629.00,4729.97709,N,00222.58532,W,2,12,0.75,5.6,M,48.7,M,,0000*4F
$IIXTE,A,A,0.01,R,N,A,*27
$IIRMB,A,0.02,R,,,,,,,4.1,275,0.00,A,A*57
$IIGLL,4729.9771,N,00222.5853,W,074528,A,D*42
$IIRMC,074528,A,4729.9771,N,00222.5853,W,0.0,208,010618,,,D*6F
$IIXTE,A,A,0.02,R,N,A,*24
$IIRMB,A,0.03,R,,,,,,,4.1,275,0.00,A,A*56
$IIRSA,-1.3,A,,V*56
$IIXTE,A,A,0.03,R,N,A,*25
$IIRMB,A,0.04,R,,,,,,,4.1,275,0.00,A,A*51
$IIMWV,39,R,9.8,N,A*18
$IIVWR,41,R,9.8,N,5.0,M,18.1,K*5E
$IIXTE,A,A,0.04,R,N,A,*22
$IIRMB,A,0.05,R,,,,,,,4.1,275,0.00,A,A*50
$IIMWV,39,R,9.8,N,A*18
$IIVWR,39,R,9.8,N,5.0,M,18.1,K*51
$GPGSA,A,3,16,20,27,30,32,11,08,10,07,40,22,01,1.24,0.75,0.99*0E
$GPGSA,A,3,16,20,27,30,32,11,08,10,07,40,22,01,1.24,0.75,0.99*0E
$IIXTE,A,A,0.05,R,N,A,*23
$IIRMB,A,0.06,R,,,,,,,4.1,275,0.00,A,A*53
$IIRSA,-1.0,A,,V*55
$IIXTE,A,A,0.06,R,N,A,*20
$IIRMB,A,0.07,R,,,,,,,4.1,275,0.00,A,A*52
$IIXTE,A,A,0.07,R,N,A,*21
$IIRMB,A,0.08,R,,,,,,,4.1,275,0.00,A,A*5D
$IIXTE,A,A,0.08,R,N,A,*2E
$IIRMB,A,0.09,R,,,,,,,4.1,275,0.00,A,A*5C
$GPGSV,4,1,15,01,29,256,39,07,06,273,37,08,82,312,47,10,49,065,50*71
$IIXTE,A,A,0.09,R,N,A,*2F
$GPGSV,4,1,15,01,29,256,39,07,06,273,37,08,82,312,47,10,49,065,50*71
$IIRMB,A,0.10,R,,,,,,,4.1,275,0.00,A,A*54
$IIRSA,-1.3,A,,V*56
$IIXTE,A,A,0.10,R,N,A,*27
$IIRMB,A,0.11,R,,,,,,,4.1,275,0.00,A,A*55
$IIXTE,A,A,0.11,R,N,A,*26
$IIRMB,A,0.12,R,,,,,,,4.1,275,0.00,A,A*56
$IIRSA,-1.0,A,,V*55
$IIXTE,A,A,0.12,R,N,A,*25
$IIRMB,A,0.13,R,,,,,,,4.1,275,0.00,A,A*57
$GPGSV,4,2,15,11,54,282,45,14,01,132,,16,21,176,39,20,20,047,40*7E
$IIXTE,A,A,0.13,R,N,A,*24
$IIRMB,A,0.14,R,,,,,,,4.1,275,0.00,A,A*50
$GPGSV,4,2,15,11,54,282,45,14,01,132,,16,21,176,39,20,20,047,40*7E
$IIXTE,A,A,0.14,R,N,A,*23
$IIRMB,A,0.15,R,,,,,,,4.1,275,0.00,A,A*51
$IIXTE,A,A,0.15,R,N,A,*22
$IIRMB,A,0.16,R,,,,,,,4.1,275,0.00,A,A*52
$IIXTE,A,A,0.16,R,N,A,*21
$IIRMB,A,0.17,R,,,,,,,4.1,275,0.00,A,A*53
$GPGSV,4,3,15,21,03,073,40,22,18,202,42,27,61,115,49,28,03,328,27*7A
$IIXTE,A,A,0.17,R,N,A,*20
$IIRMB,A,0.18,R,,,,,,,4.1,275,0.00,A,A*5C
$IIMWV,39,T,9.8,N,A*1E
$IIVWT,39,R,9.8,N,5.0,M,18.1,K*57
$GPGSV,4,3,15,21,03,073,40,22,18,202,42,27,61,115,49,28,03,328,27*7A
$IIMWD,,T,272,M,9.8,N,5.0,M*77
$IIMWV,41,T,9.8,N,A*11
$IIVWT,41,R,9.8,N,5.0,M,18.1,K*58
$IIMWD,,T,274,M,9.8,N,5.0,M*71
$IIXTE,A,A,0.18,R,N,A,*2F
$IIRMB,A,0.19,R,,,,,,,4.1,275,0.00,A,A*5D
$GPGSV,4,4,15,30,08,302,34,32,12,115,44,40,13,115,32*45
$GPGSV,4,4,15,30,08,302,34,32,12,115,44,40,13,115,32*45
$GPTXT,01,01,00,txbuf alloc*7F
$GPTXT,01,01,00,txbuf alloc*7F
$IIMWV,39,R,9.9,N,A*19
$IIVWR,39,R,9.9,N,5.1,M,18.3,K*53
$IIMWV,41,R,9.9,N,A*16
$IIVWR,41,R,9.9,N,5.1,M,18.3,K*5C
$IIMWV,39,R,9.9,N,A*19
$IIVWR,39,R,9.9,N,5.1,M,18.3,K*53
$IIMWV,41,R,9.9,N,A*16
$IIVWR,41,R,9.9,N,5.1,M,18.3,K*5C
$IIMWV,39,R,9.9,N,A*19
$IIVWR,39,R,9.9,N,5.1,M,18.3,K*53
$IIMWV,41,R,9.9,N,A*16
$IIVWR,41,R,9.9,N,5.1,M,18.3,K*5C
$IIMWV,39,R,9.9,N,A*19
$IIVWR,39,R,9.9,N,5.1,M,18.3,K*53
$GPRMC,162630.00,A,4729.97710,N,00222.58528,W,0.025,,220520,,,D*67
$PNKEP,03,44,0,0*43
$IIRSA,-1.3,A,,V*56
$IIMWV,41,R,9.9,N,A*16
$IIVWR,39,R,9.9,N,5.1,M,18.3,K*53
$PNKEP,05,0,0.0,N,0.0,K*70
$IIMWV,41,R,9.9,N,A*16
$IIVWR,41,R,9.9,N,5.1,M,18.3,K*5C
$IIRSA,-1.0,A,,V*55
$GPVTG,,T,,M,0.025,N,0.047,K,D*22
$IIVTG,208,T,,M,0.0,N,0.1,K,A*0F
$IIVHW,,T,233,M,0.00,N,0.00,K*67
$IIHDG,233,,,,*55
$IIHDM,233,M*3E
$GPGGA,162630.00,4729.97710,N,00222.58528,W,2,12,0.75,5.5,M,48.7,M,,0000*47
$GPGSA,A,3,16,20,27,30,32,11,08,10,07,40,22,01,1.24,0.75,0.99*0E
$GPGSA,A,3,16,20,27,30,32,11,08,10,07,40,22,01,1.24,0.75,0.99*0E
$GPGSV,4,1,15,01,29,256,39,07,06,273,36,08,82,312,47,10,49,065,50*70
$GPGSV,4,1,15,01,29,256,39,07,06,273,36,08,82,312,47,10,49,065,50*70
$IIVWR,41,R,10.0,N,5.1,M,18.5,K*6B
$IIVHW,,T,232,M,0.00,N,0.00,K*66
$IIHDG,232,,,,*54
$IIHDM,232,M*3F
$GPRMC,162631.00,A,4729.97710,N,00222.58525,W,0.006,,220520,,,D*6A
$GPVTG,,T,,M,0.006,N,0.012,K,D*23
$IIVTG,208,T,,M,0.0,N,0.0,K,A*0E
$GPGGA,162631.00,4729.97710,N,00222.58525,W,2,12,0.75,5.5,M,48.7,M,,0000*4B
$GPGSA,A,3,16,20,27,30,32,11,08,10,07,40,22,01,1.24,0.75,0.99*0E
$GPGSA,A,3,16,20,27,30,32,11,08,10,07,40,22,01,1.24,0.75,0.99*0E
$IIMWV,41,T,10.0,N,A*21
$IIVWT,41,R,10.0,N,5.1,M,18.5,K*6D
$IIMWD,,T,274,M,10.0,N,5.1,M*40
$IIMWD,,T,273,M,10.0,N,5.1,M*47
$IIXDR,C,19.7,C,AirTemp*29
$GPGSV,4,1,15,01,29,256,39,07,06,273,36,08,82,312,47,10,49,065,50*70
$GPGSV,4,1,15,01,29,256,39,07,06,273,36,08,82,312,47,10,49,065,50*70
$IIRSA,-1.3,A,,V*56
$IIMWV,41,R,10.1,N,A*26
$IIVWR,41,R,10.1,N,5.2,M,18.7,K*6B
$IIHDG,233,,,,*55
$IIHDM,233,M*3E
$IIRSA,-1.0,A,,V*55
$GPGSV,4,2,15,11,54,282,45,14,01,132,,16,21,176,40,20,20,047,38*7F
$GPGSV,4,2,15,11,54,282,45,14,01,132,,16,21,176,40,20,20,047,38*7F
$IIRSA,-1.3,A,,V*56
$GPGSV,4,3,15,21,03,073,40,22,18,202,40,27,61,115,49,28,03,328,28*77
$GPGSV,4,3,15,21,03,073,40,22,18,202,40,27,61,115,49,28,03,328,28*77
$IIRSA,-1.0,A,,V*55
$GPGSV,4,4,15,30,08,302,35,32,12,115,44,40,13,115,33*45
$GPGSV,4,4,15,30,08,302,35,32,12,115,44,40,13,115,33*45
$IIZDA,074528,01,06,2018,,*5F
$IIRSA,-1.3,A,,V*56
$IIMWV,41,T,10.1,N,A*20
$IIVWT,41,R,10.1,N,5.2,M,18.7,K*6D
$IIMWD,,T,273,M,10.1,N,5.2,M*45
$GPRMC,162632.00,A,4729.97710,N,00222.58522,W,0.021,,220520,,,D*6B
$IIRSA,-1.0,A,,V*55
$IIMWD,,T,274,M,10.1,N,5.2,M*42
$GPVTG,,T,,M,0.021,N,0.039,K,D*2F
$IIVTG,208,T,,M,0.0,N,0.0,K,A*0E
$IIMWV,41,R,10.3,N,A*24
$IIVWR,41,R,10.3,N,5.3,M,19.1,K*6F
$PNKEP,01,5.5,N,10.3,K*5A
$PNKEP,02,315.0*6B
$PNKEP,03,44.0,0.0,0.0*5D
$PNKEP,04,230.0,0.0,230.0,0.0*68
$PNKEP,05,0.0,0.0,N,0.0,K*6E
$GPWPL,4730.358,N,00228.640,W,POI_GO*5C
$GPBWC,162831.00,4730.358,N,00228.640,W,275.4,T,,M,4.1,N,POI_GO*1A
$GPBWR,162831.00,4730.358,N,00228.640,W,275.3,T,,M,4.1,N,POI_GO*0C
$GPRMB,A,0,L,POI_GO,LauBen,4730.358,N,00228.640,W,4.1,275.4,0.0,V,%14*13
$IIMWV,40,R,10.3,N,A*25
$IIVWR,40,R,10.3,N,5.3,M,19.1,K*6E
$PNKEP,01,5.50,N,2.83,K*61
