Terminal log file
Date: 26/06/2016 - 18:27:06
-----------------------------------------------
$IIVHW,229.5,T,232.,M,00.00,N,00.00,K*6A
$IIMWV,115,R,00.0,N,A*16
$IIVWR,115.,R,00.0,N,00.0,M,000.0,K*7C
$IIMWD,,,231.,M,00.0,N,00.0,M*0E
$IIMTA,22.8,C*0D
$IIMTW,25.4,C*10
$IIVWT,001.,L,00.0,N,00.0,M,000.0,K*60
$IIHDG,232.,,,,*7A
$IIHDM,232.,M*11
$IIHDT,229.5,T*2E
$IIGLL,4714.352,N,00131.574,W,162706,A,A*41
$IIZDA,162706,26,06,2016,,*5C
$IIVTG,112.,T,,M,00.0,N,00.0,K,A*28
$IIDPT,0000.0,,*72
$IIDBT,0000.0,f,0000.0,M,,*79
$IIVLW,0000.0,N,000.00,N*4D
$IIVHW,229.5,T,232.,M,00.00,N,00.00,K*6A
$IIMWV,115,R,00.0,N,A*16
$IIVWR,115.,R,00.0,N,00.0,M,000.0,K*7C
$IIMWD,,,231.,M,00.0,N,00.0,M*0E
$IIMTA,22.8,C*0D
$IIMTW,25.5,C*11
$IIVWT,001.,L,00.0,N,00.0,M,000.0,K*60
$IIHDG,232.,,,,*7A
$IIHDM,232.,M*11
$IIHDT,229.5,T*2E
$IIGLL,4714.352,N,00131.574,W,162708,A,A*4F
$IIZDA,162708,26,06,2016,,*52
$IIVTG,112.,T,,M,00.0,N,00.0,K,A*28
$IIDPT,0000.0,,*72
$IIDBT,0000.0,f,0000.0,M,,*79
$IIVLW,0000.0,N,000.00,N*4D
$IIVHW,229.5,T,232.,M,00.00,N,00.00,K*6A
$IIMWV,115,R,00.0,N,A*16
$IIVWR,115.,R,00.0,N,00.0,M,000.0,K*7C
$IIMWD,,,231.,M,00.0,N,00.0,M*0E
$IIMTA,22.8,C*0D
$IIMTW,25.4,C*10
$IIVWT,001.,L,00.0,N,00.0,M,000.0,K*60
$IIHDG,232.,,,,*7A
$IIHDM,232.,M*11
$IIHDT,229.5,T*2E
$IIGLL,4714.352,N,00131.574,W,162708,A,A*4F
$IIZDA,162708,26,06,2016,,*52
$IIVTG,112.,T,,M,00.0,N,00.0,K,A*28
$IIDPT,0000.0,,*72
$IIDBT,0000.0,f,0000.0,M,,*79
$IIVLW,0000.0,N,000.00,N*4D
$IIVHW,229.5,T,232.,M,00.00,N,00.00,K*6A
$IIMWV,115,R,00.0,N,A*16
$IIVWR,115.,R,00.0,N,00.0,M,000.0,K*7C
$IIMWD,,,230.,M,00.0,N,00.0,M*0F
$IIMTA,22.9,C*0C
$IIMTW,25.5,C*11
$IIVWT,001.,L,00.0,N,00.0,M,000.0,K*60
$IIHDG,231.,,,,*79
$IIHDM,231.,M*12
$IIHDT,228.5,T*2F
$IIGLL,4714.352,N,00131.574,W,162710,A,A*46
$IIZDA,162710,26,06,2016,,*5B
$IIVTG,112.,T,,M,00.0,N,00.0,K,A*28
$IIDPT,0000.0,,*72
$IIDBT,0000.0,f,0000.0,M,,*79
$IIVLW,0000.0,N,000.00,N*4D
$IIVHW,228.5,T,231.,M,00.00,N,00.00,K*68
$IIMWV,115,R,00.0,N,A*16
$IIVWR,115.,R,00.0,N,00.0,M,000.0,K*7C
$IIMWD,,,230.,M,00.0,N,00.0,M*0F
$IIMTA,22.9,C*0C
$IIMTW,25.5,C*11
$IIVWT,001.,L,00.0,N,00.0,M,000.0,K*60
$IIHDG,231.,,,,*79
$IIHDM,231.,M*12
$IIHDT,228.5,T*2F
$IIGLL,4714.352,N,00131.574,W,162710,A,A*46
$IIZDA,162710,26,06,2016,,*5B
$IIVTG,112.,T,,M,00.0,N,00.0,K,A*28
$IIDPT,0000.0,,*72
$IIDBT,0000.0,f,0000.0,M,,*79
$IIVLW,0000.0,N,000.00,N*4D
$IIVHW,228.5,T,231.,M,00.00,N,00.00,K*68
$IIMWV,115,R,00.0,N,A*16
$IIVWR,115.,R,00.0,N,00.0,M,000.0,K*7C
$IIMWD,,,230.,M,00.0,N,00.0,M*0F
$IIMTA,22.9,C*0C
$IIMTW,25.5,C*11
$IIVWT,001.,L,00.0,N,00.0,M,000.0,K*60
$IIHDG,231.,,,,*79
$IIHDM,231.,M*12
$IIHDT,228.5,T*2F
$IIGLL,4714.352,N,00131.574,W,162712,A,A*44
$IIZDA,162712,26,06,2016,,*59
$IIVTG,112.,T,,M,00.0,N,00.0,K,A*28
$IIDPT,0000.0,,*72
$IIDBT,0000.0,f,0000.0,M,,*79
$IIVLW,0000.0,N,000.00,N*4D
$IIVHW,228.5,T,231.,M,00.00,N,00.00,K*68
$IIMWV,115,R,00.0,N,A*16
$IIVWR,115.,R,00.0,N,00.0,M,000.0,K*7C
$IIMWD,,,230.,M,00.0,N,00.0,M*0F
$IIMTA,22.9,C*0C
$IIMTW,25.5,C*11
$IIVWT,001.,L,00.0,N,00.0,M,000.0,K*60
$IIHDG,231.,,,,*79
$IIHDM,231.,M*12
$IIHDT,228.5,T*2F
$IIGLL,4714.352,N,00131.574,W,162712,A,A*44
$IIZDA,162712,26,06,2016,,*59
$IIVTG,112.,T,,M,00.0,N,00.0,K,A*28
$IIDPT,0000.0,,*72
$IIDBT,0000.0,f,0000.0,M,,*79
$IIVLW,0000.0,N,000.00,N*4D
$IIVHW,228.5,T,231.,M,00.00,N,00.00,K*68
$IIMWV,115,R,00.0,N,A*16
$IIVWR,115.,R,00.0,N,00.0,M,000.0,K*7C
$IIMWD,,,230.,M,00.0,N,00.0,M*0F
$IIMTA,22.9,C*0C
$IIMTW,25.5,C*11
$IIVWT,001.,L,00.0,N,00.0,M,000.0,K*60
$IIHDG,231.,,,,*79
$IIHDM,231.,M*12
$IIHDT,228.5,T*2F
$IIGLL,4714.352,N,00131.574,W,162714,A,A*42
$IIZDA,162714,26,06,2016,,*5F
$IIVTG,112.,T,,M,00.0,N,00.0,K,A*28
$IIDPT,0000.0,,*72
$IIDBT,0000.0,f,0000.0,M,,*79
$IIVLW,0000.0,N,000.00,N*4D
$IIVHW,228.5,T,231.,M,00.00,N,00.00,K*68
$IIMWV,115,R,00.0,N,A*16
$IIVWR,115.,R,00.0,N,00.0,M,000.0,K*7C
$IIMWD,,,230.,M,00.0,N,00.0,M*0F
$IIMTA,22.9,C*0C
$IIMTW,25.4,C*10
$IIVWT,001.,L,00.0,N,00.0,M,000.0,K*60
$IIHDG,231.,,,,*79
$IIHDM,231.,M*12
$IIHDT,228.5,T*2F
$IIGLL,4714.352,N,00131.574,W,162716,A,A*40
$IIZDA,162716,26,06,2016,,*5D
$IIVTG,112.,T,,M,00.0,N,00.0,K,A*28
$IIDPT,0000.0,,*72
$IIDBT,0000.0,f,0000.0,M,,*79
$IIVLW,0000.0,N,000.00,N*4D
$IIVHW,228.5,T,231.,M,00.00,N,00.00,K*68
$IIMWV,115,R,00.0,N,A*16
$IIVWR,115.,R,00.0,N,00.0,M,000.0,K*7C
$IIMWD,,,230.,M,00.0,N,00.0,M*0F
$IIMTA,22.9,C*0C
$IIMTW,25.4,C*10
$IIVWT,001.,L,00.0,N,00.0,M,000.0,K*60
$IIHDG,231.,,,,*79
$IIHDM,231.,M*12
$IIHDT,228.5,T*2F
$IIGLL,4714.352,N,00131.574,W,162716,A,A*40
$IIZDA,162716,26,06,2016,,*5D
$IIVTG,112.,T,,M,00.0,N,00.0,K,A*28
$IIDPT,0000.0,,*72
$IIDBT,0000.0,f,0000.0,M,,*79
$IIVLW,0000.0,N,000.00,N*4D
$IIVHW,228.5,T,231.,M,00.00,N,00.00,K*68
$IIMWV,115,R,00.0,N,A*16
$IIVWR,115.,R,00.0,N,00.0,M,000.0,K*7C
$IIMWD,,,230.,M,00.0,N,00.0,M*0F
$IIMTA,22.9,C*0C
$IIMTW,25.4,C*10
$IIVWT,001.,L,00.0,N,00.0,M,000.0,K*60
$IIHDG,231.,,,,*79
$IIHDM,231.,M*12
$IIHDT,228.5,T*2F
$IIGLL,4714.352,N,00131.574,W,162718,A,A*4E
$IIZDA,162718,26,06,2016,,*53
$IIVTG,112.,T,,M,00.0,N,00.0,K,A*28
$IIDPT,0000.0,,*72
$IIDBT,0000.0,f,0000.0,M,,*79
$IIVLW,0000.0,N,000.00,N*4D
$IIVHW,228.5,T,231.,M,00.00,N,00.00,K*68
$IIMWV,115,R,00.0,N,A*16
$IIVWR,115.,R,00.0,N,00.0,M,000.0,K*7C
$IIMWD,,,230.,M,00.0,N,00.0,M*0F
$IIMTA,22.9,C*0C
$IIMTW,25.5,C*11
$IIVWT,001.,L,00.0,N,00.0,M,000.0,K*60
$IIHDG,231.,,,,*79
$IIHDM,231.,M*12
$IIHDT,228.5,T*2F
$IIGLL,4714.352,N,00131.574,W,162718,A,A*4E
$IIZDA,162718,26,06,2016,,*53
$IIVTG,112.,T,,M,00.0,N,00.0,K,A*28
$IIDPT,0000.0,,*72
$IIDBT,0000.0,f,0000.0,M,,*79
$IIVLW,0000.0,N,000.00,N*4D
$IIVHW,228.5,T,231.,M,00.00,N,00.00,K*68
$IIMWV,115,R,00.0,N,A*16
$IIVWR,115.,R,00.0,N,00.0,M,000.0,K*7C
$IIMWD,,,230.,M,00.0,N,00.0,M*0F
$IIMTA,23.0,C*04
$IIMTW,25.5,C*11
$IIVWT,001.,L,00.0,N,00.0,M,000.0,K*60
$IIHDG,231.,,,,*79
$IIHDM,231.,M*12
$IIHDT,228.5,T*2F
$IIGLL,4714.352,N,00131.574,W,162720,A,A*45
$IIZDA,162720,26,06,2016,,*58
$IIVTG,112.,T,,M,00.0,N,00.0,K,A*28
$IIDPT,0000.0,,*72
$IIDBT,0000.0,f,0000.0,M,,*79
$IIVLW,0000.0,N,000.00,N*4D
$IIVHW,228.5,T,231.,M,00.00,N,00.00,K*68
$IIMWV,115,R,00.0,N,A*16
$IIVWR,115.,R,00.0,N,00.0,M,000.0,K*7C
$IIMWD,,,230.,M,00.0,N,00.0,M*0F
$IIMTA,23.0,C*04
$IIMTW,25.5,C*11
$IIVWT,001.,L,00.0,N,00.0,M,000.0,K*60
$IIHDG,231.,,,,*79
$IIHDM,231.,M*12
$IIHDT,228.5,T*2F
$IIGLL,4714.352,N,00131.574,W,162720,A,A*45
$IIZDA,162720,26,06,2016,,*58
$IIVTG,112.,T,,M,00.0,N,00.0,K,A*28
$IIDPT,0000.0,,*72
$IIDBT,0000.0,f,0000.0,M,,*79
$IIVLW,0000.0,N,000.00,N*4D
$IIVHW,228.5,T,231.,M,00.00,N,00.00,K*68
$IIMWV,115,R,00.0,N,A*16
$IIVWR,115.,R,00.0,N,00.0,M,000.0,K*7C
$IIMWD,,,230.,M,00.0,N,00.0,M*0F
$IIMTA,23.0,C*04
$IIMTW,25.5,C*11
$IIVWT,001.,L,00.0,N,00.0,M,000.0,K*60
$IIHDG,232.,,,,*7A
$IIHDM,232.,M*11
$IIHDT,229.5,T*2E
$IIGLL,4714.352,N,00131.574,W,162722,A,A*47
$IIZDA,162722,26,06,2016,,*5A
$IIVTG,112.,T,,M,00.0,N,00.0,K,A*28
$IIDPT,0000.0,,*72
$IIDBT,0000.0,f,0000.0,M,,*79
$IIVLW,0000.0,N,000.00,N*4D
$IIVHW,229.5,T,232.,M,00.00,N,00.00,K*6A
$IIMWV,115,R,00.0,N,A*16
$IIVWR,115.,R,00.0,N,00.0,M,000.0,K*7C
$IIMWD,,,231.,M,00.0,N,00.0,M*0E
$IIMTA,23.0,C*04
$IIMTW,25.6,C*12
$IIVWT,001.,L,00.0,N,00.0,M,000.0,K*60
$IIHDG,232.,,,,*7A
$IIHDM,232.,M*11
$IIHDT,229.5,T*2E
$IIGLL,4714.352,N,00131.574,W,162724,A,A*41
$IIZDA,162724,26,06,2016,,*5C
$IIVTG,112.,T,,M,00.0,N,00.0,K,A*28
$IIDPT,0000.0,,*72
$IIDBT,0000.0,f,0000.0,M,,*79
$IIVLW,0000.0,N,000.00,N*4D
$IIVHW,229.5,T,232.,M,00.00,N,00.00,K*6A
$IIMWV,115,R,00.0,N,A*16
$IIVWR,115.,R,00.0,N,00.0,M,000.0,K*7C
$IIMWD,,,231.,M,00.0,N,00.0,M*0E
$IIMTA,23.1,C*05
$IIMTW,25.6,C*12
$IIVWT,001.,L,00.0,N,00.0,M,000.0,K*60
$IIHDG,232.,,,,*7A
$IIHDM,232.,M*11
$IIHDT,229.5,T*2E
$IIGLL,4714.352,N,00131.574,W,162724,A,A*41
$IIZDA,162724,26,06,2016,,*5C
$IIVTG,112.,T,,M,00.0,N,00.0,K,A*28
$IIDPT,0000.0,,*72
$IIDBT,0000.0,f,0000.0,M,,*79
$IIVLW,0000.0,N,000.00,N*4D
$IIVHW,229.5,T,232.,M,00.00,N,00.00,K*6A
$IIMWV,115,R,00.0,N,A*16
$IIVWR,115.,R,00.0,N,00.0,M,000.0,K*7C
$IIMWD,,,231.,M,00.0,N,00.0,M*0E
$IIMTA,23.1,C*05
$IIMTW,25.5,C*11
$IIVWT,001.,L,00.0,N,00.0,M,000.0,K*60
$IIHDG,232.,,,,*7A
$IIHDM,232.,M*11
$IIHDT,229.5,T*2E
$IIGLL,4714.352,N,00131.574,W,162726,A,A*43
$IIZDA,162726,26,06,2016,,*5E
$IIVTG,112.,T,,M,00.0,N,00.0,K,A*28
$IIDPT,0000.0,,*72
$IIDBT,0000.0,f,0000.0,M,,*79
$IIVLW,0000.0,N,000.00,N*4D
$IIVHW,229.5,T,232.,M,00.00,N,00.00,K*6A
$IIMWV,115,R,00.0,N,A*16
$IIVWR,115.,R,00.0,N,00.0,M,000.0,K*7C
$IIMWD,,,231.,M,00.0,N,00.0,M*0E
$IIMTA,23.1,C*05
$IIMTW,25.6,C*12
$IIVWT,001.,L,00.0,N,00.0,M,000.0,K*60
$IIHDG,232.,,,,*7A
$IIHDM,232.,M*11
$IIHDT,229.5,T*2E
$IIGLL,4714.352,N,00131.574,W,162726,A,A*43
$IIZDA,162726,26,06,2016,,*5E
$IIVTG,112.,T,,M,00.0,N,00.0,K,A*28
$IIDPT,0000.0,,*72
$IIDBT,0000.0,f,0000.0,M,,*79
$IIVLW,0000.0,N,000.00,N*4D
$IIVHW,229.5,T,232.,M,00.00,N,00.00,K*6A
$IIMWV,115,R,00.0,N,A*16
$IIVWR,115.,R,00.0,N,00.0,M,000.0,K*7C
$IIMTA,23.1,C*05
$IIMTW,25.6,C*12
$IIHDG,232.,,,,*7A
$IIHDM,232.,M*11
$IIHDT,229.5,T*2E
$IIGLL,4714.352,N,00131.574,W,000000,A,A*45
$IIZDA,000000,00,00,2000,,*5D
$IIVTG,000.,T,,M,00.0,N,00.0,K,A*2A
$IIDPT,0000.0,,*72
$IIDBT,0000.0,f,0000.0,M,,*79
$IIVLW,0000.0,N,000.00,N*4D
$IIVHW,229.5,T,232.,M,00.00,N,00.00,K*6A
$IIMWV,115,R,00.0,N,A*16
$IIVWR,115.,R,00.0,N,00.0,M,000.0,K*7C
$IIMTA,23.1,C*05
$IIMTW,25.6,C*12
$IIHDG,232.,,,,*7A
$IIHDM,232.,M*11
$IIHDT,229.5,T*2E
$IIGLL,4714.352,N,00131.574,W,000000,A,A*45
$IIZDA,000000,00,00,2000,,*5D
$IIVTG,000.,T,,M,00.0,N,00.0,K,A*2A
$IIDPT,0000.0,,*72
$IIDBT,0000.0,f,0000.0,M,,*79
$IIVLW,0000.0,N,000.00,N*4D
$IIVHW,229.5,T,232.,M,00.00,N,00.00,K*6A
$IIMWV,115,R,00.0,N,A*16
$IIVWR,115.,R,00.0,N,00.0,M,000.0,K*7C
$IIMWD,,,231.,M,00.0,N,00.0,M*0E
$IIMTA,23.1,C*05
$IIMTW,25.7,C*13
$IIVWT,001.,L,00.0,N,00.0,M,000.0,K*60
$IIHDG,232.,,,,*7A
$IIHDM,232.,M*11
$IIHDT,229.5,T*2E
$IIGLL,4714.352,N,00131.574,W,162730,A,A*44
$IIZDA,162730,26,06,2016,,*59
$IIVTG,112.,T,,M,00.0,N,00.0,K,A*28
$IIDPT,0000.0,,*72
$IIDBT,0000.0,f,0000.0,M,,*79
$IIVLW,0000.0,N,000.00,N*4D
$IIVHW,229.5,T,232.,M,00.00,N,00.00,K*6A
$IIMWV,115,R,00.0,N,A*16
$IIVWR,115.,R,00.0,N,00.0,M,000.0,K*7C
$IIMWD,,,231.,M,00.0,N,00.0,M*0E
$IIMTA,23.1,C*05
$IIMTW,25.7,C*13
$IIVWT,001.,L,00.0,N,00.0,M,000.0,K*60
$IIHDG,232.,,,,*7A
$IIHDM,232.,M*11
$IIHDT,229.5,T*2E
$IIGLL,4714.352,N,00131.574,W,162730,A,A*44
$IIZDA,162730,26,06,2016,,*59
$IIVTG,112.,T,,M,00.0,N,00.0,K,A*28
$IIDPT,0000.0,,*72
$IIDBT,0000.0,f,0000.0,M,,*79
$IIVLW,0000.0,N,000.00,N*4D
$IIVHW,229.5,T,232.,M,00.00,N,00.00,K*6A
$IIMWV,115,R,00.0,N,A*16
$IIVWR,115.,R,00.0,N,00.0,M,000.0,K*7C
$IIMWD,,,231.,M,00.0,N,00.0,M*0E
$IIMTA,23.1,C*05
$IIMTW,25.7,C*13
$IIVWT,001.,L,00.0,N,00.0,M,000.0,K*60
$IIHDG,232.,,,,*7A
$IIHDM,232.,M*11
$IIHDT,229.5,T*2E
$IIGLL,4714.352,N,00131.574,W,162732,A,A*46
$IIZDA,162732,26,06,2016,,*5B
$IIVTG,112.,T,,M,00.0,N,00.0,K,A*28
$IIDPT,0000.0,,*72
$IIDBT,0000.0,f,0000.0,M,,*79
$IIVLW,0000.0,N,000.00,N*4D
$IIVHW,229.5,T,232.,M,00.00,N,00.00,K*6A
$IIMWV,115,R,00.0,N,A*16
$IIVWR,115.,R,00.0,N,00.0,M,000.0,K*7C
$IIMWD,,,231.,M,00.0,N,00.0,M*0E
$IIMTA,23.2,C*06
$IIMTW,25.7,C*13
$IIVWT,001.,L,00.0,N,00.0,M,000.0,K*60
$IIHDG,232.,,,,*7A
$IIHDM,232.,M*11
$IIHDT,229.5,T*2E
$IIGLL,4714.352,N,00131.574,W,162734,A,A*40
$IIZDA,162734,26,06,2016,,*5D
$IIVTG,112.,T,,M,00.0,N,00.0,K,A*28
$IIDPT,0000.0,,*72
$IIDBT,0000.0,f,0000.0,M,,*79
$IIVLW,0000.0,N,000.00,N*4D
$IIVHW,229.5,T,232.,M,00.00,N,00.00,K*6A
$IIMWV,115,R,00.0,N,A*16
$IIVWR,115.,R,00.0,N,00.0,M,000.0,K*7C
$IIMWD,,,231.,M,00.0,N,00.0,M*0E
$IIMTA,23.2,C*06
$IIMTW,25.7,C*13
$IIVWT,001.,L,00.0,N,00.0,M,000.0,K*60
$IIHDG,232.,,,,*7A
$IIHDM,232.,M*11
$IIHDT,229.5,T*2E
$IIGLL,4714.352,N,00131.574,W,162734,A,A*40
$IIZDA,162734,26,06,2016,,*5D
$IIVTG,112.,T,,M,00.0,N,00.0,K,A*28
$IIDPT,0000.0,,*72
$IIDBT,0000.0,f,0000.0,M,,*79
$IIVLW,0000.0,N,000.00,N*4D
$IIVHW,229.5,T,232.,M,00.00,N,00.00,K*6A
$IIMWV,115,R,00.0,N,A*16
$IIVWR,115.,R,00.0,N,00.0,M,000.0,K*7C
$IIMWD,,,231.,M,00.0,N,00.0,M*0E
$IIMTA,23.2,C*06
$IIMTW,25.7,C*13
$IIVWT,001.,L,00.0,N,00.0,M,000.0,K*60
$IIHDG,232.,,,,*7A
$IIHDM,232.,M*11
$IIHDT,229.5,T*2E
$IIGLL,4714.352,N,00131.574,W,162736,A,A*42
$IIZDA,162736,26,06,2016,,*5F
$IIVTG,112.,T,,M,00.0,N,00.0,K,A*28
$IIDPT,0000.0,,*72
$IIDBT,0000.0,f,0000.0,M,,*79
$IIVLW,0000.0,N,000.00,N*4D
$IIVHW,229.5,T,232.,M,00.00,N,00.00,K*6A
$IIMWV,115,R,00.0,N,A*16
$IIVWR,115.,R,00.0,N,00.0,M,000.0,K*7C
$IIMWD,,,231.,M,00.0,N,00.0,M*0E
$IIMTA,23.2,C*06
$IIMTW,25.7,C*13
$IIVWT,001.,L,00.0,N,00.0,M,000.0,K*60
$IIHDG,232.,,,,*7A
$IIHDM,232.,M*11
$IIHDT,229.5,T*2E
$IIGLL,4714.352,N,00131.574,W,162736,A,A*42
$IIZDA,162736,26,06,2016,,*5F
$IIVTG,112.,T,,M,00.0,N,00.0,K,A*28
$IIDPT,0000.0,,*72
$IIDBT,0000.0,f,0000.0,M,,*79
$IIVLW,0000.0,N,000.00,N*4D
$IIVHW,229.5,T,232.,M,00.00,N,00.00,K*6A
$IIMWV,115,R,00.0,N,A*16
$IIVWR,115.,R,00.0,N,00.0,M,000.0,K*7C
$IIMWD,,,231.,M,00.0,N,00.0,M*0E
$IIMTA,23.2,C*06
$IIMTW,25.7,C*13
$IIVWT,001.,L,00.0,N,00.0,M,000.0,K*60
$IIHDG,232.,,,,*7A
$IIHDM,232.,M*11
$IIHDT,229.5,T*2E
$IIGLL,4714.352,N,00131.574,W,162738,A,A*4C
$IIZDA,162738,26,06,2016,,*51
$IIVTG,112.,T,,M,00.0,N,00.0,K,A*28
$IIDPT,0000.0,,*72
$IIDBT,0000.0,f,0000.0,M,,*79
$IIVLW,0000.0,N,000.00,N*4D
$IIVHW,229.5,T,232.,M,00.00,N,00.00,K*6A
$IIMWV,115,R,00.0,N,A*16
$IIVWR,115.,R,00.0,N,00.0,M,000.0,K*7C
$IIMWD,,,231.,M,00.0,N,00.0,M*0E
$IIMTA,23.2,C*06
$IIMTW,25.6,C*12
$IIVWT,001.,L,00.0,N,00.0,M,000.0,K*60
$IIHDG,232.,,,,*7A
$IIHDM,232.,M*11
$IIHDT,229.5,T*2E
$IIGLL,4714.352,N,00131.574,W,162738,A,A*4C
$IIZDA,162738,26,06,2016,,*51
$IIVTG,112.,T,,M,00.0,N,00.0,K,A*28
$IIDPT,0000.0,,*72
$IIDBT,0000.0,f,0000.0,M,,*79
$IIVLW,0000.0,N,000.00,N*4D
$IIVHW,229.5,T,232.,M,00.00,N,00.00,K*6A
$IIMWV,115,R,00.0,N,A*16
$IIVWR,115.,R,00.0,N,00.0,M,000.0,K*7C
$IIMWD,,,231.,M,00.0,N,00.0,M*0E
$IIMTA,23.2,C*06
$IIMTW,25.7,C*13
$IIVWT,001.,L,00.0,N,00.0,M,000.0,K*60
$IIHDG,232.,,,,*7A
$IIHDM,232.,M*11
$IIHDT,229.5,T*2E
$IIGLL,4714.352,N,00131.574,W,162740,A,A*43
$IIZDA,162740,26,06,2016,,*5E
$IIVTG,112.,T,,M,00.0,N,00.0,K,A*28
$IIDPT,0000.0,,*72
$IIDBT,0000.0,f,0000.0,M,,*79
$IIVLW,0000.0,N,000.00,N*4D
$IIVHW,229.5,T,232.,M,00.00,N,00.00,K*6A
$IIMWV,115,R,00.0,N,A*16
$IIVWR,115.,R,00.0,N,00.0,M,000.0,K*7C
$IIMWD,,,231.,M,00.0,N,00.0,M*0E
$IIMTA,23.3,C*07
$IIMTW,25.7,C*13
$IIVWT,001.,L,00.0,N,00.0,M,000.0,K*60
$IIHDG,232.,,,,*7A
$IIHDM,232.,M*11
$IIHDT,229.5,T*2E
$IIGLL,4714.352,N,00131.574,W,162742,A,A*41
$IIZDA,162742,26,06,2016,,*5C
$IIVTG,112.,T,,M,00.0,N,00.0,K,A*28
$IIDPT,0000.0,,*72
$IIDBT,0000.0,f,0000.0,M,,*79
$IIVLW,0000.0,N,000.00,N*4D
$IIVHW,229.5,T,232.,M,00.00,N,00.00,K*6A
$IIMWV,115,R,00.0,N,A*16
$IIVWR,115.,R,00.0,N,00.0,M,000.0,K*7C
$IIMWD,,,231.,M,00.0,N,00.0,M*0E
$IIMTA,23.3,C*07
$IIMTW,25.7,C*13
$IIVWT,001.,L,00.0,N,00.0,M,000.0,K*60
$IIHDG,232.,,,,*7A
$IIHDM,232.,M*11
$IIHDT,229.5,T*2E
$IIGLL,4714.352,N,00131.574,W,162742,A,A*41
$IIZDA,162742,26,06,2016,,*5C
$IIVTG,112.,T,,M,00.0,N,00.0,K,A*28
$IIDPT,0000.0,,*72
$IIDBT,0000.0,f,0000.0,M,,*79
$IIVLW,0000.0,N,000.00,N*4D
$IIVHW,229.5,T,232.,M,00.00,N,00.00,K*6A
$IIMWV,115,R,00.0,N,A*16
$IIVWR,115.,R,00.0,N,00.0,M,000.0,K*7C
$IIMWD,,,231.,M,00.0,N,00.0,M*0E
$IIMTA,23.3,C*07
$IIMTW,25.7,C*13
$IIVWT,001.,L,00.0,N,00.0,M,000.0,K*60
$IIHDG,232.,,,,*7A
$IIHDM,232.,M*11
$IIHDT,229.5,T*2E
$IIGLL,4714.352,N,00131.574,W,162744,A,A*47
$IIZDA,162744,26,06,2016,,*5A
$IIVTG,112.,T,,M,00.0,N,00.0,K,A*28
$IIDPT,0000.0,,*72
$IIDBT,0000.0,f,0000.0,M,,*79
$IIVLW,0000.0,N,000.00,N*4D
$IIVHW,229.5,T,232.,M,00.00,N,00.00,K*6A
$IIMWV,115,R,00.0,N,A*16
$IIVWR,115.,R,00.0,N,00.0,M,000.0,K*7C
$IIMWD,,,231.,M,00.0,N,00.0,M*0E
$IIMTA,23.3,C*07
$IIMTW,25.6,C*12
$IIVWT,001.,L,00.0,N,00.0,M,000.0,K*60
$IIHDG,232.,,,,*7A
$IIHDM,232.,M*11
$IIHDT,229.5,T*2E
$IIGLL,4714.352,N,00131.574,W,162744,A,A*47
$IIZDA,162744,26,06,2016,,*5A
$IIVTG,112.,T,,M,00.0,N,00.0,K,A*28
$IIDPT,0000.0,,*72
$IIDBT,0000.0,f,0000.0,M,,*79
$IIVLW,0000.0,N,000.00,N*4D
$IIVHW,229.5,T,232.,M,00.00,N,00.00,K*6A
$IIMWV,115,R,00.0,N,A*16
$IIVWR,115.,R,00.0,N,00.0,M,000.0,K*7C
$IIMWD,,,231.,M,00.0,N,00.0,M*0E
$IIMTA,23.3,C*07
$IIMTW,25.6,C*12
$IIVWT,001.,L,00.0,N,00.0,M,000.0,K*60
$IIHDG,232.,,,,*7A
$IIHDM,232.,M*11
$IIHDT,229.5,T*2E
$IIGLL,4714.352,N,00131.574,W,162746,A,A*45
$IIZDA,162746,26,06,2016,,*58
$IIVTG,112.,T,,M,00.0,N,00.0,K,A*28
$IIDPT,0000.0,,*72
$IIDBT,0000.0,f,0000.0,M,,*79
$IIVLW,0000.0,N,000.00,N*4D
$IIVHW,229.5,T,232.,M,00.00,N,00.00,K*6A
$IIMWV,115,R,00.0,N,A*16
$IIVWR,115.,R,00.0,N,00.0,M,000.0,K*7C
$IIMWD,,,231.,M,00.0,N,00.0,M*0E
$IIMTA,23.3,C*07
$IIMTW,25.6,C*12
$IIVWT,001.,L,00.0,N,00.0,M,000.0,K*60
$IIHDG,232.,,,,*7A
$IIHDM,232.,M*11
$IIHDT,229.5,T*2E
$IIGLL,4714.352,N,00131.574,W,162746,A,A*45
$IIZDA,162746,26,06,2016,,*58
$IIVTG,112.,T,,M,00.0,N,00.0,K,A*28
$IIDPT,0000.0,,*72
$IIDBT,0000.0,f,0000.0,M,,*79
$IIVLW,0000.0,N,000.00,N*4D
$IIVHW,229.5,T,232.,M,00.00,N,00.00,K*6A
$IIMWV,115,R,00.0,N,A*16
$IIVWR,115.,R,00.0,N,00.0,M,000.0,K*7C
$IIMWD,,,231.,M,00.0,N,00.0,M*0E
$IIMTA,23.3,C*07
$IIMTW,25.6,C*12
$IIVWT,001.,L,00.0,N,00.0,M,000.0,K*60
$IIHDG,232.,,,,*7A
$IIHDM,232.,M*11
$IIHDT,229.5,T*2E
$IIGLL,4714.352,N,00131.574,W,162748,A,A*4B
$IIZDA,162748,26,06,2016,,*56
$IIVTG,112.,T,,M,00.0,N,00.0,K,A*28
$IIDPT,0000.0,,*72
$IIDBT,0000.0,f,0000.0,M,,*79
$IIVLW,0000.0,N,000.00,N*4D
$IIVHW,229.5,T,232.,M,00.00,N,00.00,K*6A
$IIMWV,115,R,00.0,N,A*16
$IIVWR,115.,R,00.0,N,00.0,M,000.0,K*7C
$IIMWD,,,231.,M,00.0,N,00.0,M*0E
$IIMTA,23.4,C*00
$IIMTW,25.6,C*12
$IIVWT,001.,L,00.0,N,00.0,M,000.0,K*60
$IIHDG,232.,,,,*7A
$IIHDM,232.,M*11
$IIHDT,229.5,T*2E
$IIGLL,4714.353,N,00131.575,W,162750,A,A*42
$IIZDA,162750,26,06,2016,,*5F
$IIVTG,112.,T,,M,00.0,N,00.0,K,A*28
$IIDPT,0000.0,,*72
$IIDBT,0000.0,f,0000.0,M,,*79
$IIVLW,0000.0,N,000.00,N*4D
$IIVHW,229.5,T,232.,M,00.00,N,00.00,K*6A
$IIMWV,115,R,00.0,N,A*16
$IIVWR,115.,R,00.0,N,00.0,M,000.0,K*7C
$IIMWD,,,231.,M,00.0,N,00.0,M*0E
$IIMTA,23.4,C*00
$IIMTW,25.7,C*13
$IIVWT,001.,L,00.0,N,00.0,M,000.0,K*60
$IIHDG,232.,,,,*7A
$IIHDM,232.,M*11
$IIHDT,229.5,T*2E
$IIGLL,4714.353,N,00131.575,W,162750,A,A*42
$IIZDA,162750,26,06,2016,,*5F
$IIVTG,112.,T,,M,00.0,N,00.0,K,A*28
$IIDPT,0000.0,,*72
$IIDBT,0000.0,f,0000.0,M,,*79
$IIVLW,0000.0,N,000.00,N*4D
$IIVHW,229.5,T,232.,M,00.00,N,00.00,K*6A
$IIMWV,115,R,00.0,N,A*16
$IIVWR,115.,R,00.0,N,00.0,M,000.0,K*7C
$IIMWD,,,231.,M,00.0,N,00.0,M*0E
$IIMTA,23.4,C*00
$IIMTW,25.7,C*13
$IIVWT,001.,L,00.0,N,00.0,M,000.0,K*60
$IIHDG,232.,,,,*7A
$IIHDM,232.,M*11
$IIHDT,229.5,T*2E
$IIGLL,4714.353,N,00131.575,W,162752,A,A*40
$IIZDA,162752,26,06,2016,,*5D
$IIVTG,112.,T,,M,00.0,N,00.0,K,A*28
$IIDPT,0000.0,,*72
$IIDBT,0000.0,f,0000.0,M,,*79
$IIVLW,0000.0,N,000.00,N*4D
$IIVHW,229.5,T,232.,M,00.00,N,00.00,K*6A
$IIMWV,115,R,00.0,N,A*16
$IIVWR,115.,R,00.0,N,00.0,M,000.0,K*7C
$IIMWD,,,231.,M,00.0,N,00.0,M*0E
$IIMTA,23.4,C*00
$IIMTW,25.7,C*13
$IIVWT,001.,L,00.0,N,00.0,M,000.0,K*60
$IIHDG,232.,,,,*7A
$IIHDM,232.,M*11
$IIHDT,229.5,T*2E
$IIGLL,4714.354,N,00131.576,W,162752,A,A*44
$IIZDA,162752,26,06,2016,,*5D
$IIVTG,112.,T,,M,00.0,N,00.0,K,A*28
$IIDPT,0000.0,,*72
$IIDBT,0000.0,f,0000.0,M,,*79
$IIVLW,0000.0,N,000.00,N*4D
$IIVHW,229.5,T,232.,M,00.00,N,00.00,K*6A
$IIMWV,115,R,00.0,N,A*16
$IIVWR,115.,R,00.0,N,00.0,M,000.0,K*7C
$IIMWD,,,231.,M,00.0,N,00.0,M*0E
$IIMTA,23.4,C*00
$IIMTW,25.7,C*13
$IIVWT,001.,L,00.0,N,00.0,M,000.0,K*60
$IIHDG,232.,,,,*7A
$IIHDM,232.,M*11
$IIHDT,229.5,T*2E
$IIGLL,4714.354,N,00131.577,W,162754,A,A*43
$IIZDA,162754,26,06,2016,,*5B
$IIVTG,112.,T,,M,00.0,N,00.0,K,A*28
$IIDPT,0000.0,,*72
$IIDBT,0000.0,f,0000.0,M,,*79
$IIVLW,0000.0,N,000.00,N*4D
$IIVHW,229.5,T,230.,M,00.00,N,00.00,K*68
$IIMWV,115,R,00.0,N,A*16
$IIVWR,115.,R,00.0,N,00.0,M,000.0,K*7C
$IIMWD,,,231.,M,00.0,N,00.0,M*0E
$IIMTA,23.4,C*00
$IIMTW,25.7,C*13
$IIVWT,001.,L,00.0,N,00.0,M,000.0,K*60
$IIHDG,227.,,,,*7E
$IIHDM,227.,M*15
$IIHDT,227.5,T*20
$IIGLL,4714.354,N,00131.577,W,162756,A,A*41
$IIZDA,162756,26,06,2016,,*59
$IIVTG,112.,T,,M,00.0,N,00.0,K,A*28
$IIDPT,0000.0,,*72
$IIDBT,0000.0,f,0000.0,M,,*79
$IIVLW,0000.0,N,000.00,N*4D
$IIVHW,227.5,T,219.,M,00.00,N,00.00,K*6D
$IIMWV,115,R,00.0,N,A*16
$IIVWR,115.,R,00.0,N,00.0,M,000.0,K*7C
$IIMWD,,,229.,M,00.0,N,00.0,M*07
$IIMTA,23.4,C*00
$IIMTW,25.7,C*13
$IIVWT,001.,L,00.0,N,00.0,M,000.0,K*60
$IIHDG,217.,,,,*7D
$IIHDM,217.,M*16
$IIHDT,216.5,T*22
$IIGLL,4714.354,N,00131.577,W,162756,A,A*41
$IIZDA,162756,26,06,2016,,*59
$IIVTG,112.,T,,M,00.0,N,00.0,K,A*28
$IIDPT,0000.0,,*72
$IIDBT,0000.0,f,0000.0,M,,*79
$IIVLW,0000.0,N,000.00,N*4D
$IIVHW,202.5,T,205.,M,00.00,N,00.00,K*67
$IIMWV,115,R,00.0,N,A*16
$IIVWR,115.,R,00.0,N,00.0,M,000.0,K*7C
$IIMWD,,,204.,M,00.0,N,00.0,M*08
$IIMTA,23.5,C*01
$IIMTW,25.7,C*13
$IIVWT,001.,L,00.0,N,00.0,M,000.0,K*60
$IIHDG,196.,,,,*77
$IIHDM,196.,M*1C
$IIHDT,202.5,T*27
$IIGLL,4714.354,N,00131.577,W,162758,A,A*4F
$IIZDA,162758,26,06,2016,,*57
$IIVTG,112.,T,,M,00.0,N,00.0,K,A*28
$IIDPT,0000.0,,*72
$IIDBT,0000.0,f,0000.0,M,,*79
$IIVLW,0000.0,N,000.00,N*4D
$IIVHW,186.5,T,189.,M,00.00,N,00.00,K*6F
$IIMWV,115,R,00.0,N,A*16
$IIVWR,115.,R,00.0,N,00.0,M,000.0,K*7C
$IIMWD,,,188.,M,00.0,N,00.0,M*0F
$IIMTA,23.5,C*01
$IIMTW,25.7,C*13
$IIVWT,001.,L,00.0,N,00.0,M,000.0,K*60
$IIHDG,182.,,,,*72
$IIHDM,182.,M*19
$IIHDT,186.5,T*28
$IIGLL,4714.354,N,00131.577,W,162758,A,A*4F
$IIZDA,162758,26,06,2016,,*57
$IIVTG,112.,T,,M,00.0,N,00.0,K,A*28
$IIDPT,0000.0,,*72
$IIDBT,0000.0,f,0000.0,M,,*79
$IIVLW,0000.0,N,000.00,N*4D
$IIVHW,179.5,T,174.,M,00.00,N,00.00,K*6D
$IIMWV,115,R,00.0,N,A*16
$IIVWR,115.,R,00.0,N,00.0,M,000.0,K*7C
$IIMWD,,,181.,M,00.0,N,00.0,M*06
$IIMTA,23.5,C*01
$IIMTW,25.7,C*13
$IIVWT,001.,L,00.0,N,00.0,M,000.0,K*60
$IIHDG,172.,,,,*7D
$IIHDM,172.,M*16
$IIHDT,179.5,T*28
$IIGLL,4714.354,N,00131.577,W,162800,A,A*4D
$IIZDA,162800,26,06,2016,,*55
$IIVTG,112.,T,,M,00.0,N,00.0,K,A*28
$IIDPT,0000.0,,*72
$IIDBT,0000.0,f,0000.0,M,,*79
$IIVLW,0000.0,N,000.00,N*4D
$IIVHW,169.5,T,165.,M,00.00,N,00.00,K*6C
$IIMWV,115,R,00.0,N,A*16
$IIVWR,115.,R,00.0,N,00.0,M,000.0,K*7C
$IIMWD,,,171.,M,00.0,N,00.0,M*09
$IIMTA,23.5,C*01
$IIMTW,25.7,C*13
$IIVWT,001.,L,00.0,N,00.0,M,000.0,K*60
$IIHDG,163.,,,,*7D
$IIHDM,163.,M*16
$IIHDT,160.5,T*20
$IIGLL,4714.354,N,00131.577,W,162800,A,A*4D
$IIZDA,162800,26,06,2016,,*55
$IIVTG,112.,T,,M,00.0,N,00.0,K,A*28
$IIDPT,0000.0,,*72
$IIDBT,0000.0,f,0000.0,M,,*79
$IIVLW,0000.0,N,000.00,N*4D
$IIVHW,160.5,T,158.,M,00.00,N,00.00,K*6B
$IIMWV,115,R,00.0,N,A*16
$IIVWR,115.,R,00.0,N,00.0,M,000.0,K*7C
$IIMWD,,,162.,M,00.0,N,00.0,M*0B
$IIMTA,23.6,C*02
$IIMTW,25.7,C*13
$IIVWT,001.,L,00.0,N,00.0,M,000.0,K*60
$IIHDG,157.,,,,*7A
$IIHDM,158.,M*1E
$IIHDT,154.5,T*27
$IIGLL,4714.354,N,00131.577,W,162802,A,A*4F
$IIZDA,162802,26,06,2016,,*57
$IIVTG,112.,T,,M,00.0,N,00.0,K,A*28
$IIDPT,0000.0,,*72
$IIDBT,0000.0,f,0000.0,M,,*79
$IIVLW,0000.0,N,000.00,N*4D
$IIVHW,154.5,T,160.,M,00.00,N,00.00,K*67
$IIMWV,115,R,00.0,N,A*16
$IIVWR,115.,R,00.0,N,00.0,M,000.0,K*7C
$IIMWD,,,156.,M,00.0,N,00.0,M*0C
$IIMTA,23.6,C*02
$IIMTW,25.6,C*12
$IIVWT,001.,L,00.0,N,00.0,M,000.0,K*60
$IIHDG,166.,,,,*78
$IIHDM,166.,M*13
$IIHDT,161.5,T*21
$IIGLL,4714.354,N,00131.577,W,162804,A,A*49
$IIZDA,162804,26,06,2016,,*51
$IIVTG,112.,T,,M,00.0,N,00.0,K,A*28
$IIDPT,0000.0,,*72
$IIDBT,0000.0,f,0000.0,M,,*79
$IIVLW,0000.0,N,000.00,N*4D
$IIVHW,161.5,T,168.,M,00.00,N,00.00,K*69
$IIMWV,115,R,00.0,N,A*16
$IIVWR,115.,R,00.0,N,00.0,M,000.0,K*7C
$IIMWD,,,167.,M,00.0,N,00.0,M*0E
$IIMTA,23.6,C*02
$IIMTW,25.6,C*12
$IIVWT,001.,L,00.0,N,00.0,M,000.0,K*60
$IIHDG,172.,,,,*7D
$IIHDM,172.,M*16
$IIHDT,165.5,T*25
$IIGLL,4714.354,N,00131.577,W,162804,A,A*49
$IIZDA,162804,26,06,2016,,*51
$IIVTG,112.,T,,M,00.0,N,00.0,K,A*28
$IIDPT,0000.0,,*72
$IIDBT,0000.0,f,0000.0,M,,*79
$IIVLW,0000.0,N,000.00,N*4D
$IIVHW,170.5,T,174.,M,00.00,N,00.00,K*64
$IIMWV,115,R,00.0,N,A*16
$IIVWR,115.,R,00.0,N,00.0,M,000.0,K*7C
$IIMWD,,,172.,M,00.0,N,00.0,M*0A
$IIMTA,23.6,C*02
$IIMTW,25.6,C*12
$IIVWT,001.,L,00.0,N,00.0,M,000.0,K*60
$IIHDG,177.,,,,*78
$IIHDM,177.,M*13
$IIHDT,170.5,T*21
$IIGLL,4714.354,N,00131.577,W,162806,A,A*4B
$IIZDA,162806,26,06,2016,,*53
$IIVTG,112.,T,,M,00.0,N,00.0,K,A*28
$IIDPT,0000.0,,*72
$IIDBT,0000.0,f,0000.0,M,,*79
$IIVLW,0000.0,N,000.00,N*4D
$IIVHW,175.5,T,178.,M,00.00,N,00.00,K*6D
$IIMWV,115,R,00.0,N,A*16
$IIVWR,115.,R,00.0,N,00.0,M,000.0,K*7C
$IIMWD,,,177.,M,00.0,N,00.0,M*0F
$IIMTA,23.6,C*02
$IIMTW,25.6,C*12
$IIVWT,001.,L,00.0,N,00.0,M,000.0,K*60
$IIHDG,180.,,,,*70
$IIHDM,180.,M*1B
$IIHDT,175.5,T*24
$IIGLL,4714.354,N,00131.577,W,162806,A,A*4B
$IIZDA,162806,26,06,2016,,*53
$IIVTG,112.,T,,M,00.0,N,00.0,K,A*28
$IIDPT,0000.0,,*72
$IIDBT,0000.0,f,0000.0,M,,*79
$IIVLW,0000.0,N,000.00,N*4D
$IIVHW,178.5,T,181.,M,00.00,N,00.00,K*66
$IIMWV,115,R,00.0,N,A*16
$IIVWR,115.,R,00.0,N,00.0,M,000.0,K*7C
$IIMWD,,,180.,M,00.0,N,00.0,M*07
$IIMTA,23.6,C*02
$IIMTW,25.6,C*12
$IIVWT,001.,L,00.0,N,00.0,M,000.0,K*60
$IIHDG,183.,,,,*73
$IIHDM,183.,M*18
$IIHDT,179.5,T*28
$IIGLL,4714.354,N,00131.577,W,162808,A,A*45
$IIZDA,162808,26,06,2016,,*5D
$IIVTG,112.,T,,M,00.0,N,00.0,K,A*28
$IIDPT,0000.0,,*72
$IIDBT,0000.0,f,0000.0,M,,*79
$IIVLW,0000.0,N,000.00,N*4D
$IIVHW,179.5,T,184.,M,00.00,N,00.00,K*62
$IIMWV,115,R,00.0,N,A*16
$IIVWR,115.,R,00.0,N,00.0,M,000.0,K*7C
$IIMWD,,,181.,M,00.0,N,00.0,M*06
$IIMTA,23.6,C*02
$IIMTW,25.7,C*13
$IIVWT,001.,L,00.0,N,00.0,M,000.0,K*60
$IIHDG,185.,,,,*75
$IIHDM,185.,M*1E
$IIHDT,181.5,T*2F
$IIGLL,4714.354,N,00131.577,W,162810,A,A*4C
$IIZDA,162810,26,06,2016,,*54
$IIVTG,112.,T,,M,00.0,N,00.0,K,A*28
$IIDPT,0000.0,,*72
$IIDBT,0000.0,f,0000.0,M,,*79
$IIVLW,0000.0,N,000.00,N*4D
$IIVHW,181.5,T,186.,M,00.00,N,00.00,K*67
$IIMWV,115,R,00.0,N,A*16
$IIVWR,115.,R,00.0,N,00.0,M,000.0,K*7C
$IIMWD,,,183.,M,00.0,N,00.0,M*04
$IIMTA,23.7,C*03
$IIMTW,25.7,C*13
$IIVWT,001.,L,00.0,N,00.0,M,000.0,K*60
$IIHDG,186.,,,,*76
$IIHDM,186.,M*1D
$IIHDT,183.5,T*2D
$IIGLL,4714.354,N,00131.577,W,162810,A,A*4C
$IIZDA,162810,26,06,2016,,*54
$IIVTG,112.,T,,M,00.0,N,00.0,K,A*28
$IIDPT,0000.0,,*72
$IIDBT,0000.0,f,0000.0,M,,*79
$IIVLW,0000.0,N,000.00,N*4D
$IIVHW,183.5,T,187.,M,00.00,N,00.00,K*64
$IIMWV,115,R,00.0,N,A*16
$IIVWR,115.,R,00.0,N,00.0,M,000.0,K*7C
$IIMWD,,,186.,M,00.0,N,00.0,M*01
$IIMTA,23.7,C*03
$IIMTW,25.7,C*13
$IIVWT,001.,L,00.0,N,00.0,M,000.0,K*60
$IIHDG,187.,,,,*77
$IIHDM,187.,M*1C
$IIHDT,184.5,T*2A
$IIGLL,4714.354,N,00131.577,W,162812,A,A*4E
$IIZDA,162812,26,06,2016,,*56
$IIVTG,112.,T,,M,00.0,N,00.0,K,A*28
$IIDPT,0000.0,,*72
$IIDBT,0000.0,f,0000.0,M,,*79
$IIVLW,0000.0,N,000.00,N*4D
$IIVHW,185.5,T,188.,M,00.00,N,00.00,K*6D
$IIMWV,115,R,00.0,N,A*16
$IIVWR,115.,R,00.0,N,00.0,M,000.0,K*7C
$IIMWD,,,187.,M,00.0,N,00.0,M*00
$IIMTA,23.7,C*03
$IIMTW,25.7,C*13
$IIVWT,001.,L,00.0,N,00.0,M,000.0,K*60
$IIHDG,188.,,,,*78
$IIHDM,188.,M*13
$IIHDT,185.5,T*2B
$IIGLL,4714.354,N,00131.577,W,162812,A,A*4E
$IIZDA,162812,26,06,2016,,*56
$IIVTG,112.,T,,M,00.0,N,00.0,K,A*28
$IIDPT,0000.0,,*72
$IIDBT,0000.0,f,0000.0,M,,*79
$IIVLW,0000.0,N,000.00,N*4D
$IIVHW,185.5,T,189.,M,00.00,N,00.00,K*6C
$IIMWV,115,R,00.0,N,A*16
$IIVWR,115.,R,00.0,N,00.0,M,000.0,K*7C
$IIMWD,,,187.,M,00.0,N,00.0,M*00
$IIMTA,23.7,C*03
$IIMTW,25.7,C*13
$IIVWT,001.,L,00.0,N,00.0,M,000.0,K*60
$IIHDG,189.,,,,*79
$IIHDM,189.,M*12
$IIHDT,185.5,T*2B
$IIGLL,4714.354,N,00131.577,W,162814,A,A*48
$IIZDA,162814,26,06,2016,,*50
$IIVTG,112.,T,,M,00.0,N,00.0,K,A*28
$IIDPT,0000.0,,*72
$IIDBT,0000.0,f,0000.0,M,,*79
$IIVLW,0000.0,N,000.00,N*4D
$IIVHW,186.5,T,189.,M,00.00,N,00.00,K*6F
$IIMWV,115,R,00.0,N,A*16
$IIVWR,115.,R,00.0,N,00.0,M,000.0,K*7C
$IIMWD,,,188.,M,00.0,N,00.0,M*0F
$IIMTA,23.7,C*03
$IIMTW,25.7,C*13
$IIVWT,001.,L,00.0,N,00.0,M,000.0,K*60
$IIHDG,189.,,,,*79
$IIHDM,189.,M*12
$IIHDT,186.5,T*28
$IIGLL,4714.354,N,00131.577,W,162816,A,A*4A
$IIZDA,162816,26,06,2016,,*52
$IIVTG,112.,T,,M,00.0,N,00.0,K,A*28
$IIDPT,0000.0,,*72
$IIDBT,0000.0,f,0000.0,M,,*79
$IIVLW,0000.0,N,000.00,N*4D
$IIVHW,186.5,T,190.,M,00.00,N,00.00,K*67
$IIMWV,115,R,00.0,N,A*16
$IIVWR,115.,R,00.0,N,00.0,M,000.0,K*7C
$IIMWD,,,188.,M,00.0,N,00.0,M*0F
$IIMTA,23.7,C*03
$IIMTW,25.7,C*13
$IIVWT,001.,L,00.0,N,00.0,M,000.0,K*60
$IIHDG,190.,,,,*71
$IIHDM,190.,M*1A
$IIHDT,187.5,T*29
$IIGLL,4714.354,N,00131.577,W,162816,A,A*4A
$IIZDA,162816,26,06,2016,,*52
$IIVTG,112.,T,,M,00.0,N,00.0,K,A*28
$IIDPT,0000.0,,*72
$IIDBT,0000.0,f,0000.0,M,,*79
$IIVLW,0000.0,N,000.00,N*4D
$IIVHW,187.5,T,190.,M,00.00,N,00.00,K*66
$IIMWV,115,R,00.0,N,A*16
$IIVWR,115.,R,00.0,N,00.0,M,000.0,K*7C
$IIMWD,,,189.,M,00.0,N,00.0,M*0E
$IIMTA,23.7,C*03
$IIMTW,25.8,C*1C
$IIVWT,001.,L,00.0,N,00.0,M,000.0,K*60
$IIHDG,190.,,,,*71
$IIHDM,190.,M*1A
$IIHDT,187.5,T*29
$IIGLL,4714.354,N,00131.577,W,162818,A,A*44
$IIZDA,162818,26,06,2016,,*5C
$IIVTG,112.,T,,M,00.0,N,00.0,K,A*28
$IIDPT,0000.0,,*72
$IIDBT,0000.0,f,0000.0,M,,*79
$IIVLW,0000.0,N,000.00,N*4D
$IIVHW,187.5,T,190.,M,00.00,N,00.00,K*66
$IIMWV,115,R,00.0,N,A*16
$IIVWR,115.,R,00.0,N,00.0,M,000.0,K*7C
$IIMWD,,,189.,M,00.0,N,00.0,M*0E
$IIMTA,23.8,C*0C
$IIMTW,25.8,C*1C
$IIVWT,001.,L,00.0,N,00.0,M,000.0,K*60
$IIHDG,190.,,,,*71
$IIHDM,190.,M*1A
$IIHDT,187.5,T*29
$IIGLL,4714.354,N,00131.577,W,162818,A,A*44
$IIZDA,162818,26,06,2016,,*5C
$IIVTG,112.,T,,M,00.0,N,00.0,K,A*28
$IIDPT,0000.0,,*72
$IIDBT,0000.0,f,0000.0,M,,*79
$IIVLW,0000.0,N,000.00,N*4D
$IIVHW,187.5,T,190.,M,00.00,N,00.00,K*66
$IIMWV,116,R,00.0,N,A*15
$IIVWR,116.,R,00.0,N,00.0,M,000.0,K*7F
$IIMWD,,,189.,M,00.0,N,00.0,M*0E
$IIMTA,23.8,C*0C
$IIMTW,25.8,C*1C
$IIVWT,001.,L,00.0,N,00.0,M,000.0,K*60
$IIHDG,190.,,,,*71
$IIHDM,190.,M*1A
$IIHDT,187.5,T*29
$IIGLL,4714.354,N,00131.577,W,162820,A,A*4F
$IIZDA,162820,26,06,2016,,*57
$IIVTG,112.,T,,M,00.0,N,00.0,K,A*28
$IIDPT,0000.0,,*72
$IIDBT,0000.0,f,0000.0,M,,*79
$IIVLW,0000.0,N,000.00,N*4D
$IIVHW,187.5,T,190.,M,00.00,N,00.00,K*66
$IIMWV,116,R,00.7,N,A*12
$IIVWR,116.,R,00.7,N,00.4,M,001.3,K*7E
$IIMWD,,,306.,M,00.4,N,00.2,M*0D
$IIMTA,23.8,C*0C
$IIMTW,25.8,C*1C
$IIVWT,116.,R,00.4,N,00.2,M,000.7,K*78
$IIHDG,190.,,,,*71
$IIHDM,190.,M*1A
$IIHDT,187.5,T*29
$IIGLL,4714.354,N,00131.577,W,162820,A,A*4F
$IIZDA,162820,26,06,2016,,*57
$IIVTG,112.,T,,M,00.0,N,00.0,K,A*28
$IIDPT,0000.0,,*72
$IIDBT,0000.0,f,0000.0,M,,*79
$IIVLW,0000.0,N,000.00,N*4D
$IIVHW,187.5,T,190.,M,00.00,N,00.00,K*66
$IIMWV,117,R,01.1,N,A*14
$IIVWR,117.,R,01.1,N,00.6,M,002.0,K*7A
$IIMWD,,,307.,M,01.1,N,00.6,M*0C
$IIMTA,23.8,C*0C
$IIMTW,25.8,C*1C
$IIVWT,117.,R,01.1,N,00.6,M,002.0,K*7C
$IIHDG,190.,,,,*71
$IIHDM,190.,M*1A
$IIHDT,187.5,T*29
$IIGLL,4714.354,N,00131.577,W,162822,A,A*4D
$IIZDA,162822,26,06,2016,,*55
$IIVTG,112.,T,,M,00.0,N,00.0,K,A*28
$IIDPT,0000.0,,*72
$IIDBT,0000.0,f,0000.0,M,,*79
$IIVLW,0000.0,N,000.00,N*4D
$IIVHW,187.5,T,190.,M,00.00,N,00.00,K*66
$IIMWV,118,R,01.7,N,A*1D
$IIVWR,118.,R,01.7,N,00.9,M,003.1,K*7C
$IIMWD,,,308.,M,01.5,N,00.8,M*09
$IIMTA,23.8,C*0C
$IIMTW,25.8,C*1C
$IIVWT,118.,R,01.5,N,00.8,M,002.8,K*71
$IIHDG,190.,,,,*71
$IIHDM,190.,M*1A
$IIHDT,187.5,T*29
$IIGLL,4714.354,N,00131.577,W,162824,A,A*4B
$IIZDA,162824,26,06,2016,,*53
$IIVTG,112.,T,,M,00.0,N,00.0,K,A*28
$IIDPT,0000.0,,*72
$IIDBT,0000.0,f,0000.0,M,,*79
$IIVLW,0000.0,N,000.00,N*4D
$IIVHW,187.5,T,191.,M,00.00,N,00.00,K*67
$IIMWV,120,R,02.2,N,A*10
$IIVWR,120.,R,02.2,N,01.1,M,004.1,K*7F
$IIMWD,,,308.,M,01.7,N,00.9,M*0A
$IIMTA,23.8,C*0C
$IIMTW,25.8,C*1C
$IIVWT,118.,R,01.7,N,00.9,M,003.1,K*7A
$IIHDG,191.,,,,*70
$IIHDM,191.,M*1B
$IIHDT,188.5,T*26
$IIGLL,4714.354,N,00131.577,W,162824,A,A*4B
$IIZDA,162824,26,06,2016,,*53
$IIVTG,112.,T,,M,00.0,N,00.0,K,A*28
$IIDPT,0000.0,,*72
$IIDBT,0000.0,f,0000.0,M,,*79
$IIVLW,0000.0,N,000.00,N*4D
$IIVHW,188.5,T,191.,M,00.00,N,00.00,K*68
$IIMWV,121,R,02.6,N,A*15
$IIVWR,121.,R,02.6,N,01.3,M,004.8,K*71
$IIMWD,,,312.,M,02.6,N,01.3,M*08
$IIMTA,23.8,C*0C
$IIMTW,25.8,C*1C
$IIVWT,121.,R,02.6,N,01.3,M,004.8,K*77
$IIHDG,191.,,,,*70
$IIHDM,191.,M*1B
$IIHDT,188.5,T*26
$IIGLL,4714.354,N,00131.577,W,162826,A,A*49
$IIZDA,162826,26,06,2016,,*51
$IIVTG,112.,T,,M,00.0,N,00.0,K,A*28
$IIDPT,0000.0,,*72
$IIDBT,0000.0,f,0000.0,M,,*79
$IIVLW,0000.0,N,000.00,N*4D
$IIVHW,188.5,T,191.,M,00.00,N,00.00,K*68
$IIMWV,122,R,02.9,N,A*19
$IIVWR,122.,R,02.9,N,01.5,M,005.4,K*76
$IIMWD,,,312.,M,02.6,N,01.3,M*08
$IIMTA,23.8,C*0C
$IIMTW,25.8,C*1C
$IIVWT,121.,R,02.9,N,01.5,M,005.4,K*73
$IIHDG,191.,,,,*70
$IIHDM,191.,M*1B
$IIHDT,188.5,T*26
$IIGLL,4714.354,N,00131.577,W,162826,A,A*49
$IIZDA,162826,26,06,2016,,*51
$IIVTG,112.,T,,M,00.0,N,00.0,K,A*28
$IIDPT,0000.0,,*72
$IIDBT,0000.0,f,0000.0,M,,*79
$IIVLW,0000.0,N,000.00,N*4D
$IIVHW,188.5,T,191.,M,00.00,N,00.00,K*68
$IIMWV,123,R,03.1,N,A*11
$IIVWR,123.,R,03.1,N,01.6,M,005.7,K*7E
$IIMWD,,,314.,M,03.1,N,01.6,M*0D
$IIMTA,23.9,C*0D
$IIMTW,25.8,C*1C
$IIVWT,123.,R,03.1,N,01.6,M,005.7,K*78
$IIHDG,191.,,,,*70
$IIHDM,191.,M*1B
$IIHDT,188.5,T*26
$IIGLL,4714.354,N,00131.577,W,162828,A,A*47
$IIZDA,162828,26,06,2016,,*5F
$IIVTG,112.,T,,M,00.0,N,00.0,K,A*28
$IIDPT,0000.0,,*72
$IIDBT,0000.0,f,0000.0,M,,*79
$IIVLW,0000.0,N,000.00,N*4D
$IIVHW,188.5,T,191.,M,00.00,N,00.00,K*68
$IIMWV,124,R,03.8,N,A*1F
$IIVWR,124.,R,03.8,N,02.0,M,007.0,K*70
$IIMWD,,,314.,M,03.4,N,01.7,M*09
$IIMTA,23.9,C*0D
$IIMTW,25.8,C*1C
$IIVWT,123.,R,03.4,N,01.7,M,006.3,K*7B
$IIHDG,191.,,,,*70
$IIHDM,191.,M*1B
$IIHDT,188.5,T*26
$IIGLL,4714.354,N,00131.577,W,162828,A,A*47
$IIZDA,162828,26,06,2016,,*5F
$IIVTG,112.,T,,M,00.0,N,00.0,K,A*28
$IIDPT,0000.0,,*72
$IIDBT,0000.0,f,0000.0,M,,*79
$IIVLW,0000.0,N,000.00,N*4D
$IIVHW,188.5,T,191.,M,00.00,N,00.00,K*68
$IIMWV,126,R,04.6,N,A*14
$IIVWR,126.,R,04.6,N,02.4,M,008.5,K*75
$IIMWD,,,316.,M,04.4,N,02.3,M*0B
$IIMTA,23.9,C*0D
$IIMTW,25.8,C*1C
$IIVWT,125.,R,04.4,N,02.3,M,008.1,K*71
$IIHDG,191.,,,,*70
$IIHDM,191.,M*1B
$IIHDT,188.5,T*26
$IIGLL,4714.354,N,00131.577,W,162830,A,A*4E
$IIZDA,162830,26,06,2016,,*56
$IIVTG,112.,T,,M,00.0,N,00.0,K,A*28
$IIDPT,0000.0,,*72
$IIDBT,0000.0,f,0000.0,M,,*79
$IIVLW,0000.0,N,000.00,N*4D
$IIVHW,188.5,T,191.,M,00.00,N,00.00,K*68
$IIMWV,128,R,05.1,N,A*1C
$IIVWR,128.,R,05.1,N,02.6,M,009.4,K*7F
$IIMWD,,,317.,M,04.6,N,02.4,M*0F
$IIMTA,23.9,C*0D
$IIMTW,25.8,C*1C
$IIVWT,126.,R,04.6,N,02.4,M,008.5,K*73
$IIHDG,191.,,,,*70
$IIHDM,191.,M*1B
$IIHDT,188.5,T*26
$IIGLL,4714.354,N,00131.577,W,162832,A,A*4C
$IIZDA,162832,26,06,2016,,*54
$IIVTG,112.,T,,M,00.0,N,00.0,K,A*28
$IIDPT,0000.0,,*72
$IIDBT,0000.0,f,0000.0,M,,*79
$IIVLW,0000.0,N,000.00,N*4D
$IIVHW,188.5,T,191.,M,00.00,N,00.00,K*68
$IIMWV,130,R,05.3,N,A*17
$IIVWR,130.,R,05.3,N,02.7,M,009.8,K*79
$IIMWD,,,320.,M,05.1,N,02.6,M*0F
$IIMTA,23.9,C*0D
$IIMTW,25.8,C*1C
$IIVWT,130.,R,05.3,N,02.7,M,009.8,K*7F
$IIHDG,191.,,,,*70
$IIHDM,191.,M*1B
$IIHDT,188.5,T*26
$IIGLL,4714.354,N,00131.577,W,162832,A,A*4C
$IIZDA,162832,26,06,2016,,*54
$IIVTG,112.,T,,M,00.0,N,00.0,K,A*28
$IIDPT,0000.0,,*72
$IIDBT,0000.0,f,0000.0,M,,*79
$IIVLW,0000.0,N,000.00,N*4D
$IIVHW,188.5,T,191.,M,00.00,N,00.00,K*68
$IIMWV,131,R,05.5,N,A*10
$IIVWR,131.,R,05.5,N,02.8,M,010.2,K*73
$IIMWD,,,321.,M,05.3,N,02.7,M*0D
$IIMTA,23.9,C*0D
$IIMTW,25.8,C*1C
$IIVWT,131.,R,05.5,N,02.8,M,010.2,K*75
$IIHDG,191.,,,,*70
$IIHDM,191.,M*1B
$IIHDT,188.5,T*26
$IIGLL,4714.354,N,00131.577,W,162834,A,A*4A
$IIZDA,162834,26,06,2016,,*52
$IIVTG,112.,T,,M,00.0,N,00.0,K,A*28
$IIDPT,0000.0,,*72
$IIDBT,0000.0,f,0000.0,M,,*79
$IIVLW,0000.0,N,000.00,N*4D
$IIVHW,188.5,T,191.,M,00.00,N,00.00,K*68
$IIMWV,134,R,05.6,N,A*16
$IIVWR,134.,R,05.6,N,02.9,M,010.4,K*72
$IIMWD,,,325.,M,05.6,N,02.9,M*02
$IIMTA,23.9,C*0D
$IIMTW,25.8,C*1C
$IIVWT,134.,R,05.6,N,02.9,M,010.4,K*74
$IIHDG,192.,,,,*73
$IIHDM,192.,M*18
$IIHDT,188.5,T*26
$IIGLL,4714.354,N,00131.577,W,162834,A,A*4A
$IIZDA,162834,26,06,2016,,*52
$IIVTG,112.,T,,M,00.0,N,00.0,K,A*28
$IIDPT,0000.0,,*72
$IIDBT,0000.0,f,0000.0,M,,*79
$IIVLW,0000.0,N,000.00,N*4D
$IIVHW,189.5,T,192.,M,00.00,N,00.00,K*6A
$IIMWV,136,R,05.6,N,A*14
$IIVWR,136.,R,05.6,N,02.9,M,010.4,K*70
$IIMWD,,,327.,M,05.6,N,02.9,M*00
$IIMTA,24.0,C*03
$IIMTW,25.8,C*1C
$IIVWT,135.,R,05.6,N,02.9,M,010.4,K*75
$IIHDG,192.,,,,*73
$IIHDM,192.,M*18
$IIHDT,189.5,T*27
$IIGLL,4714.354,N,00131.577,W,162836,A,A*48
$IIZDA,162836,26,06,2016,,*50
$IIVTG,112.,T,,M,00.0,N,00.0,K,A*28
$IIDPT,0000.0,,*72
$IIDBT,0000.0,f,0000.0,M,,*79
$IIVLW,0000.0,N,000.00,N*4D
$IIVHW,189.5,T,192.,M,00.00,N,00.00,K*6A
$IIMWV,138,R,05.6,N,A*1A
$IIVWR,138.,R,05.6,N,02.9,M,010.4,K*7E
$IIMWD,,,330.,M,05.6,N,02.9,M*06
$IIMTA,24.0,C*03
$IIMTW,25.8,C*1C
$IIVWT,138.,R,05.6,N,02.9,M,010.4,K*78
$IIHDG,192.,,,,*73
$IIHDM,192.,M*18
$IIHDT,189.5,T*27
$IIGLL,4714.354,N,00131.577,W,162838,A,A*46
$IIZDA,162838,26,06,2016,,*5E
$IIVTG,112.,T,,M,00.0,N,00.0,K,A*28
$IIDPT,0000.0,,*72
$IIDBT,0000.0,f,0000.0,M,,*79
$IIVLW,0000.0,N,000.00,N*4D
$IIVHW,189.5,T,203.,M,00.04,N,00.08,K*6D
$IIMWV,139,R,05.6,N,A*1B
$IIVWR,139.,R,05.6,N,02.9,M,010.4,K*7F
$IIMWD,,,330.,M,05.6,N,02.9,M*06
$IIMTA,24.0,C*03
$IIMTW,25.8,C*1C
$IIVWT,138.,R,05.6,N,02.9,M,010.4,K*78
$IIHDG,210.,,,,*7A
$IIHDM,210.,M*11
$IIHDT,203.5,T*26
$IIGLL,4714.354,N,00131.577,W,162838,A,A*46
$IIZDA,162838,26,06,2016,,*5E
$IIVTG,112.,T,,M,00.0,N,00.0,K,A*28
$IIDPT,0000.0,,*72
$IIDBT,0000.0,f,0000.0,M,,*79
$IIVLW,0000.0,N,000.00,N*4D
$IIVHW,203.5,T,213.,M,00.08,N,00.14,K*6C
$IIMWV,136,R,05.6,N,A*14
$IIVWR,136.,R,05.6,N,02.9,M,010.4,K*70
$IIMWD,,,350.,M,05.6,N,02.9,M*00
$IIMTA,24.1,C*02
$IIMTW,25.8,C*1C
$IIVWT,136.,R,05.6,N,02.9,M,010.4,K*76
$IIHDG,220.,,,,*79
$IIHDM,220.,M*12
$IIHDT,211.5,T*25
$IIGLL,4714.354,N,00131.577,W,162840,A,A*49
$IIZDA,162840,26,06,2016,,*51
$IIVTG,112.,T,,M,00.0,N,00.0,K,A*28
$IIDPT,0000.0,,*72
$IIDBT,0000.0,f,0000.0,M,,*79
$IIVLW,0000.0,N,000.00,N*4D
$IIVHW,211.5,T,220.,M,00.16,N,00.30,K*66
$IIMWV,134,R,05.6,N,A*16
$IIVWR,134.,R,05.6,N,02.9,M,010.4,K*72
$IIMWD,,,355.,M,05.7,N,02.9,M*04
$IIMTA,24.1,C*02
$IIMTW,25.8,C*1C
$IIVWT,135.,R,05.7,N,02.9,M,010.6,K*76
$IIHDG,225.,,,,*7C
$IIHDM,225.,M*17
$IIHDT,217.5,T*23
$IIGLL,4714.354,N,00131.577,W,162840,A,A*49
$IIZDA,162840,26,06,2016,,*51
$IIVTG,112.,T,,M,00.0,N,00.0,K,A*28
$IIDPT,0000.0,,*72
$IIDBT,0000.0,f,0000.0,M,,*79
$IIVLW,0000.0,N,000.00,N*4D
$IIVHW,219.5,T,232.,M,00.22,N,00.40,K*6D
$IIMWV,131,R,05.6,N,A*13
$IIVWR,131.,R,05.6,N,02.9,M,010.4,K*77
$IIMWD,,,357.,M,05.7,N,02.9,M*06
$IIMTA,24.1,C*02
$IIMTW,25.8,C*1C
$IIVWT,135.,R,05.7,N,02.9,M,010.6,K*76
$IIHDG,229.,,,,*70
$IIHDM,229.,M*1B
$IIHDT,219.5,T*2D
$IIGLL,4714.354,N,00131.577,W,162842,A,A*4B
$IIZDA,162842,26,06,2016,,*53
$IIVTG,112.,T,,M,00.0,N,00.0,K,A*28
$IIDPT,0000.0,,*72
$IIDBT,0000.0,f,0000.0,M,,*79
$IIVLW,0000.0,N,000.00,N*4D
$IIVHW,231.5,T,241.,M,00.26,N,00.49,K*6E
$IIMWV,129,R,05.6,N,A*1A
$IIVWR,129.,R,05.6,N,02.9,M,010.4,K*7E
$IIMWD,,,005.,M,05.7,N,02.9,M*02
$IIMTA,24.1,C*02
$IIMTW,25.9,C*1D
$IIVWT,131.,R,05.7,N,02.9,M,010.6,K*72
$IIHDG,239.,,,,*71
$IIHDM,234.,M*17
$IIHDT,231.5,T*27
$IIGLL,4714.354,N,00131.577,W,162842,A,A*4B
$IIZDA,162842,26,06,2016,,*53
$IIVTG,112.,T,,M,00.0,N,00.0,K,A*28
$IIDPT,0000.0,,*72
$IIDBT,0000.0,f,0000.0,M,,*79
$IIVLW,0000.0,N,000.00,N*4D
$IIVHW,231.5,T,231.,M,00.33,N,00.62,K*64
$IIMWV,127,R,05.6,N,A*14
$IIVWR,127.,R,05.6,N,02.9,M,010.4,K*70
$IIMWD,,,004.,M,05.8,N,03.0,M*04
$IIMTA,24.1,C*02
$IIMTW,25.8,C*1C
$IIVWT,130.,R,05.8,N,03.0,M,010.7,K*75
$IIHDG,232.,,,,*7A
$IIHDM,232.,M*11
$IIHDT,231.5,T*27
$IIGLL,4714.354,N,00131.577,W,162844,A,A*4D
$IIZDA,162844,26,06,2016,,*55
$IIVTG,112.,T,,M,00.0,N,00.0,K,A*28
$IIDPT,0000.0,,*72
$IIDBT,0000.0,f,0000.0,M,,*79
$IIVLW,0000.0,N,000.00,N*4D
$IIVHW,229.5,T,237.,M,00.41,N,00.75,K*68
$IIMWV,125,R,05.6,N,A*16
$IIVWR,125.,R,05.6,N,02.9,M,010.4,K*72
$IIMWD,,,001.,M,05.8,N,03.0,M*01
$IIMTA,24.1,C*02
$IIMTW,25.8,C*1C
$IIVWT,129.,R,05.8,N,03.0,M,010.7,K*7D
$IIHDG,232.,,,,*7A
$IIHDM,232.,M*11
$IIHDT,229.5,T*2E
$IIGLL,4714.354,N,00131.577,W,162846,A,A*4F
$IIZDA,162846,26,06,2016,,*57
$IIVTG,112.,T,,M,00.0,N,00.0,K,A*28
$IIDPT,0000.0,,*72
$IIDBT,0000.0,f,0000.0,M,,*79
$IIVLW,0000.0,N,000.00,N*4D
$IIVHW,229.5,T,231.,M,00.48,N,00.88,K*65
$IIMWV,124,R,05.6,N,A*17
$IIVWR,124.,R,05.6,N,02.9,M,010.4,K*73
$IIMWD,,,000.,M,05.8,N,03.0,M*00
$IIMTA,24.1,C*02
$IIMTW,25.8,C*1C
$IIVWT,128.,R,05.8,N,03.0,M,010.7,K*7C
$IIHDG,236.,,,,*7E
$IIHDM,236.,M*15
$IIHDT,228.5,T*2F
$IIGLL,4714.354,N,00131.577,W,162846,A,A*4F
$IIZDA,162846,26,06,2016,,*57
$IIVTG,112.,T,,M,00.0,N,00.0,K,A*28
$IIDPT,0000.0,,*72
$IIDBT,0000.0,f,0000.0,M,,*79
$IIVLW,0000.0,N,000.00,N*4D
$IIVHW,228.5,T,235.,M,00.52,N,00.96,K*64
$IIMWV,123,R,05.6,N,A*10
$IIVWR,123.,R,05.6,N,02.9,M,010.4,K*74
$IIMWD,,,359.,M,05.8,N,03.0,M*0F
$IIMTA,24.2,C*01
$IIMTW,25.8,C*1C
$IIVWT,127.,R,05.8,N,03.0,M,010.7,K*73
$IIHDG,242.,,,,*7D
$IIHDM,242.,M*16
$IIHDT,232.5,T*24
$IIGLL,4714.354,N,00131.577,W,162848,A,A*41
$IIZDA,162848,26,06,2016,,*59
$IIVTG,112.,T,,M,00.0,N,00.0,K,A*28
$IIDPT,0000.0,,*72
$IIDBT,0000.0,f,0000.0,M,,*79
$IIVLW,0000.0,N,000.00,N*4D
$IIVHW,234.5,T,237.,M,00.53,N,00.99,K*65
$IIMWV,123,R,05.6,N,A*10
$IIVWR,123.,R,05.6,N,02.9,M,010.4,K*74
$IIMWD,,,004.,M,05.9,N,03.0,M*05
$IIMTA,24.2,C*01
$IIMTW,25.8,C*1C
$IIVWT,127.,R,05.9,N,03.0,M,010.9,K*7C
$IIHDG,240.,,,,*7F
$IIHDM,240.,M*14
$IIHDT,234.5,T*22
$IIGLL,4714.354,N,00131.577,W,162848,A,A*41
$IIZDA,162848,26,06,2016,,*59
$IIVTG,112.,T,,M,00.0,N,00.0,K,A*28
$IIDPT,0000.0,,*72
$IIDBT,0000.0,f,0000.0,M,,*79
$IIVLW,0000.0,N,000.00,N*4D
$IIVHW,234.5,T,243.,M,00.59,N,01.09,K*64
$IIMWV,123,R,05.6,N,A*10
$IIVWR,123.,R,05.6,N,02.9,M,010.4,K*74
$IIMWD,,,011.,M,05.9,N,03.0,M*01
$IIMTA,24.2,C*01
$IIMTW,25.7,C*13
$IIVWT,128.,R,05.9,N,03.0,M,010.9,K*73
$IIHDG,248.,,,,*77
$IIHDM,248.,M*1C
$IIHDT,240.5,T*21
$IIGLL,4714.354,N,00131.577,W,162850,A,A*48
$IIZDA,162850,26,06,2016,,*50
$IIVTG,112.,T,,M,00.0,N,00.0,K,A*28
$IIDPT,0000.0,,*72
$IIDBT,0000.0,f,0000.0,M,,*79
$IIVLW,0000.0,N,000.00,N*4D
$IIVHW,245.5,T,247.,M,00.56,N,01.03,K*63
$IIMWV,124,R,05.6,N,A*17
$IIVWR,124.,R,05.6,N,02.9,M,010.4,K*73
$IIMWD,,,016.,M,05.9,N,03.0,M*06
$IIMTA,24.2,C*01
$IIMTW,25.7,C*13
$IIVWT,128.,R,05.9,N,03.0,M,010.9,K*73
$IIHDG,240.,,,,*7F
$IIHDM,240.,M*14
$IIHDT,245.5,T*24
$IIGLL,4714.354,N,00131.577,W,162850,A,A*48
$IIZDA,162850,26,06,2016,,*50
$IIVTG,112.,T,,M,00.0,N,00.0,K,A*28
$IIDPT,0000.0,,*72
$IIDBT,0000.0,f,0000.0,M,,*79
$IIVLW,0000.0,N,000.00,N*4D
$IIVHW,237.5,T,235.,M,00.52,N,00.97,K*6B
$IIMWV,126,R,05.6,N,A*15
$IIVWR,126.,R,05.6,N,02.9,M,010.4,K*71
$IIMWD,,,008.,M,05.9,N,03.0,M*09
$IIMTA,24.2,C*01
$IIMTW,25.7,C*13
$IIVWT,128.,R,05.9,N,03.0,M,010.9,K*73
$IIHDG,233.,,,,*7B
$IIHDM,233.,M*10
$IIHDT,230.5,T*26
$IIGLL,4714.354,N,00131.577,W,162852,A,A*4A
$IIZDA,162852,26,06,2016,,*52
$IIVTG,112.,T,,M,00.0,N,00.0,K,A*28
$IIDPT,0000.0,,*72
$IIDBT,0000.0,f,0000.0,M,,*79
$IIVLW,0000.0,N,000.00,N*4D
$IIVHW,230.5,T,228.,M,00.50,N,00.92,K*67
$IIMWV,129,R,05.8,N,A*14
$IIVWR,129.,R,05.8,N,03.0,M,010.7,K*7B
$IIMWD,,,005.,M,05.8,N,03.0,M*05
$IIMTA,24.3,C*00
$IIMTW,25.6,C*12
$IIVWT,132.,R,06.1,N,03.1,M,011.3,K*79
$IIHDG,229.,,,,*70
$IIHDM,231.,M*12
$IIHDT,226.5,T*21
$IIGLL,4714.354,N,00131.577,W,162854,A,A*4C
$IIZDA,162854,26,06,2016,,*54
$IIVTG,112.,T,,M,00.0,N,00.0,K,A*28
$IIDPT,0000.0,,*72
$IIDBT,0000.0,f,0000.0,M,,*79
$IIVLW,0000.0,N,000.00,N*4D
$IIVHW,226.5,T,232.,M,00.48,N,00.88,K*69
$IIMWV,133,R,06.1,N,A*15
$IIVWR,133.,R,06.1,N,03.1,M,011.3,K*7E
$IIMWD,,,001.,M,06.1,N,03.1,M*0A
$IIMTA,24.3,C*00
$IIMTW,25.6,C*12
$IIVWT,132.,R,06.1,N,03.1,M,011.3,K*79
$IIHDG,237.,,,,*7F
$IIHDM,237.,M*14
$IIHDT,231.5,T*27
$IIGLL,4714.354,N,00131.577,W,162854,A,A*4C
$IIZDA,162854,26,06,2016,,*54
$IIVTG,112.,T,,M,00.0,N,00.0,K,A*28
$IIDPT,0000.0,,*72
$IIDBT,0000.0,f,0000.0,M,,*79
$IIVLW,0000.0,N,000.00,N*4D
$IIVHW,231.5,T,238.,M,00.00,N,00.00,K*69
$IIMWV,134,R,06.8,N,A*1B
$IIVWR,134.,R,06.8,N,03.5,M,012.6,K*72
$IIMWD,,,012.,M,06.8,N,03.5,M*05
$IIMTA,24.3,C*00
$IIMTW,25.6,C*12
$IIVWT,134.,R,06.8,N,03.5,M,012.6,K*74
$IIHDG,240.,,,,*7F
$IIHDM,240.,M*14
$IIHDT,235.5,T*23
$IIGLL,4714.354,N,00131.577,W,162856,A,A*4E
$IIZDA,162856,26,06,2016,,*56
$IIVTG,112.,T,,M,00.0,N,00.0,K,A*28
$IIDPT,0000.0,,*72
$IIDBT,0000.0,f,0000.0,M,,*79
$IIVLW,0000.0,N,000.00,N*4D
$IIVHW,239.5,T,243.,M,00.00,N,00.00,K*6D
$IIMWV,136,R,07.6,N,A*16
$IIVWR,136.,R,07.6,N,03.9,M,014.1,K*72
$IIMWD,,,017.,M,07.3,N,03.8,M*07
$IIMTA,24.3,C*00
$IIMTW,25.6,C*12
$IIVWT,135.,R,07.3,N,03.8,M,013.5,K*70
$IIHDG,244.,,,,*7B
$IIHDM,244.,M*10
$IIHDT,239.5,T*2F
$IIGLL,4714.354,N,00131.577,W,162856,A,A*4E
$IIZDA,162856,26,06,2016,,*56
$IIVTG,112.,T,,M,00.0,N,00.0,K,A*28
$IIDPT,0000.0,,*72
$IIDBT,0000.0,f,0000.0,M,,*79
$IIVLW,0000.0,N,000.00,N*4D
$IIVHW,243.5,T,246.,M,00.00,N,00.00,K*65
$IIMWV,136,R,07.6,N,A*16
$IIVWR,136.,R,07.6,N,03.9,M,014.1,K*72
$IIMWD,,,022.,M,07.6,N,03.9,M*05
$IIMTA,24.3,C*00
$IIMTW,25.5,C*11
$IIVWT,136.,R,07.6,N,03.9,M,014.1,K*74
$IIHDG,247.,,,,*78
$IIHDM,248.,M*1C
$IIHDT,243.5,T*22
$IIGLL,4714.354,N,00131.577,W,162858,A,A*40
$IIZDA,162858,26,06,2016,,*58
$IIVTG,112.,T,,M,00.0,N,00.0,K,A*28
$IIDPT,0000.0,,*72
$IIDBT,0000.0,f,0000.0,M,,*79
$IIVLW,0000.0,N,000.00,N*4D
$IIVHW,245.5,T,249.,M,00.00,N,00.00,K*6C
$IIMWV,137,R,08.3,N,A*1D
$IIVWR,137.,R,08.3,N,04.3,M,015.4,K*70
$IIMWD,,,025.,M,08.1,N,04.2,M*06
$IIMTA,24.3,C*00
$IIMTW,25.4,C*10
$IIVWT,137.,R,08.1,N,04.2,M,015.0,K*71
$IIHDG,250.,,,,*7E
$IIHDM,250.,M*15
$IIHDT,246.5,T*27
$IIGLL,4714.354,N,00131.577,W,162900,A,A*4C
$IIZDA,162900,26,06,2016,,*54
$IIVTG,112.,T,,M,00.0,N,00.0,K,A*28
$IIDPT,0000.0,,*72
$IIDBT,0000.0,f,0000.0,M,,*79
$IIVLW,0000.0,N,000.00,N*4D
$IIVHW,246.5,T,250.,M,00.00,N,00.00,K*67
$IIMWV,138,R,08.7,N,A*16
$IIVWR,138.,R,08.7,N,04.5,M,016.1,K*7B
$IIMWD,,,026.,M,08.3,N,04.3,M*06
$IIMTA,24.4,C*07
$IIMTW,25.4,C*10
$IIVWT,137.,R,08.3,N,04.3,M,015.4,K*76
$IIHDG,251.,,,,*7F
$IIHDM,251.,M*14
$IIHDT,248.5,T*29
$IIGLL,4714.354,N,00131.577,W,162900,A,A*4C
$IIZDA,162900,26,06,2016,,*54
$IIVTG,112.,T,,M,00.0,N,00.0,K,A*28
$IIDPT,0000.0,,*72
$IIDBT,0000.0,f,0000.0,M,,*79
$IIVLW,0000.0,N,000.00,N*4D
$IIVHW,248.5,T,252.,M,00.00,N,00.00,K*6B
$IIMWV,139,R,09.1,N,A*10
$IIVWR,139.,R,09.1,N,04.7,M,016.9,K*77
$IIMWD,,,029.,M,08.7,N,04.5,M*0B
$IIMTA,24.4,C*07
$IIMTW,25.4,C*10
$IIVWT,138.,R,08.7,N,04.5,M,016.1,K*7D
$IIHDG,252.,,,,*7C
$IIHDM,252.,M*17
$IIHDT,249.5,T*28
$IIGLL,4714.354,N,00131.577,W,162902,A,A*4E
$IIZDA,162902,26,06,2016,,*56
$IIVTG,112.,T,,M,00.0,N,00.0,K,A*28
$IIDPT,0000.0,,*72
$IIDBT,0000.0,f,0000.0,M,,*79
$IIVLW,0000.0,N,000.00,N*4D
$IIVHW,249.5,T,253.,M,00.00,N,00.00,K*6B
$IIMWV,141,R,09.2,N,A*1C
$IIVWR,141.,R,09.2,N,04.7,M,017.0,K*73
$IIMWD,,,034.,M,09.2,N,04.7,M*01
$IIMTA,24.4,C*07
$IIMTW,25.3,C*17
$IIVWT,141.,R,09.2,N,04.7,M,017.0,K*75
$IIHDG,253.,,,,*7D
$IIHDM,253.,M*16
$IIHDT,250.5,T*20
$IIGLL,4714.354,N,00131.577,W,162902,A,A*4E
$IIZDA,162902,26,06,2016,,*56
$IIVTG,112.,T,,M,00.0,N,00.0,K,A*28
$IIDPT,0000.0,,*72
$IIDBT,0000.0,f,0000.0,M,,*79
$IIVLW,0000.0,N,000.00,N*4D
$IIVHW,250.5,T,253.,M,00.00,N,00.00,K*63
$IIMWV,142,R,09.2,N,A*1F
$IIVWR,142.,R,09.2,N,04.7,M,017.0,K*70
$IIMWD,,,035.,M,09.2,N,04.7,M*00
$IIMTA,24.4,C*07
$IIMTW,25.3,C*17
$IIVWT,142.,R,09.2,N,04.7,M,017.0,K*76
$IIHDG,254.,,,,*7A
$IIHDM,254.,M*11
$IIHDT,250.5,T*20
$IIGLL,4714.354,N,00131.577,W,162904,A,A*48
$IIZDA,162904,26,06,2016,,*50
$IIVTG,112.,T,,M,00.0,N,00.0,K,A*28
$IIDPT,0000.0,,*72
$IIDBT,0000.0,f,0000.0,M,,*79
$IIVLW,0000.0,N,000.00,N*4D
$IIVHW,251.5,T,254.,M,00.00,N,00.00,K*65
$IIMWV,144,R,09.2,N,A*19
$IIVWR,144.,R,09.2,N,04.7,M,017.0,K*76
$IIMWD,,,037.,M,09.2,N,04.7,M*02
$IIMTA,24.4,C*07
$IIMTW,25.3,C*17
$IIVWT,143.,R,09.2,N,04.7,M,017.0,K*77
$IIHDG,254.,,,,*7A
$IIHDM,254.,M*11
$IIHDT,251.5,T*21
$IIGLL,4714.354,N,00131.577,W,162904,A,A*48
$IIZDA,162904,26,06,2016,,*50
$IIVTG,112.,T,,M,00.0,N,00.0,K,A*28
$IIDPT,0000.0,,*72
$IIDBT,0000.0,f,0000.0,M,,*79
$IIVLW,0000.0,N,000.00,N*4D
$IIVHW,251.5,T,254.,M,00.00,N,00.00,K*65
$IIMWV,145,R,09.2,N,A*18
$IIVWR,145.,R,09.2,N,04.7,M,017.0,K*77
$IIMWD,,,038.,M,09.2,N,04.7,M*0D
$IIMTA,24.4,C*07
$IIMTW,25.3,C*17
$IIVWT,144.,R,09.2,N,04.7,M,017.0,K*70
$IIHDG,255.,,,,*7B
$IIHDM,255.,M*10
$IIHDT,252.5,T*22
$IIGLL,4714.354,N,00131.577,W,162906,A,A*4A
$IIZDA,162906,26,06,2016,,*52
$IIVTG,112.,T,,M,00.0,N,00.0,K,A*28
$IIDPT,0000.0,,*72
$IIDBT,0000.0,f,0000.0,M,,*79
$IIVLW,0000.0,N,000.00,N*4D
$IIVHW,252.5,T,255.,M,00.00,N,00.00,K*67
$IIMWV,146,R,09.2,N,A*1B
$IIVWR,146.,R,09.2,N,04.7,M,017.0,K*74
$IIMWD,,,040.,M,09.2,N,04.7,M*02
$IIMTA,24.5,C*06
$IIMTW,25.3,C*17
$IIVWT,146.,R,09.2,N,04.7,M,017.0,K*72
$IIHDG,255.,,,,*7B
$IIHDM,255.,M*10
$IIHDT,252.5,T*22
$IIGLL,4714.354,N,00131.577,W,162908,A,A*44
$IIZDA,162908,26,06,2016,,*5C
$IIVTG,112.,T,,M,00.0,N,00.0,K,A*28
$IIDPT,0000.0,,*72
$IIDBT,0000.0,f,0000.0,M,,*79
$IIVLW,0000.0,N,000.00,N*4D
$IIVHW,252.5,T,255.,M,00.00,N,00.00,K*67
$IIMWV,147,R,09.2,N,A*1A
$IIVWR,147.,R,09.2,N,04.7,M,017.0,K*75
$IIMWD,,,041.,M,09.2,N,04.7,M*03
$IIMTA,24.5,C*06
$IIMTW,25.3,C*17
$IIVWT,147.,R,09.2,N,04.7,M,017.0,K*73
$IIHDG,255.,,,,*7B
$IIHDM,255.,M*10
$IIHDT,252.5,T*22
$IIGLL,4714.354,N,00131.577,W,162908,A,A*44
$IIZDA,162908,26,06,2016,,*5C
$IIVTG,112.,T,,M,00.0,N,00.0,K,A*28
$IIDPT,0000.0,,*72
$IIDBT,0000.0,f,0000.0,M,,*79
$IIVLW,0000.0,N,000.00,N*4D
$IIVHW,252.5,T,255.,M,00.00,N,00.00,K*67
$IIMWV,148,R,09.2,N,A*15
$IIVWR,148.,R,09.2,N,04.7,M,017.0,K*7A
$IIMWD,,,042.,M,09.2,N,04.7,M*00
$IIMTA,24.5,C*06
$IIMTW,25.3,C*17
$IIVWT,148.,R,09.2,N,04.7,M,017.0,K*7C
$IIHDG,255.,,,,*7B
$IIHDM,255.,M*10
$IIHDT,252.5,T*22
$IIGLL,4714.354,N,00131.577,W,162910,A,A*4D
$IIZDA,162910,26,06,2016,,*55
$IIVTG,112.,T,,M,00.0,N,00.0,K,A*28
$IIDPT,0000.0,,*72
$IIDBT,0000.0,f,0000.0,M,,*79
$IIVLW,0000.0,N,000.00,N*4D
$IIVHW,252.5,T,255.,M,00.00,N,00.00,K*67
$IIMWV,149,R,09.2,N,A*14
$IIVWR,149.,R,09.2,N,04.7,M,017.0,K*7B
$IIMWD,,,044.,M,09.2,N,04.7,M*06
$IIMTA,24.6,C*05
$IIMTW,25.3,C*17
$IIVWT,149.,R,09.2,N,04.7,M,017.0,K*7D
$IIHDG,255.,,,,*7B
$IIHDM,255.,M*10
$IIHDT,252.5,T*22
$IIGLL,4714.354,N,00131.577,W,162910,A,A*4D
$IIZDA,162910,26,06,2016,,*55
$IIVTG,112.,T,,M,00.0,N,00.0,K,A*28
$IIDPT,0000.0,,*72
$IIDBT,0000.0,f,0000.0,M,,*79
$IIVLW,0000.0,N,000.00,N*4D
$IIVHW,252.5,T,255.,M,00.00,N,00.00,K*67
$IIMWV,150,R,09.2,N,A*1C
$IIVWR,150.,R,09.2,N,04.7,M,017.0,K*73
$IIMWD,,,044.,M,09.2,N,04.7,M*06
$IIMTA,24.6,C*05
$IIMTW,25.2,C*16
$IIVWT,149.,R,09.2,N,04.7,M,017.0,K*7D
$IIHDG,255.,,,,*7B
$IIHDM,255.,M*10
$IIHDT,252.5,T*22
$IIGLL,4714.354,N,00131.577,W,162912,A,A*4F
$IIZDA,162912,26,06,2016,,*57
$IIVTG,112.,T,,M,00.0,N,00.0,K,A*28
$IIDPT,0000.0,,*72
$IIDBT,0000.0,f,0000.0,M,,*79
$IIVLW,0000.0,N,000.00,N*4D
$IIVHW,252.5,T,255.,M,00.00,N,00.00,K*67
$IIMWV,150,R,09.2,N,A*1C
$IIVWR,150.,R,09.2,N,04.7,M,017.0,K*73
$IIMWD,,,045.,M,09.2,N,04.7,M*07
$IIMTA,24.6,C*05
$IIMTW,25.2,C*16
$IIVWT,150.,R,09.2,N,04.7,M,017.0,K*75
$IIHDG,255.,,,,*7B
$IIHDM,255.,M*10
$IIHDT,252.5,T*22
$IIGLL,4714.354,N,00131.577,W,162912,A,A*4F
$IIZDA,162912,26,06,2016,,*57
$IIVTG,112.,T,,M,00.0,N,00.0,K,A*28
$IIDPT,0000.0,,*72
$IIDBT,0000.0,f,0000.0,M,,*79
$IIVLW,0000.0,N,000.00,N*4D
$IIVHW,252.5,T,255.,M,00.00,N,00.00,K*67
$IIMWV,151,R,09.2,N,A*1D
$IIVWR,151.,R,09.2,N,04.7,M,017.0,K*72
$IIMWD,,,045.,M,09.2,N,04.7,M*07
$IIMTA,24.6,C*05
$IIMTW,25.2,C*16
$IIVWT,150.,R,09.2,N,04.7,M,017.0,K*75
$IIHDG,255.,,,,*7B
$IIHDM,255.,M*10
$IIHDT,252.5,T*22
$IIGLL,4714.354,N,00131.577,W,162914,A,A*49
$IIZDA,162914,26,06,2016,,*51
$IIVTG,112.,T,,M,00.0,N,00.0,K,A*28
$IIDPT,0000.0,,*72
$IIDBT,0000.0,f,0000.0,M,,*79
$IIVLW,0000.0,N,000.00,N*4D
$IIVHW,252.5,T,255.,M,00.00,N,00.00,K*67
$IIMWV,151,R,09.2,N,A*1D
$IIVWR,151.,R,09.2,N,04.7,M,017.0,K*72
$IIMWD,,,046.,M,09.2,N,04.7,M*04
$IIMTA,24.6,C*05
$IIMTW,25.2,C*16
$IIVWT,151.,R,09.2,N,04.7,M,017.0,K*74
$IIHDG,255.,,,,*7B
$IIHDM,255.,M*10
$IIHDT,252.5,T*22
$IIGLL,4714.354,N,00131.577,W,162916,A,A*4B
$IIZDA,162916,26,06,2016,,*53
$IIVTG,112.,T,,M,00.0,N,00.0,K,A*28
$IIDPT,0000.0,,*72
$IIDBT,0000.0,f,0000.0,M,,*79
$IIVLW,0000.0,N,000.00,N*4D
$IIVHW,252.5,T,255.,M,00.00,N,00.00,K*67
$IIMWV,152,R,09.2,N,A*1E
$IIVWR,152.,R,09.2,N,04.7,M,017.0,K*71
$IIMWD,,,047.,M,09.2,N,04.7,M*05
$IIMTA,24.6,C*05
$IIMTW,25.1,C*15
$IIVWT,152.,R,09.2,N,04.7,M,017.0,K*77
$IIHDG,255.,,,,*7B
$IIHDM,255.,M*10
$IIHDT,252.5,T*22
$IIGLL,4714.353,N,00131.577,W,162916,A,A*4C
$IIZDA,162916,26,06,2016,,*53
$IIVTG,112.,T,,M,00.0,N,00.0,K,A*28
$IIDPT,0000.0,,*72
$IIDBT,0000.0,f,0000.0,M,,*79
$IIVLW,0000.0,N,000.00,N*4D
$IIVHW,252.5,T,255.,M,00.00,N,00.00,K*67
$IIMWV,152,R,09.2,N,A*1E
$IIVWR,152.,R,09.2,N,04.7,M,017.0,K*71
$IIMWD,,,047.,M,09.2,N,04.7,M*05
$IIMTA,24.7,C*04
$IIMTW,25.2,C*16
$IIVWT,152.,R,09.2,N,04.7,M,017.0,K*77
$IIHDG,255.,,,,*7B
$IIHDM,255.,M*10
$IIHDT,252.5,T*22
$IIGLL,4714.353,N,00131.577,W,162918,A,A*42
$IIZDA,162918,26,06,2016,,*5D
$IIVTG,112.,T,,M,00.0,N,00.0,K,A*28
$IIDPT,0000.0,,*72
$IIDBT,0000.0,f,0000.0,M,,*79
$IIVLW,0000.0,N,000.00,N*4D
$IIVHW,252.5,T,255.,M,00.00,N,00.00,K*67
$IIMWV,152,R,09.2,N,A*1E
$IIVWR,152.,R,09.2,N,04.7,M,017.0,K*71
$IIMWD,,,047.,M,09.2,N,04.7,M*05
$IIMTA,24.7,C*04
$IIMTW,25.1,C*15
$IIVWT,152.,R,09.2,N,04.7,M,017.0,K*77
$IIHDG,255.,,,,*7B
$IIHDM,255.,M*10
$IIHDT,252.5,T*22
$IIGLL,4714.353,N,00131.577,W,162918,A,A*42
$IIZDA,162918,26,06,2016,,*5D
$IIVTG,112.,T,,M,00.0,N,00.0,K,A*28
$IIDPT,0000.0,,*72
$IIDBT,0000.0,f,0000.0,M,,*79
$IIVLW,0000.0,N,000.00,N*4D
$IIVHW,252.5,T,255.,M,00.00,N,00.00,K*67
$IIMWV,153,R,00.0,N,A*14
$IIVWR,153.,R,00.0,N,00.0,M,000.0,K*7E
$IIMWD,,,048.,M,09.2,N,04.7,M*0A
$IIMTA,24.7,C*04
$IIMTW,25.1,C*15
$IIVWT,153.,R,09.2,N,04.7,M,017.0,K*76
$IIHDG,255.,,,,*7B
$IIHDM,255.,M*10
$IIHDT,252.5,T*22
$IIGLL,4714.353,N,00131.577,W,162920,A,A*49
$IIZDA,162920,26,06,2016,,*56
$IIVTG,112.,T,,M,00.0,N,00.0,K,A*28
$IIDPT,0000.0,,*72
$IIDBT,0000.0,f,0000.0,M,,*79
$IIVLW,0000.0,N,000.00,N*4D
$IIVHW,252.5,T,255.,M,00.00,N,00.00,K*67
$IIMWV,153,R,00.0,N,A*14
$IIVWR,153.,R,00.0,N,00.0,M,000.0,K*7E
$IIMWD,,,254.,M,00.0,N,00.0,M*0D
$IIMTA,24.7,C*04
$IIMTW,25.0,C*14
$IIVWT,001.,L,00.0,N,00.0,M,000.0,K*60
$IIHDG,255.,,,,*7B
$IIHDM,255.,M*10
$IIHDT,252.5,T*22
$IIGLL,4714.353,N,00131.577,W,162920,A,A*49
$IIZDA,162920,26,06,2016,,*56
$IIVTG,112.,T,,M,00.0,N,00.0,K,A*28
$IIDPT,0000.0,,*72
$IIDBT,0000.0,f,0000.0,M,,*79
$IIVLW,0000.0,N,000.00,N*4D
$IIVHW,252.5,T,255.,M,00.00,N,00.00,K*67
$IIMWV,153,R,00.0,N,A*14
$IIVWR,153.,R,00.0,N,00.0,M,000.0,K*7E
$IIMWD,,,254.,M,00.0,N,00.0,M*0D
$IIMTA,24.7,C*04
$IIMTW,25.0,C*14
$IIVWT,001.,L,00.0,N,00.0,M,000.0,K*60
$IIHDG,255.,,,,*7B
$IIHDM,255.,M*10
$IIHDT,252.5,T*22
$IIGLL,4714.353,N,00131.577,W,162922,A,A*4B
$IIZDA,162922,26,06,2016,,*54
$IIVTG,112.,T,,M,00.0,N,00.0,K,A*28
$IIDPT,0000.0,,*72
$IIDBT,0000.0,f,0000.0,M,,*79
$IIVLW,0000.0,N,000.00,N*4D
$IIVHW,252.5,T,255.,M,00.00,N,00.00,K*67
$IIMWV,154,R,00.0,N,A*13
$IIVWR,154.,R,00.0,N,00.0,M,000.0,K*79
$IIMWD,,,254.,M,00.0,N,00.0,M*0D
$IIMTA,24.7,C*04
$IIMTW,24.9,C*1C
$IIVWT,001.,L,00.0,N,00.0,M,000.0,K*60
$IIHDG,255.,,,,*7B
$IIHDM,255.,M*10
$IIHDT,252.5,T*22
$IIGLL,4714.353,N,00131.577,W,162924,A,A*4D
$IIZDA,162924,26,06,2016,,*52
$IIVTG,112.,T,,M,00.0,N,00.0,K,A*28
$IIDPT,0000.0,,*72
$IIDBT,0000.0,f,0000.0,M,,*79
$IIVLW,0000.0,N,000.00,N*4D
$IIVHW,252.5,T,255.,M,00.00,N,00.00,K*67
$IIMWV,154,R,00.0,N,A*13
$IIVWR,154.,R,00.0,N,00.0,M,000.0,K*79
$IIMWD,,,254.,M,00.0,N,00.0,M*0D
$IIMTA,24.7,C*04
$IIMTW,25.0,C*14
$IIVWT,001.,L,00.0,N,00.0,M,000.0,K*60
$IIHDG,255.,,,,*7B
$IIHDM,255.,M*10
$IIHDT,252.5,T*22
$IIGLL,4714.353,N,00131.577,W,162924,A,A*4D
$IIZDA,162924,26,06,2016,,*52
$IIVTG,112.,T,,M,00.0,N,00.0,K,A*28
$IIDPT,0000.0,,*72
$IIDBT,0000.0,f,0000.0,M,,*79
$IIVLW,0000.0,N,000.00,N*4D
$IIVHW,252.5,T,255.,M,00.00,N,00.00,K*67
$IIMWV,154,R,00.0,N,A*13
$IIVWR,154.,R,00.0,N,00.0,M,000.0,K*79
$IIMWD,,,254.,M,00.0,N,00.0,M*0D
$IIMTA,24.8,C*0B
$IIMTW,24.9,C*1C
$IIVWT,001.,L,00.0,N,00.0,M,000.0,K*60
$IIHDG,255.,,,,*7B
$IIHDM,255.,M*10
$IIHDT,252.5,T*22
$IIGLL,4714.353,N,00131.577,W,162926,A,A*4F
$IIZDA,162926,26,06,2016,,*50
$IIVTG,112.,T,,M,00.0,N,00.0,K,A*28
$IIDPT,0000.0,,*72
$IIDBT,0000.0,f,0000.0,M,,*79
$IIVLW,0000.0,N,000.00,N*4D
$IIVHW,252.5,T,255.,M,00.00,N,00.00,K*67
$IIMWV,154,R,00.0,N,A*13
$IIVWR,154.,R,00.0,N,00.0,M,000.0,K*79
$IIMWD,,,254.,M,00.0,N,00.0,M*0D
$IIMTA,24.8,C*0B
$IIMTW,24.9,C*1C
$IIVWT,001.,L,00.0,N,00.0,M,000.0,K*60
$IIHDG,255.,,,,*7B
$IIHDM,255.,M*10
$IIHDT,252.5,T*22
$IIGLL,4714.353,N,00131.577,W,162926,A,A*4F
$IIZDA,162926,26,06,2016,,*50
$IIVTG,112.,T,,M,00.0,N,00.0,K,A*28
$IIDPT,0000.0,,*72
$IIDBT,0000.0,f,0000.0,M,,*79
$IIVLW,0000.0,N,000.00,N*4D
$IIVHW,252.5,T,255.,M,00.00,N,00.00,K*67
$IIMWV,154,R,00.0,N,A*13
$IIVWR,154.,R,00.0,N,00.0,M,000.0,K*79
$IIMWD,,,254.,M,00.0,N,00.0,M*0D
$IIMTA,24.8,C*0B
$IIMTW,25.0,C*14
$IIVWT,001.,L,00.0,N,00.0,M,000.0,K*60
$IIHDG,255.,,,,*7B
$IIHDM,255.,M*10
$IIHDT,252.5,T*22
$IIGLL,4714.353,N,00131.577,W,162928,A,A*41
$IIZDA,162928,26,06,2016,,*5E
$IIVTG,112.,T,,M,00.0,N,00.0,K,A*28
$IIDPT,0000.0,,*72
$IIDBT,0000.0,f,0000.0,M,,*79
$IIVLW,0000.0,N,000.00,N*4D
$IIVHW,252.5,T,255.,M,00.00,N,00.00,K*67
$IIMWV,154,R,00.0,N,A*13
$IIVWR,154.,R,00.0,N,00.0,M,000.0,K*79
$IIMWD,,,254.,M,00.0,N,00.0,M*0D
$IIMTA,24.8,C*0B
$IIMTW,24.9,C*1C
$IIVWT,001.,L,00.0,N,00.0,M,000.0,K*60
$IIHDG,255.,,,,*7B
$IIHDM,255.,M*10
$IIHDT,252.5,T*22
$IIGLL,4714.353,N,00131.577,W,162928,A,A*41
$IIZDA,162928,26,06,2016,,*5E
$IIVTG,112.,T,,M,00.0,N,00.0,K,A*28
$IIDPT,0000.0,,*72
$IIDBT,0000.0,f,0000.0,M,,*79
$IIVLW,0000.0,N,000.00,N*4D
$IIVHW,252.5,T,255.,M,00.00,N,00.00,K*67
$IIMWV,155,R,00.0,N,A*12
$IIVWR,155.,R,00.0,N,00.0,M,000.0,K*78
$IIMWD,,,254.,M,00.0,N,00.0,M*0D
$IIMTA,24.8,C*0B
$IIMTW,24.9,C*1C
$IIVWT,001.,L,00.0,N,00.0,M,000.0,K*60
$IIHDG,255.,,,,*7B
$IIHDM,255.,M*10
$IIHDT,252.5,T*22
$IIGLL,4714.353,N,00131.577,W,162930,A,A*48
$IIZDA,162930,26,06,2016,,*57
$IIVTG,112.,T,,M,00.0,N,00.0,K,A*28
$IIDPT,0000.0,,*72
$IIDBT,0000.0,f,0000.0,M,,*79
$IIVLW,0000.0,N,000.00,N*4D
$IIVHW,252.5,T,255.,M,00.00,N,00.00,K*67
$IIMWV,155,R,00.0,N,A*12
$IIVWR,155.,R,00.0,N,00.0,M,000.0,K*78
$IIMWD,,,254.,M,00.0,N,00.0,M*0D
$IIMTA,24.8,C*0B
$IIMTW,25.0,C*14
$IIVWT,001.,L,00.0,N,00.0,M,000.0,K*60
$IIHDG,255.,,,,*7B
$IIHDM,255.,M*10
$IIHDT,252.5,T*22
$IIGLL,4714.353,N,00131.577,W,162932,A,A*4A
$IIZDA,162932,26,06,2016,,*55
$IIVTG,112.,T,,M,00.0,N,00.0,K,A*28
$IIDPT,0000.0,,*72
$IIDBT,0000.0,f,0000.0,M,,*79
$IIVLW,0000.0,N,000.00,N*4D
$IIVHW,252.5,T,255.,M,00.00,N,00.00,K*67
$IIMWV,155,R,00.0,N,A*12
$IIVWR,155.,R,00.0,N,00.0,M,000.0,K*78
$IIMWD,,,254.,M,00.0,N,00.0,M*0D
$IIMTA,24.8,C*0B
$IIMTW,24.9,C*1C
$IIVWT,001.,L,00.0,N,00.0,M,000.0,K*60
$IIHDG,255.,,,,*7B
$IIHDM,255.,M*10
$IIHDT,252.5,T*22
$IIGLL,4714.353,N,00131.577,W,162932,A,A*4A
$IIZDA,162932,26,06,2016,,*55
$IIVTG,112.,T,,M,00.0,N,00.0,K,A*28
$IIDPT,0000.0,,*72
$IIDBT,0000.0,f,0000.0,M,,*79
$IIVLW,0000.0,N,000.00,N*4D
$IIVHW,252.5,T,255.,M,00.00,N,00.00,K*67
$IIMWV,155,R,00.0,N,A*12
$IIVWR,155.,R,00.0,N,00.0,M,000.0,K*78
$IIMWD,,,254.,M,00.0,N,00.0,M*0D
