Terminal log file
Date: 26/06/2016 - 17:58:08
-----------------------------------------------
$GPGSV,3,1,11,04,06,230,00,07,15,321,00,08,27,284,00,10,32,144,00*79
$GPGLL,4714.3414,N,00131.5679,W,155808,A,A*5E
$GPBOD,,T,,M,,*47
$GPVTG,111.5,T,114.0,M,0.0,N,0.0,K*4E
$GPRTE,1,1,c,*37
$GPRMC,155810,A,4714.3412,N,00131.5677,W,0.0,111.5,260616,2.5,W,A*17
$GPRMB,A,,,,,,,,,,,,V,A*1C
$GPGGA,155810,4714.3412,N,00131.5677,W,1,11,4.9,44.7,M,48.5,M,,*69
$GPGSA,A,3,04,07,08,10,16,18,20,21,26,27,39,,6.9,4.9,5.0*3B
$GPGSV,3,2,11,16,78,226,00,18,41,097,00,20,15,041,00,21,43,057,00*71
$GPGLL,4714.3412,N,00131.5677,W,155810,A,A*5F
$GPBOD,,T,,M,,*47
$GPVTG,111.5,T,114.0,M,0.0,N,0.0,K*4E
$GPRTE,1,1,c,*37
$GPRMC,155812,A,4714.3412,N,00131.5677,W,0.0,111.5,260616,2.5,W,A*15
$GPRMB,A,,,,,,,,,,,,V,A*1C
$GPGGA,155812,4714.3412,N,00131.5677,W,1,11,4.9,44.7,M,48.5,M,,*6B
$GPGSA,A,3,04,07,08,10,16,18,20,21,26,27,39,,6.9,4.9,5.0*3B
$GPGSV,3,3,11,26,53,166,00,27,60,298,00,39,65,090,00*4A
$GPGLL,4714.3412,N,00131.5677,W,155812,A,A*5D
$GPBOD,,T,,M,,*47
$GPVTG,111.5,T,114.0,M,0.0,N,0.0,K*4E
$GPRTE,1,1,c,*37
$GPRMC,155814,A,4714.3412,N,00131.5677,W,0.0,111.5,260616,2.5,W,A*13
$GPRMB,A,,,,,,,,,,,,V,A*1C
$GPGGA,155814,4714.3412,N,00131.5677,W,1,11,4.9,44.7,M,48.5,M,,*6D
$GPGSA,A,3,04,07,08,10,16,18,20,21,26,27,39,,6.9,4.9,5.0*3B
$GPGSV,3,1,11,04,06,230,00,07,15,321,00,08,27,284,00,10,31,144,00*7A
$GPGLL,4714.3412,N,00131.5677,W,155814,A,A*5B
$GPBOD,,T,,M,,*47
$GPVTG,111.5,T,114.0,M,0.0,N,0.0,K*4E
$GPRTE,1,1,c,*37
$GPRMC,155816,A,4714.3411,N,00131.5673,W,0.0,111.5,260616,2.5,W,A*16
$GPRMB,A,,,,,,,,,,,,V,A*1C
$GPGGA,155816,4714.3411,N,00131.5673,W,1,11,4.9,43.8,M,48.5,M,,*60
$GPGSA,A,3,04,07,08,10,16,18,20,21,26,27,39,,6.9,4.9,5.0*3B
$GPGSV,3,2,11,16,78,226,00,18,41,097,00,20,15,041,00,21,43,057,00*71
$GPGLL,4714.3411,N,00131.5673,W,155816,A,A*5E
$GPBOD,,T,,M,,*47
$GPVTG,111.5,T,114.0,M,0.0,N,0.0,K*4E
$GPRTE,1,1,c,*37
$GPRMC,155818,A,4714.3409,N,00131.5671,W,0.0,111.5,260616,2.5,W,A*13
$GPRMB,A,,,,,,,,,,,,V,A*1C
$GPGGA,155818,4714.3409,N,00131.5671,W,1,11,2.9,43.4,M,48.5,M,,*6F
$GPGSA,A,3,04,07,08,10,16,18,20,21,26,27,39,,3.8,2.9,2.4*3A
$GPGSV,3,3,11,26,53,166,00,27,61,298,00,39,65,090,00*4B
$GPGLL,4714.3409,N,00131.5671,W,155818,A,A*5B
$GPBOD,,T,,M,,*47
$GPVTG,111.5,T,114.0,M,0.0,N,0.0,K*4E
$GPRTE,1,1,c,*37
$GPRMC,155820,A,4714.3411,N,00131.5673,W,0.0,111.5,260616,2.5,W,A*13
$GPRMB,A,,,,,,,,,,,,V,A*1C
$GPGGA,155820,4714.3411,N,00131.5673,W,1,11,2.9,43.3,M,48.5,M,,*68
$GPGSA,A,3,04,07,08,10,16,18,20,21,26,27,39,,3.8,2.9,2.4*3A
$GPGSV,3,1,11,04,06,230,00,07,15,321,00,08,27,284,00,10,32,144,00*79
$GPGLL,4714.3411,N,00131.5673,W,155820,A,A*5B
$GPBOD,,T,,M,,*47
$GPVTG,111.5,T,114.0,M,0.0,N,0.0,K*4E
$GPRTE,1,1,c,*37
$GPRMC,155822,A,4714.3411,N,00131.5673,W,0.0,111.5,260616,2.5,W,A*11
$GPRMB,A,,,,,,,,,,,,V,A*1C
$GPGGA,155822,4714.3411,N,00131.5673,W,1,11,2.9,43.3,M,48.5,M,,*6A
$GPGSA,A,3,04,07,08,10,16,18,20,21,26,27,39,,3.8,2.9,2.4*3A
$GPGSV,3,2,11,16,78,226,00,18,41,097,00,20,15,041,00,21,43,057,00*71
$GPGLL,4714.3411,N,00131.5673,W,155822,A,A*59
$GPBOD,,T,,M,,*47
$GPVTG,111.5,T,114.0,M,0.0,N,0.0,K*4E
$GPRTE,1,1,c,*37
$GPRMC,155824,A,4714.3411,N,00131.5673,W,0.0,111.5,260616,2.5,W,A*17
$GPRMB,A,,,,,,,,,,,,V,A*1C
$GPGGA,155824,4714.3411,N,00131.5673,W,1,11,2.9,43.3,M,48.5,M,,*6C
$GPGSA,A,3,04,07,08,10,16,18,20,21,26,27,39,,3.8,2.9,2.4*3A
$GPGSV,3,3,11,26,53,166,00,27,61,298,00,39,65,090,00*4B
$GPGLL,4714.3411,N,00131.5673,W,155824,A,A*5F
$GPBOD,,T,,M,,*47
$GPVTG,111.5,T,114.0,M,0.0,N,0.0,K*4E
$GPRTE,1,1,c,*37
$GPRMC,155826,A,4714.3412,N,00131.5676,W,0.0,111.5,260616,2.5,W,A*13
$GPRMB,A,,,,,,,,,,,,V,A*1C
$GPGGA,155826,4714.3412,N,00131.5676,W,1,11,2.9,43.4,M,48.5,M,,*6F
$GPGSA,A,3,04,07,08,10,16,18,20,21,26,27,39,,3.8,2.9,2.4*3A
$GPGSV,3,1,11,04,07,230,00,07,15,321,00,08,27,284,00,10,32,144,00*78
$GPGLL,4714.3412,N,00131.5676,W,155826,A,A*5B
$GPBOD,,T,,M,,*47
$GPVTG,111.5,T,114.0,M,0.0,N,0.0,K*4E
$GPRTE,1,1,c,*37
$GPRMC,155828,A,4714.3412,N,00131.5676,W,0.0,111.5,260616,2.5,W,A*1D
$GPRMB,A,,,,,,,,,,,,V,A*1C
$GPGGA,155828,4714.3412,N,00131.5676,W,1,11,2.9,43.4,M,48.5,M,,*61
$GPGSA,A,3,04,07,08,10,16,18,20,21,26,27,39,,3.8,2.9,2.4*3A
$GPGSV,3,2,11,16,78,226,00,18,41,097,00,20,15,041,00,21,43,057,00*71
$GPGLL,4714.3412,N,00131.5676,W,155828,A,A*55
$GPBOD,,T,,M,,*47
$GPVTG,111.5,T,114.0,M,0.0,N,0.0,K*4E
$GPRTE,1,1,c,*37
$GPRMC,155830,A,4714.3412,N,00131.5676,W,0.0,111.5,260616,2.5,W,A*14
$GPRMB,A,,,,,,,,,,,,V,A*1C
$GPGGA,155830,4714.3412,N,00131.5676,W,1,11,2.9,43.4,M,48.5,M,,*68
$GPGSA,A,3,04,07,08,10,16,18,20,21,26,27,39,,3.8,2.9,2.4*3A
$GPGSV,3,3,11,26,53,166,00,27,61,298,00,39,65,090,00*4B
$GPGLL,4714.3412,N,00131.5676,W,155830,A,A*5C
$GPBOD,,T,,M,,*47
$GPVTG,111.5,T,114.0,M,0.0,N,0.0,K*4E
$GPRTE,1,1,c,*37
$GPRMC,155832,A,4714.3412,N,00131.5676,W,0.0,111.5,260616,2.5,W,A*16
$GPRMB,A,,,,,,,,,,,,V,A*1C
$GPGGA,155832,4714.3412,N,00131.5676,W,1,11,2.9,43.4,M,48.5,M,,*6A
$GPGSA,A,3,04,07,08,10,16,18,20,21,26,27,39,,3.8,2.9,2.4*3A
$GPGSV,3,1,11,04,07,230,00,07,15,321,00,08,27,284,00,10,32,144,00*78
$GPGLL,4714.3412,N,00131.5676,W,155832,A,A*5E
$GPBOD,,T,,M,,*47
$GPVTG,111.5,T,114.0,M,0.0,N,0.0,K*4E
$GPRTE,1,1,c,*37
$GPRMC,155834,A,4714.3412,N,00131.5676,W,0.0,111.5,260616,2.5,W,A*10
$GPRMB,A,,,,,,,,,,,,V,A*1C
$GPGGA,155834,4714.3412,N,00131.5676,W,1,11,4.8,43.4,M,48.5,M,,*6B
$GPGSA,A,3,04,07,08,10,16,18,20,21,26,27,39,,6.9,4.8,5.0*3A
$GPGSV,3,2,11,16,78,226,00,18,41,097,00,20,15,041,00,21,43,057,00*71
$GPGLL,4714.3412,N,00131.5676,W,155834,A,A*58
$GPBOD,,T,,M,,*47
$GPVTG,111.5,T,114.0,M,0.0,N,0.0,K*4E
$GPRTE,1,1,c,*37
$GPRMC,155836,A,4714.3412,N,00131.5676,W,0.0,111.5,260616,2.5,W,A*12
$GPRMB,A,,,,,,,,,,,,V,A*1C
$GPGGA,155836,4714.3412,N,00131.5676,W,1,11,4.8,43.4,M,48.5,M,,*69
$GPGSA,A,3,04,07,08,10,16,18,20,21,26,27,39,,6.9,4.8,5.0*3A
$GPGSV,3,3,11,26,53,166,00,27,61,298,00,39,65,090,00*4B
$GPGLL,4714.3412,N,00131.5676,W,155836,A,A*5A
$GPBOD,,T,,M,,*47
$GPVTG,111.5,T,114.0,M,0.0,N,0.0,K*4E
$GPRTE,1,1,c,*37
$GPRMC,155838,A,4714.3412,N,00131.5676,W,0.0,111.5,260616,2.5,W,A*1C
$GPRMB,A,,,,,,,,,,,,V,A*1C
$GPGGA,155838,4714.3412,N,00131.5676,W,1,11,4.8,43.4,M,48.5,M,,*67
$GPGSA,A,3,04,07,08,10,16,18,20,21,26,27,39,,6.9,4.8,5.0*3A
$GPGSV,3,1,11,04,07,230,00,07,15,321,00,08,27,284,00,10,32,144,00*78
$GPGLL,4714.3412,N,00131.5676,W,155838,A,A*54
$GPBOD,,T,,M,,*47
$GPVTG,111.5,T,114.0,M,0.0,N,0.0,K*4E
$GPRTE,1,1,c,*37
$GPRMC,155840,A,4714.3412,N,00131.5676,W,0.0,111.5,260616,2.5,W,A*13
$GPRMB,A,,,,,,,,,,,,V,A*1C
$GPGGA,155840,4714.3412,N,00131.5676,W,1,11,4.8,43.4,M,48.5,M,,*68
$GPGSA,A,3,04,07,08,10,16,18,20,21,26,27,39,,6.9,4.8,5.0*3A
$GPGSV,3,2,11,16,78,226,00,18,41,097,00,20,15,041,00,21,43,057,00*71
$GPGLL,4714.3412,N,00131.5676,W,155840,A,A*5B
$GPBOD,,T,,M,,*47
$GPVTG,111.5,T,114.0,M,0.0,N,0.0,K*4E
$GPRTE,1,1,c,*37
$GPRMC,155842,A,4714.3412,N,00131.5676,W,0.0,111.5,260616,2.5,W,A*11
$GPRMB,A,,,,,,,,,,,,V,A*1C
$GPGGA,155842,4714.3412,N,00131.5676,W,1,11,4.8,43.4,M,48.5,M,,*6A
$GPGSA,A,3,04,07,08,10,16,18,20,21,26,27,39,,6.9,4.8,5.0*3A
$GPGSV,3,3,11,26,53,166,00,27,61,298,00,39,65,090,00*4B
$GPGLL,4714.3412,N,00131.5676,W,155842,A,A*59
$GPBOD,,T,,M,,*47
$GPVTG,111.5,T,114.0,M,0.0,N,0.0,K*4E
$GPRTE,1,1,c,*37
$GPRMC,155844,A,4714.3412,N,00131.5676,W,0.0,111.5,260616,2.5,W,A*17
$GPRMB,A,,,,,,,,,,,,V,A*1C
$GPGGA,155844,4714.3412,N,00131.5676,W,1,11,4.8,43.4,M,48.5,M,,*6C
$GPGSA,A,3,04,07,08,10,16,18,20,21,26,27,39,,6.9,4.8,4.9*32
$GPGSV,3,1,11,04,07,230,00,07,15,320,00,08,27,285,00,10,32,144,00*78
$GPGLL,4714.3412,N,00131.5676,W,155844,A,A*5F
$GPBOD,,T,,M,,*47
$GPVTG,111.5,T,114.0,M,0.0,N,0.0,K*4E
$GPRTE,1,1,c,*37
$GPRMC,155846,A,4714.3412,N,00131.5676,W,0.0,111.5,260616,2.5,W,A*15
$GPRMB,A,,,,,,,,,,,,V,A*1C
$GPGGA,155846,4714.3412,N,00131.5676,W,1,11,4.8,43.4,M,48.5,M,,*6E
$GPGSA,A,3,04,07,08,10,16,18,20,21,26,27,39,,6.9,4.8,4.9*32
$GPGSV,3,2,11,16,78,226,00,18,41,097,00,20,15,041,00,21,43,057,00*71
$GPGLL,4714.3412,N,00131.5676,W,155846,A,A*5D
$GPBOD,,T,,M,,*47
$GPVTG,111.5,T,114.0,M,0.0,N,0.0,K*4E
$GPRTE,1,1,c,*37
$GPRMC,155848,A,4714.3412,N,00131.5676,W,0.0,111.5,260616,2.5,W,A*1B
$GPRMB,A,,,,,,,,,,,,V,A*1C
$GPGGA,155848,4714.3412,N,00131.5676,W,1,11,4.8,43.4,M,48.5,M,,*60
$GPGSA,A,3,04,07,08,10,16,18,20,21,26,27,39,,6.9,4.8,4.9*32
$GPGSV,3,3,11,26,53,166,00,27,61,298,00,39,65,090,00*4B
$GPGLL,4714.3412,N,00131.5676,W,155848,A,A*53
$GPBOD,,T,,M,,*47
$GPVTG,111.5,T,114.0,M,0.0,N,0.0,K*4E
$GPRTE,1,1,c,*37
$GPRMC,155850,A,4714.3412,N,00131.5676,W,0.0,111.5,260616,2.5,W,A*12
$GPRMB,A,,,,,,,,,,,,V,A*1C
$GPGGA,155850,4714.3412,N,00131.5676,W,1,11,4.8,43.4,M,48.5,M,,*69
$GPGSA,A,3,04,07,08,10,16,18,20,21,26,27,39,,6.9,4.8,4.9*32
$GPGSV,3,1,11,04,07,230,00,07,15,320,00,08,27,285,00,10,32,143,00*7F
$GPGLL,4714.3412,N,00131.5676,W,155850,A,A*5A
$GPBOD,,T,,M,,*47
$GPVTG,111.5,T,114.0,M,0.0,N,0.0,K*4E
$GPRTE,1,1,c,*37
$GPRMC,155852,A,4714.3412,N,00131.5676,W,0.0,111.5,260616,2.5,W,A*10
$GPRMB,A,,,,,,,,,,,,V,A*1C
$GPGGA,155852,4714.3412,N,00131.5676,W,1,11,4.8,43.4,M,48.5,M,,*6B
$GPGSA,A,3,04,07,08,10,16,18,20,21,26,27,39,,6.9,4.8,4.9*32
$GPGSV,3,2,11,16,78,226,00,18,41,097,00,20,15,041,00,21,43,057,00*71
$GPGLL,4714.3412,N,00131.5676,W,155852,A,A*58
$GPBOD,,T,,M,,*47
$GPVTG,111.5,T,114.0,M,0.0,N,0.0,K*4E
$GPRTE,1,1,c,*37
$GPRMC,155854,A,4714.3405,N,00131.5673,W,0.0,111.5,260616,2.5,W,A*15
$GPRMB,A,,,,,,,,,,,,V,A*1C
$GPGGA,155854,4714.3405,N,00131.5673,W,1,11,4.8,40.9,M,48.5,M,,*60
$GPGSA,A,3,04,07,08,10,16,18,20,21,26,27,39,,6.9,4.8,4.9*32
$GPGSV,3,3,11,26,53,166,00,27,61,298,00,39,65,090,00*4B
$GPGLL,4714.3405,N,00131.5673,W,155854,A,A*5D
$GPBOD,,T,,M,,*47
$GPVTG,111.5,T,114.0,M,0.0,N,0.0,K*4E
$GPRTE,1,1,c,*37
$GPRMC,155856,A,4714.3403,N,00131.5671,W,0.0,111.5,260616,2.5,W,A*13
$GPRMB,A,,,,,,,,,,,,V,A*1C
$GPGGA,155856,4714.3403,N,00131.5671,W,1,11,4.8,40.3,M,48.5,M,,*6C
$GPGSA,A,3,04,07,08,10,16,18,20,21,26,27,39,,6.9,4.8,4.9*32
$GPGSV,3,1,11,04,07,230,00,07,15,320,00,08,27,285,00,10,32,143,00*7F
$GPGLL,4714.3403,N,00131.5671,W,155856,A,A*5B
$GPBOD,,T,,M,,*47
$GPVTG,111.5,T,114.0,M,0.0,N,0.0,K*4E
$GPRTE,1,1,c,*37
$GPRMC,155858,A,4714.3403,N,00131.5671,W,0.0,111.5,260616,2.5,W,A*1D
$GPRMB,A,,,,,,,,,,,,V,A*1C
$GPGGA,155858,4714.3403,N,00131.5671,W,1,11,4.8,40.3,M,48.5,M,,*62
$GPGSA,A,3,04,07,08,10,16,18,20,21,26,27,39,,6.9,4.8,4.9*32
$GPGSV,3,2,11,16,78,224,00,18,41,097,00,20,15,041,00,21,44,058,00*7B
$GPGLL,4714.3403,N,00131.5671,W,155858,A,A*55
$GPBOD,,T,,M,,*47
$GPVTG,111.5,T,114.0,M,0.0,N,0.0,K*4E
$GPRTE,1,1,c,*37
$GPRMC,155900,A,4714.3403,N,00131.5671,W,0.0,111.5,260616,2.5,W,A*11
$GPRMB,A,,,,,,,,,,,,V,A*1C
$GPGGA,155900,4714.3403,N,00131.5671,W,1,11,2.9,40.3,M,48.5,M,,*69
$GPGSA,A,3,04,07,08,10,16,18,20,21,26,27,39,,3.8,2.9,2.4*3A
$GPGSV,3,3,11,26,53,166,00,27,61,298,00,39,65,090,00*4B
$GPGLL,4714.3403,N,00131.5671,W,155900,A,A*59
$GPBOD,,T,,M,,*47
$GPVTG,111.5,T,114.0,M,0.0,N,0.0,K*4E
$GPRTE,1,1,c,*37
$GPRMC,155902,A,4714.3403,N,00131.5671,W,0.0,111.5,260616,2.5,W,A*13
$GPRMB,A,,,,,,,,,,,,V,A*1C
$GPGGA,155902,4714.3403,N,00131.5671,W,1,11,2.9,40.3,M,48.5,M,,*6B
$GPGSA,A,3,04,07,08,10,16,18,20,21,26,27,39,,3.8,2.9,2.4*3A
$GPGSV,3,1,11,04,07,230,00,07,15,320,00,08,27,285,00,10,32,143,00*7F
$GPGLL,4714.3403,N,00131.5671,W,155902,A,A*5B
$GPBOD,,T,,M,,*47
$GPVTG,111.5,T,114.0,M,0.0,N,0.0,K*4E
$GPRTE,1,1,c,*37
$GPRMC,155904,A,4714.3403,N,00131.5671,W,0.0,111.5,260616,2.5,W,A*15
$GPRMB,A,,,,,,,,,,,,V,A*1C
$GPGGA,155904,4714.3403,N,00131.5671,W,1,11,4.8,40.3,M,48.5,M,,*6A
$GPGSA,A,3,04,07,08,10,16,18,20,21,26,27,39,,6.9,4.8,4.9*32
$GPGSV,3,2,11,16,78,224,00,18,41,097,00,20,15,041,00,21,43,057,00*73
$GPGLL,4714.3403,N,00131.5671,W,155904,A,A*5D
$GPBOD,,T,,M,,*47
$GPVTG,111.5,T,114.0,M,0.0,N,0.0,K*4E
$GPRTE,1,1,c,*37
$GPRMC,155906,A,4714.3403,N,00131.5671,W,0.0,111.5,260616,2.5,W,A*17
$GPRMB,A,,,,,,,,,,,,V,A*1C
$GPGGA,155906,4714.3403,N,00131.5671,W,1,11,4.8,40.3,M,48.5,M,,*68
$GPGSA,A,3,04,07,08,10,16,18,20,21,26,27,39,,6.9,4.8,4.9*32
$GPGSV,3,3,11,26,53,166,00,27,61,298,00,39,65,090,00*4B
$GPGLL,4714.3403,N,00131.5671,W,155906,A,A*5F
$GPBOD,,T,,M,,*47
$GPVTG,111.5,T,114.0,M,0.0,N,0.0,K*4E
$GPRTE,1,1,c,*37
$GPRMC,155908,A,4714.3403,N,00131.5671,W,0.0,111.5,260616,2.5,W,A*19
$GPRMB,A,,,,,,,,,,,,V,A*1C
$GPGGA,155908,4714.3403,N,00131.5671,W,1,11,4.8,40.3,M,48.5,M,,*66
$GPGSA,A,3,04,07,08,10,16,18,20,21,26,27,39,,6.9,4.8,4.9*32
$GPGSV,3,1,11,04,07,230,00,07,15,320,00,08,27,285,00,10,32,143,00*7F
$GPGLL,4714.3403,N,00131.5671,W,155908,A,A*51
$GPBOD,,T,,M,,*47
$GPVTG,111.5,T,114.0,M,0.0,N,0.0,K*4E
$GPRTE,1,1,c,*37
$GPRMC,155910,A,4714.3403,N,00131.5671,W,0.0,111.5,260616,2.5,W,A*10
$GPRMB,A,,,,,,,,,,,,V,A*1C
$GPGGA,155910,4714.3403,N,00131.5671,W,1,11,3.0,40.3,M,48.5,M,,*60
$GPGSA,A,3,04,07,08,10,16,18,20,21,26,27,39,,3.8,3.0,2.4*32
$GPGSV,3,2,11,16,78,224,00,18,41,097,00,20,15,041,00,21,43,057,00*73
$GPGLL,4714.3403,N,00131.5671,W,155910,A,A*58
$GPBOD,,T,,M,,*47
$GPVTG,111.5,T,114.0,M,0.0,N,0.0,K*4E
$GPRTE,1,1,c,*37
$GPRMC,155912,A,4714.3403,N,00131.5671,W,0.0,111.5,260616,2.5,W,A*12
$GPRMB,A,,,,,,,,,,,,V,A*1C
$GPGGA,155912,4714.3403,N,00131.5671,W,1,11,3.0,40.3,M,48.5,M,,*62
$GPGSA,A,3,04,07,08,10,16,18,20,21,26,27,39,,3.8,3.0,2.4*32
$GPGSV,3,3,11,26,53,166,00,27,61,298,00,39,65,090,00*4B
$GPGLL,4714.3403,N,00131.5671,W,155912,A,A*5A
$GPBOD,,T,,M,,*47
$GPVTG,111.5,T,114.0,M,0.0,N,0.0,K*4E
$GPRTE,1,1,c,*37
$GPRMC,155914,A,4714.3403,N,00131.5671,W,0.0,111.5,260616,2.5,W,A*14
$GPRMB,A,,,,,,,,,,,,V,A*1C
$GPGGA,155914,4714.3403,N,00131.5671,W,1,11,3.0,40.3,M,48.5,M,,*64
$GPGSA,A,3,04,07,08,10,16,18,20,21,26,27,39,,3.8,3.0,2.4*32
$GPGSV,3,1,11,04,07,230,00,07,15,320,00,08,27,285,00,10,32,143,00*7F
$GPGLL,4714.3403,N,00131.5671,W,155914,A,A*5C
$GPBOD,,T,,M,,*47
$GPVTG,111.5,T,114.0,M,0.0,N,0.0,K*4E
$GPRTE,1,1,c,*37
$GPRMC,155916,A,4714.3403,N,00131.5671,W,0.0,111.5,260616,2.5,W,A*16
$GPRMB,A,,,,,,,,,,,,V,A*1C
$GPGGA,155916,4714.3403,N,00131.5671,W,1,11,3.0,40.3,M,48.5,M,,*66
$GPGSA,A,3,04,07,08,10,16,18,20,21,26,27,39,,3.8,3.0,2.4*32
$GPGSV,3,2,11,16,78,224,00,18,41,097,00,20,15,041,00,21,43,057,00*73
$GPGLL,4714.3403,N,00131.5671,W,155916,A,A*5E
$GPBOD,,T,,M,,*47
$GPVTG,111.5,T,114.0,M,0.0,N,0.0,K*4E
$GPRTE,1,1,c,*37
$GPRMC,155918,A,4714.3403,N,00131.5671,W,0.0,111.5,260616,2.5,W,A*18
$GPRMB,A,,,,,,,,,,,,V,A*1C
$GPGGA,155918,4714.3403,N,00131.5671,W,1,11,3.0,40.3,M,48.5,M,,*68
$GPGSA,A,3,04,07,08,10,16,18,20,21,26,27,39,,3.8,3.0,2.4*32
$GPGSV,3,3,11,26,52,166,00,27,61,298,00,39,65,090,00*4A
$GPGLL,4714.3403,N,00131.5671,W,155918,A,A*50
$GPBOD,,T,,M,,*47
$GPVTG,111.5,T,114.0,M,0.0,N,0.0,K*4E
$GPRTE,1,1,c,*37
$GPRMC,155920,A,4714.3403,N,00131.5671,W,0.0,111.5,260616,2.5,W,A*13
$GPRMB,A,,,,,,,,,,,,V,A*1C
$GPGGA,155920,4714.3403,N,00131.5671,W,1,11,3.0,40.3,M,48.5,M,,*63
$GPGSA,A,3,04,07,08,10,16,18,20,21,26,27,37,,3.8,3.0,2.4*3C
$GPGSV,3,1,11,04,07,230,00,07,15,320,00,08,27,285,00,10,32,143,00*7F
$GPGLL,4714.3403,N,00131.5671,W,155920,A,A*5B
$GPBOD,,T,,M,,*47
$GPVTG,111.5,T,114.0,M,0.0,N,0.0,K*4E
$GPRTE,1,1,c,*37
$GPRMC,155922,A,4714.3403,N,00131.5671,W,0.0,111.5,260616,2.5,W,A*11
$GPRMB,A,,,,,,,,,,,,V,A*1C
$GPGGA,155922,4714.3403,N,00131.5671,W,1,11,4.8,40.3,M,48.5,M,,*6E
$GPGSA,A,3,04,07,08,10,16,18,20,21,26,27,37,,6.9,4.8,4.9*3C
$GPGSV,3,2,11,16,78,224,00,18,41,097,00,20,15,041,00,21,43,057,00*73
$GPGLL,4714.3403,N,00131.5671,W,155922,A,A*59
$GPBOD,,T,,M,,*47
$GPVTG,111.5,T,114.0,M,0.0,N,0.0,K*4E
$GPRTE,1,1,c,*37
$GPRMC,155924,A,4714.3403,N,00131.5671,W,0.0,111.5,260616,2.5,W,A*17
$GPRMB,A,,,,,,,,,,,,V,A*1C
$GPGGA,155924,4714.3403,N,00131.5671,W,1,11,3.0,40.3,M,48.5,M,,*67
$GPGSA,A,3,04,07,08,10,16,18,20,21,26,27,37,,3.8,3.0,2.4*3C
$GPGSV,3,3,11,26,52,166,00,27,61,299,00,37,65,090,00*45
$GPGLL,4714.3403,N,00131.5671,W,155924,A,A*5F
$GPBOD,,T,,M,,*47
$GPVTG,111.5,T,114.0,M,0.0,N,0.0,K*4E
$GPRTE,1,1,c,*37
$GPRMC,155926,A,4714.3403,N,00131.5671,W,0.0,111.5,260616,2.5,W,A*15
$GPRMB,A,,,,,,,,,,,,V,A*1C
$GPGGA,155926,4714.3403,N,00131.5671,W,1,11,3.0,40.3,M,48.5,M,,*65
$GPGSA,A,3,04,07,08,10,16,18,20,21,26,27,37,,3.8,3.0,2.4*3C
$GPGSV,3,1,11,04,07,230,00,07,15,320,00,08,27,285,00,10,32,143,00*7F
$GPGLL,4714.3403,N,00131.5671,W,155926,A,A*5D
$GPBOD,,T,,M,,*47
$GPVTG,111.5,T,114.0,M,0.0,N,0.0,K*4E
$GPRTE,1,1,c,*37
$GPRMC,155928,A,4714.3403,N,00131.5671,W,0.0,111.5,260616,2.5,W,A*1B
$GPRMB,A,,,,,,,,,,,,V,A*1C
$GPGGA,155928,4714.3403,N,00131.5671,W,1,11,3.0,40.3,M,48.5,M,,*6B
$GPGSA,A,3,04,07,08,10,16,18,20,21,26,27,37,,3.8,3.0,2.4*3C
$GPGSV,3,2,11,16,78,224,00,18,41,097,00,20,14,040,00,21,43,057,00*73
$GPGLL,4714.3403,N,00131.5671,W,155928,A,A*53
$GPBOD,,T,,M,,*47
$GPVTG,111.5,T,114.0,M,0.0,N,0.0,K*4E
$GPRTE,1,1,c,*37
$GPRMC,155930,A,4714.3403,N,00131.5671,W,0.0,111.5,260616,2.5,W,A*12
$GPRMB,A,,,,,,,,,,,,V,A*1C
$GPGGA,155930,4714.3403,N,00131.5671,W,1,11,3.0,40.3,M,48.5,M,,*62
$GPGSA,A,3,04,07,08,10,16,18,20,21,26,27,37,,3.8,3.0,2.4*3C
$GPGSV,3,3,11,26,52,166,00,27,61,299,00,37,65,090,00*45
$GPGLL,4714.3403,N,00131.5671,W,155930,A,A*5A
$GPBOD,,T,,M,,*47
$GPVTG,111.5,T,114.0,M,0.0,N,0.0,K*4E
$GPRTE,1,1,c,*37
$GPRMC,155932,A,4714.3403,N,00131.5671,W,0.0,111.5,260616,2.5,W,A*10
$GPRMB,A,,,,,,,,,,,,V,A*1C
$GPGGA,155932,4714.3403,N,00131.5671,W,1,11,3.0,40.3,M,48.5,M,,*60
$GPGSA,A,3,04,07,08,10,16,18,20,21,26,27,37,,3.8,3.0,2.4*3C
$GPGSV,3,1,11,04,07,230,00,07,15,320,00,08,27,285,00,10,32,143,00*7F
$GPGLL,4714.3403,N,00131.5671,W,155932,A,A*58
$GPBOD,,T,,M,,*47
$GPVTG,111.5,T,114.0,M,0.0,N,0.0,K*4E
$GPRTE,1,1,c,*37
$GPRMC,155934,A,4714.3403,N,00131.5671,W,0.0,111.5,260616,2.5,W,A*16
$GPRMB,A,,,,,,,,,,,,V,A*1C
$GPGGA,155934,4714.3403,N,00131.5671,W,1,11,3.0,40.3,M,48.5,M,,*66
$GPGSA,A,3,04,07,08,10,16,18,20,21,26,27,37,,3.8,3.0,2.4*3C
$GPGSV,3,2,11,16,78,224,00,18,41,097,00,20,14,040,00,21,43,057,00*73
$GPGLL,4714.3403,N,00131.5671,W,155934,A,A*5E
$GPBOD,,T,,M,,*47
$GPVTG,111.5,T,114.0,M,0.0,N,0.0,K*4E
$GPRTE,1,1,c,*37
$GPRMC,155936,A,4714.3403,N,00131.5665,W,0.0,111.5,260616,2.5,W,A*11
$GPRMB,A,,,,,,,,,,,,V,A*1C
$GPGGA,155936,4714.3403,N,00131.5665,W,1,11,4.8,40.3,M,48.5,M,,*6E
$GPGSA,A,3,04,07,08,10,16,18,20,21,26,27,37,,6.9,4.8,4.9*3C
$GPGSV,3,3,11,26,52,166,00,27,61,299,00,37,65,090,00*45
$GPGLL,4714.3403,N,00131.5665,W,155936,A,A*59
$GPBOD,,T,,M,,*47
$GPVTG,111.5,T,114.0,M,0.0,N,0.0,K*4E
$GPRTE,1,1,c,*37
$GPRMC,155938,A,4714.3403,N,00131.5665,W,0.0,111.5,260616,2.5,W,A*1F
$GPRMB,A,,,,,,,,,,,,V,A*1C
$GPGGA,155938,4714.3403,N,00131.5665,W,1,11,4.8,40.3,M,48.5,M,,*60
$GPGSA,A,3,04,07,08,10,16,18,20,21,26,27,37,,6.9,4.8,4.9*3C
$GPGSV,3,1,11,04,07,230,00,07,15,320,00,08,27,285,00,10,32,143,00*7F
$GPGLL,4714.3403,N,00131.5665,W,155938,A,A*57
$GPBOD,,T,,M,,*47
$GPVTG,111.5,T,114.0,M,0.0,N,0.0,K*4E
$GPRTE,1,1,c,*37
$GPRMC,155940,A,4714.3403,N,00131.5665,W,0.0,111.5,260616,2.5,W,A*10
$GPRMB,A,,,,,,,,,,,,V,A*1C
$GPGGA,155940,4714.3403,N,00131.5665,W,1,11,4.8,40.3,M,48.5,M,,*6F
$GPGSA,A,3,04,07,08,10,16,18,20,21,26,27,37,,6.9,4.8,4.9*3C
$GPGSV,3,2,11,16,78,224,00,18,41,097,00,20,14,040,00,21,43,057,00*73
$GPGLL,4714.3403,N,00131.5665,W,155940,A,A*58
$GPBOD,,T,,M,,*47
$GPVTG,111.5,T,114.0,M,0.0,N,0.0,K*4E
$GPRTE,1,1,c,*37
$GPRMC,155942,A,4714.3403,N,00131.5665,W,0.0,111.5,260616,2.5,W,A*12
$GPRMB,A,,,,,,,,,,,,V,A*1C
$GPGGA,155942,4714.3403,N,00131.5665,W,1,11,4.8,40.3,M,48.5,M,,*6D
$GPGSA,A,3,04,07,08,10,16,18,20,21,26,27,37,,6.9,4.8,4.9*3C
$GPGSV,3,3,11,26,52,166,00,27,61,299,00,37,65,090,00*45
$GPGLL,4714.3403,N,00131.5665,W,155942,A,A*5A
$GPBOD,,T,,M,,*47
$GPVTG,111.5,T,114.0,M,0.0,N,0.0,K*4E
$GPRTE,1,1,c,*37
$GPRMC,155944,A,4714.3403,N,00131.5665,W,0.0,111.5,260616,2.5,W,A*14
$GPRMB,A,,,,,,,,,,,,V,A*1C
$GPGGA,155944,4714.3403,N,00131.5665,W,1,11,4.8,40.3,M,48.5,M,,*6B
$GPGSA,A,3,04,07,08,10,16,18,20,21,26,27,37,,6.9,4.8,4.9*3C
$GPGSV,3,1,11,04,07,230,00,07,15,320,00,08,27,285,00,10,32,143,00*7F
$GPGLL,4714.3403,N,00131.5665,W,155944,A,A*5C
$GPBOD,,T,,M,,*47
$GPVTG,111.5,T,114.0,M,0.0,N,0.0,K*4E
$GPRTE,1,1,c,*37
$GPRMC,155946,A,4714.3403,N,00131.5665,W,0.0,111.5,260616,2.5,W,A*16
$GPRMB,A,,,,,,,,,,,,V,A*1C
$GPGGA,155946,4714.3403,N,00131.5665,W,1,11,3.0,40.3,M,48.5,M,,*66
$GPGSA,A,3,04,07,08,10,16,18,20,21,26,27,37,,3.8,3.0,2.4*3C
$GPGSV,3,2,11,16,78,224,00,18,41,097,00,20,14,040,00,21,43,057,00*73
$GPGLL,4714.3403,N,00131.5665,W,155946,A,A*5E
$GPBOD,,T,,M,,*47
$GPVTG,111.5,T,114.0,M,0.0,N,0.0,K*4E
$GPRTE,1,1,c,*37
$GPRMC,155948,A,4714.3403,N,00131.5665,W,0.0,111.5,260616,2.5,W,A*18
$GPRMB,A,,,,,,,,,,,,V,A*1C
$GPGGA,155948,4714.3403,N,00131.5665,W,1,11,3.0,40.3,M,48.5,M,,*68
$GPGSA,A,3,04,07,08,10,16,18,20,21,26,27,37,,3.8,3.0,2.4*3C
$GPGSV,3,3,11,26,52,166,00,27,61,299,00,37,65,090,00*45
$GPGLL,4714.3403,N,00131.5665,W,155948,A,A*50
$GPBOD,,T,,M,,*47
$GPVTG,111.5,T,114.0,M,0.0,N,0.0,K*4E
$GPRTE,1,1,c,*37
$GPRMC,155950,A,4714.3403,N,00131.5665,W,0.0,111.5,260616,2.5,W,A*11
$GPRMB,A,,,,,,,,,,,,V,A*1C
$GPGGA,155950,4714.3403,N,00131.5665,W,1,11,3.0,40.3,M,48.5,M,,*61
$GPGSA,A,3,04,07,08,10,16,18,20,21,26,27,37,,3.8,3.0,2.4*3C
$GPGSV,3,1,11,04,07,230,00,07,15,320,00,08,27,285,00,10,33,143,00*7E
$GPGLL,4714.3403,N,00131.5665,W,155950,A,A*59
$GPBOD,,T,,M,,*47
$GPVTG,111.5,T,114.0,M,0.0,N,0.0,K*4E
$GPRTE,1,1,c,*37
$GPRMC,155952,A,4714.3403,N,00131.5665,W,0.0,111.5,260616,2.5,W,A*13
$GPRMB,A,,,,,,,,,,,,V,A*1C
$GPGGA,155952,4714.3403,N,00131.5665,W,1,11,3.0,40.3,M,48.5,M,,*63
$GPGSA,A,3,04,07,08,10,16,18,20,21,26,27,37,,3.8,3.0,2.4*3C
$GPGSV,3,2,11,16,78,224,00,18,41,097,00,20,14,040,00,21,43,057,00*73
$GPGLL,4714.3403,N,00131.5665,W,155952,A,A*5B
$GPBOD,,T,,M,,*47
$GPVTG,111.5,T,114.0,M,0.0,N,0.0,K*4E
$GPRTE,1,1,c,*37
$GPRMC,155954,A,4714.3403,N,00131.5665,W,0.0,111.5,260616,2.5,W,A*15
$GPRMB,A,,,,,,,,,,,,V,A*1C
$GPGGA,155954,4714.3403,N,00131.5665,W,1,11,3.0,40.3,M,48.5,M,,*65
$GPGSA,A,3,04,07,08,10,16,18,20,21,26,27,37,,3.8,3.0,2.4*3C
$GPGSV,3,3,11,26,52,166,00,27,61,299,00,37,65,090,00*45
$GPGLL,4714.3403,N,00131.5665,W,155954,A,A*5D
$GPBOD,,T,,M,,*47
$GPVTG,111.5,T,114.0,M,0.0,N,0.0,K*4E
$GPRTE,1,1,c,*37
$GPRMC,155956,A,4714.3403,N,00131.5665,W,0.0,111.5,260616,2.5,W,A*17
$GPRMB,A,,,,,,,,,,,,V,A*1C
$GPGGA,155956,4714.3403,N,00131.5665,W,1,11,3.0,40.3,M,48.5,M,,*67
$GPGSA,A,3,04,07,08,10,16,18,20,21,26,27,37,,3.8,3.0,2.4*3C
$GPGSV,3,1,11,04,07,230,00,07,15,320,00,08,27,285,00,10,33,143,00*7E
$GPGLL,4714.3403,N,00131.5665,W,155956,A,A*5F
$GPBOD,,T,,M,,*47
$GPVTG,111.5,T,114.0,M,0.0,N,0.0,K*4E
$GPRTE,1,1,c,*37
$GPRMC,155958,A,4714.3403,N,00131.5665,W,0.0,111.5,260616,2.5,W,A*19
$GPRMB,A,,,,,,,,,,,,V,A*1C
$GPGGA,155958,4714.3403,N,00131.5665,W,1,11,3.0,40.3,M,48.5,M,,*69
$GPGSA,A,3,04,07,08,10,16,18,20,21,26,27,37,,3.8,3.0,2.4*3C
$GPGSV,3,2,11,16,78,224,00,18,41,097,00,20,14,040,00,21,43,057,00*73
$GPGLL,4714.3403,N,00131.5665,W,155958,A,A*51
$GPBOD,,T,,M,,*47
$GPVTG,111.5,T,114.0,M,0.0,N,0.0,K*4E
$GPRTE,1,1,c,*37
$GPRMC,160000,A,4714.3403,N,00131.5665,W,0.0,111.5,260616,2.5,W,A*1B
$GPRMB,A,,,,,,,,,,,,V,A*1C
$GPGGA,160000,4714.3403,N,00131.5665,W,1,11,3.0,40.3,M,48.5,M,,*6B
$GPGSA,A,3,04,07,08,10,16,18,20,21,26,27,37,,3.9,3.0,2.4*3D
$GPGSV,3,3,11,26,52,166,00,27,61,299,00,37,65,090,00*45
$GPGLL,4714.3403,N,00131.5665,W,160000,A,A*53
$GPBOD,,T,,M,,*47
$GPVTG,111.5,T,114.0,M,0.0,N,0.0,K*4E
$GPRTE,1,1,c,*37
$GPRMC,160002,A,4714.3403,N,00131.5665,W,0.0,111.5,260616,2.5,W,A*19
$GPRMB,A,,,,,,,,,,,,V,A*1C
$GPGGA,160002,4714.3403,N,00131.5665,W,1,11,3.0,40.3,M,48.5,M,,*69
$GPGSA,A,3,04,07,08,10,16,18,20,21,26,27,37,,3.9,3.0,2.4*3D
$GPGSV,3,1,11,04,07,230,00,07,15,320,00,08,27,285,00,10,33,143,00*7E
$GPGLL,4714.3403,N,00131.5665,W,160002,A,A*51
$GPBOD,,T,,M,,*47
$GPVTG,111.5,T,114.0,M,0.0,N,0.0,K*4E
$GPRTE,1,1,c,*37
$GPRMC,160004,A,4714.3403,N,00131.5665,W,0.0,111.5,260616,2.5,W,A*1F
$GPRMB,A,,,,,,,,,,,,V,A*1C
$GPGGA,160004,4714.3403,N,00131.5665,W,1,11,3.0,40.3,M,48.5,M,,*6F
$GPGSA,A,3,04,07,08,10,16,18,20,21,26,27,37,,3.9,3.0,2.4*3D
$GPGSV,3,2,11,16,78,221,00,18,41,097,00,20,14,040,00,21,43,057,00*76
$GPGLL,4714.3403,N,00131.5665,W,160004,A,A*57
$GPBOD,,T,,M,,*47
$GPVTG,111.5,T,114.0,M,0.0,N,0.0,K*4E
$GPRTE,1,1,c,*37
$GPRMC,160006,A,4714.3403,N,00131.5665,W,0.0,111.5,260616,2.5,W,A*1D
$GPRMB,A,,,,,,,,,,,,V,A*1C
$GPGGA,160006,4714.3403,N,00131.5665,W,1,11,3.0,40.3,M,48.5,M,,*6D
$GPGSA,A,3,04,07,08,10,16,18,20,21,26,27,37,,3.9,3.0,2.4*3D
$GPGSV,3,3,11,26,52,166,00,27,61,299,00,37,65,090,00*45
$GPGLL,4714.3403,N,00131.5665,W,160006,A,A*55
$GPBOD,,T,,M,,*47
$GPVTG,111.5,T,114.0,M,0.0,N,0.0,K*4E
$GPRTE,1,1,c,*37
$GPRMC,160008,A,4714.3403,N,00131.5665,W,0.0,111.5,260616,2.5,W,A*13
$GPRMB,A,,,,,,,,,,,,V,A*1C
$GPGGA,160008,4714.3403,N,00131.5665,W,1,11,3.0,40.3,M,48.5,M,,*63
$GPGSA,A,3,04,07,08,10,16,18,20,21,26,27,37,,3.9,3.0,2.4*3D
$GPGSV,3,1,11,04,07,230,00,07,15,320,00,08,27,285,00,10,33,143,00*7E
$GPGLL,4714.3403,N,00131.5665,W,160008,A,A*5B
$GPBOD,,T,,M,,*47
$GPVTG,111.5,T,114.0,M,0.0,N,0.0,K*4E
$GPRTE,1,1,c,*37
$GPRMC,160010,A,4714.3403,N,00131.5665,W,0.0,111.5,260616,2.5,W,A*1A
$GPRMB,A,,,,,,,,,,,,V,A*1C
$GPGGA,160010,4714.3403,N,00131.5665,W,1,11,3.0,40.3,M,48.5,M,,*6A
$GPGSA,A,3,04,07,08,10,16,18,20,21,26,27,37,,3.9,3.0,2.4*3D
$GPGSV,3,2,11,16,78,221,00,18,41,096,00,20,14,040,00,21,43,057,00*77
$GPGLL,4714.3403,N,00131.5665,W,160010,A,A*52
$GPBOD,,T,,M,,*47
$GPVTG,111.5,T,114.0,M,0.0,N,0.0,K*4E
$GPRTE,1,1,c,*37
$GPRMC,160012,A,4714.3403,N,00131.5665,W,0.0,111.5,260616,2.5,W,A*18
$GPRMB,A,,,,,,,,,,,,V,A*1C
$GPGGA,160012,4714.3403,N,00131.5665,W,1,11,3.0,40.3,M,48.5,M,,*68
$GPGSA,A,3,04,07,08,10,16,18,20,21,26,27,37,,3.9,3.0,2.4*3D
$GPGSV,3,3,11,26,52,166,00,27,61,299,00,37,65,090,00*45
$GPGLL,4714.3403,N,00131.5665,W,160012,A,A*50
$GPBOD,,T,,M,,*47
$GPVTG,111.5,T,114.0,M,0.0,N,0.0,K*4E
$GPRTE,1,1,c,*37
$GPRMC,160014,A,4714.3403,N,00131.5665,W,0.0,111.5,260616,2.5,W,A*1E
$GPRMB,A,,,,,,,,,,,,V,A*1C
$GPGGA,160014,4714.3403,N,00131.5665,W,1,11,3.0,40.3,M,48.5,M,,*6E
$GPGSA,A,3,04,07,08,10,16,18,20,21,26,27,37,,3.9,3.0,2.4*3D
$GPGSV,3,1,11,04,07,230,00,07,15,320,00,08,27,285,00,10,33,143,00*7E
$GPGLL,4714.3403,N,00131.5665,W,160014,A,A*56
$GPBOD,,T,,M,,*47
$GPVTG,111.5,T,114.0,M,0.0,N,0.0,K*4E
$GPRTE,1,1,c,*37
$GPRMC,160016,A,4714.3407,N,00131.5668,W,0.0,111.5,260616,2.5,W,A*15
$GPRMB,A,,,,,,,,,,,,V,A*1C
$GPGGA,160016,4714.3407,N,00131.5668,W,1,11,3.0,40.9,M,48.5,M,,*6F
$GPGSA,A,3,04,07,08,10,16,18,20,21,26,27,37,,3.9,3.0,2.4*3D
$GPGSV,3,2,11,16,78,221,00,18,41,096,00,20,14,040,00,21,42,057,00*76
$GPGLL,4714.3407,N,00131.5668,W,160016,A,A*5D
$GPBOD,,T,,M,,*47
$GPVTG,111.5,T,114.0,M,0.0,N,0.0,K*4E
$GPRTE,1,1,c,*37
$GPRMC,160018,A,4714.3407,N,00131.5668,W,0.0,111.5,260616,2.5,W,A*1B
$GPRMB,A,,,,,,,,,,,,V,A*1C
$GPGGA,160018,4714.3407,N,00131.5668,W,1,11,3.0,40.9,M,48.5,M,,*61
$GPGSA,A,3,04,07,08,10,16,18,20,21,26,27,37,,3.9,3.0,2.4*3D
$GPGSV,3,3,11,26,52,166,00,27,61,299,00,37,65,090,00*45
$GPGLL,4714.3407,N,00131.5668,W,160018,A,A*53
$GPBOD,,T,,M,,*47
$GPVTG,111.5,T,114.0,M,0.0,N,0.0,K*4E
$GPRTE,1,1,c,*37
$GPRMC,160020,A,4714.3407,N,00131.5668,W,0.0,111.5,260616,2.5,W,A*10
$GPRMB,A,,,,,,,,,,,,V,A*1C
$GPGGA,160020,4714.3407,N,00131.5668,W,1,11,3.0,40.9,M,48.5,M,,*6A
$GPGSA,A,3,04,07,08,10,16,18,20,21,26,27,37,,3.9,3.0,2.4*3D
$GPGSV,3,1,11,04,07,230,00,07,15,320,00,08,28,285,00,10,33,143,00*71
$GPGLL,4714.3407,N,00131.5668,W,160020,A,A*58
$GPBOD,,T,,M,,*47
$GPVTG,111.5,T,114.0,M,0.0,N,0.0,K*4E
$GPRTE,1,1,c,*37
$GPRMC,160022,A,4714.3407,N,00131.5668,W,0.0,111.5,260616,2.5,W,A*12
$GPRMB,A,,,,,,,,,,,,V,A*1C
$GPGGA,160022,4714.3407,N,00131.5668,W,1,11,3.0,40.9,M,48.5,M,,*68
$GPGSA,A,3,04,07,08,10,16,18,20,21,26,27,37,,3.9,3.0,2.4*3D
$GPGSV,3,2,11,16,78,221,00,18,41,096,00,20,14,040,00,21,42,057,00*76
$GPGLL,4714.3407,N,00131.5668,W,160022,A,A*5A
$GPBOD,,T,,M,,*47
$GPVTG,111.5,T,114.0,M,0.0,N,0.0,K*4E
$GPRTE,1,1,c,*37
$GPRMC,160024,A,4714.3407,N,00131.5668,W,0.0,111.5,260616,2.5,W,A*14
$GPRMB,A,,,,,,,,,,,,V,A*1C
$GPGGA,160024,4714.3407,N,00131.5668,W,1,11,3.0,40.9,M,48.5,M,,*6E
$GPGSA,A,3,04,07,08,10,16,18,20,21,26,27,37,,3.9,3.0,2.4*3D
$GPGSV,3,3,11,26,52,166,00,27,62,299,00,37,65,090,00*46
$GPGLL,4714.3407,N,00131.5668,W,160024,A,A*5C
$GPBOD,,T,,M,,*47
$GPVTG,111.5,T,114.0,M,0.0,N,0.0,K*4E
$GPRTE,1,1,c,*37
$GPRMC,160026,A,4714.3407,N,00131.5668,W,0.0,111.5,260616,2.5,W,A*16
$GPRMB,A,,,,,,,,,,,,V,A*1C
$GPGGA,160026,4714.3407,N,00131.5668,W,1,11,3.0,40.9,M,48.5,M,,*6C
$GPGSA,A,3,04,07,08,10,16,18,20,21,26,27,37,,3.9,3.0,2.4*3D
$GPGSV,3,1,11,04,07,230,00,07,15,320,00,08,28,285,00,10,33,143,00*71
$GPGLL,4714.3407,N,00131.5668,W,160026,A,A*5E
$GPBOD,,T,,M,,*47
$GPVTG,111.5,T,114.0,M,0.0,N,0.0,K*4E
$GPRTE,1,1,c,*37
$GPRMC,160028,A,4714.3407,N,00131.5668,W,0.0,111.5,260616,2.5,W,A*18
$GPRMB,A,,,,,,,,,,,,V,A*1C
$GPGGA,160028,4714.3407,N,00131.5668,W,1,11,3.0,40.9,M,48.5,M,,*62
$GPGSA,A,3,04,07,08,10,16,18,20,21,26,27,37,,3.9,3.0,2.4*3D
$GPGSV,3,2,11,16,78,221,00,18,41,096,00,20,14,040,00,21,42,057,00*76
$GPGLL,4714.3407,N,00131.5668,W,160028,A,A*50
$GPBOD,,T,,M,,*47
$GPVTG,111.5,T,114.0,M,0.0,N,0.0,K*4E
$GPRTE,1,1,c,*37
$GPRMC,160030,A,4714.3407,N,00131.5668,W,0.0,111.5,260616,2.5,W,A*11
$GPRMB,A,,,,,,,,,,,,V,A*1C
$GPGGA,160030,4714.3407,N,00131.5668,W,1,11,3.0,40.9,M,48.5,M,,*6B
$GPGSA,A,3,04,07,08,10,16,18,20,21,26,27,37,,3.9,3.0,2.4*3D
$GPGSV,3,3,11,26,52,166,00,27,62,299,00,37,65,090,00*46
$GPGLL,4714.3407,N,00131.5668,W,160030,A,A*59
$GPBOD,,T,,M,,*47
$GPVTG,111.5,T,114.0,M,0.0,N,0.0,K*4E
$GPRTE,1,1,c,*37
$GPRMC,160032,A,4714.3407,N,00131.5668,W,0.0,111.5,260616,2.5,W,A*13
$GPRMB,A,,,,,,,,,,,,V,A*1C
$GPGGA,160032,4714.3407,N,00131.5668,W,1,11,3.0,40.9,M,48.5,M,,*69
$GPGSA,A,3,04,07,08,10,16,18,20,21,26,27,37,,3.9,3.0,2.4*3D
$GPGSV,3,1,11,04,08,231,00,07,15,320,00,08,28,285,00,10,33,143,00*7F
$GPGLL,4714.3407,N,00131.5668,W,160032,A,A*5B
$GPBOD,,T,,M,,*47
$GPVTG,111.5,T,114.0,M,0.0,N,0.0,K*4E
$GPRTE,1,1,c,*37
$GPRMC,160034,A,4714.3407,N,00131.5668,W,0.0,111.5,260616,2.5,W,A*15
$GPRMB,A,,,,,,,,,,,,V,A*1C
$GPGGA,160034,4714.3407,N,00131.5668,W,1,11,3.0,40.9,M,48.5,M,,*6F
$GPGSA,A,3,04,07,08,10,16,18,20,21,26,27,34,,3.9,3.0,2.4*3E
$GPGSV,3,2,11,16,78,221,00,18,41,096,00,20,14,040,00,21,42,057,00*76
$GPGLL,4714.3407,N,00131.5668,W,160034,A,A*5D
$GPBOD,,T,,M,,*47
$GPVTG,111.5,T,114.0,M,0.0,N,0.0,K*4E
$GPRTE,1,1,c,*37
$GPRMC,160036,A,4714.3407,N,00131.5668,W,0.0,111.5,260616,2.5,W,A*17
$GPRMB,A,,,,,,,,,,,,V,A*1C
$GPGGA,160036,4714.3407,N,00131.5668,W,1,11,3.0,40.9,M,48.5,M,,*6D
$GPGSA,A,3,04,07,08,10,16,18,20,21,26,27,34,,3.9,3.0,2.4*3E
$GPGSV,3,3,11,26,52,166,00,27,62,299,00,34,65,090,00*45
$GPGLL,4714.3407,N,00131.5668,W,160036,A,A*5F
$GPBOD,,T,,M,,*47
$GPVTG,111.5,T,114.0,M,0.0,N,0.0,K*4E
$GPRTE,1,1,c,*37
$GPRMC,160038,A,4714.3407,N,00131.5668,W,0.0,111.5,260616,2.5,W,A*19
$GPRMB,A,,,,,,,,,,,,V,A*1C
$GPGGA,160038,4714.3407,N,00131.5668,W,1,11,3.0,40.9,M,48.5,M,,*63
$GPGSA,A,3,04,07,08,10,16,18,20,21,26,27,34,,3.9,3.0,2.4*3E
$GPGSV,3,1,11,04,08,231,00,07,15,320,00,08,28,285,00,10,33,143,00*7F
$GPGLL,4714.3407,N,00131.5668,W,160038,A,A*51
$GPBOD,,T,,M,,*47
$GPVTG,111.5,T,114.0,M,0.0,N,0.0,K*4E
$GPRTE,1,1,c,*37
$GPRMC,160040,A,4714.3407,N,00131.5668,W,0.0,111.5,260616,2.5,W,A*16
$GPRMB,A,,,,,,,,,,,,V,A*1C
$GPGGA,160040,4714.3407,N,00131.5668,W,1,11,3.0,40.9,M,48.5,M,,*6C
$GPGSA,A,3,04,07,08,10,16,18,20,21,26,27,34,,4.2,3.0,2.8*3E
$GPGSV,3,2,11,16,78,224,00,18,41,096,00,20,14,040,00,21,42,057,00*73
$GPGLL,4714.3407,N,00131.5668,W,160040,A,A*5E
$GPBOD,,T,,M,,*47
$GPVTG,111.5,T,114.0,M,0.0,N,0.0,K*4E
$GPRTE,1,1,c,*37
$GPRMC,160042,A,4714.3407,N,00131.5668,W,0.0,111.5,260616,2.5,W,A*14
$GPRMB,A,,,,,,,,,,,,V,A*1C
$GPGGA,160042,4714.3407,N,00131.5668,W,1,11,3.0,40.9,M,48.5,M,,*6E
$GPGSA,A,3,04,07,08,10,16,18,20,21,26,27,34,,4.2,3.0,2.8*3E
$GPGSV,3,3,11,26,52,166,00,27,62,299,00,34,65,090,00*45
$GPGLL,4714.3407,N,00131.5668,W,160042,A,A*5C
$GPBOD,,T,,M,,*47
$GPVTG,111.5,T,114.0,M,0.0,N,0.0,K*4E
$GPRTE,1,1,c,*37
$GPRMC,160044,A,4714.3407,N,00131.5668,W,0.0,111.5,260616,2.5,W,A*12
$GPRMB,A,,,,,,,,,,,,V,A*1C
$GPGGA,160044,4714.3407,N,00131.5668,W,1,11,3.0,40.9,M,48.5,M,,*68
$GPGSA,A,3,04,07,08,10,16,18,20,21,26,27,34,,4.2,3.0,2.8*3E
$GPGSV,3,1,11,04,08,231,00,07,15,320,00,08,28,285,00,10,33,143,00*7F
$GPGLL,4714.3407,N,00131.5668,W,160044,A,A*5A
$GPBOD,,T,,M,,*47
$GPVTG,111.5,T,114.0,M,0.0,N,0.0,K*4E
$GPRTE,1,1,c,*37
$GPRMC,160046,A,4714.3407,N,00131.5668,W,0.0,111.5,260616,2.5,W,A*10
$GPRMB,A,,,,,,,,,,,,V,A*1C
$GPGGA,160046,4714.3407,N,00131.5668,W,1,11,3.0,40.9,M,48.5,M,,*6A
$GPGSA,A,3,04,07,08,10,16,18,20,21,26,27,34,,4.2,3.0,2.8*3E
$GPGSV,3,2,11,16,78,224,00,18,41,096,00,20,14,040,00,21,42,057,00*73
$GPGLL,4714.3407,N,00131.5668,W,160046,A,A*58
$GPBOD,,T,,M,,*47
$GPVTG,111.5,T,114.0,M,0.0,N,0.0,K*4E
$GPRTE,1,1,c,*37
$GPRMC,160048,A,4714.3412,N,00131.5673,W,0.0,111.5,260616,2.5,W,A*10
$GPRMB,A,,,,,,,,,,,,V,A*1C
$GPGGA,160048,4714.3412,N,00131.5673,W,1,11,3.0,41.0,M,48.5,M,,*62
$GPGSA,A,3,04,07,08,10,16,18,20,21,26,27,34,,3.9,3.0,2.4*3E
$GPGSV,3,3,11,26,52,166,00,27,62,299,00,34,65,090,00*45
$GPGLL,4714.3412,N,00131.5673,W,160048,A,A*58
$GPBOD,,T,,M,,*47
$GPVTG,111.5,T,114.0,M,0.0,N,0.0,K*4E
$GPRTE,1,1,c,*37
$GPRMC,160050,A,4714.3424,N,00131.5681,W,0.0,111.5,260616,2.5,W,A*11
$GPRMB,A,,,,,,,,,,,,V,A*1C
$GPGGA,160050,4714.3424,N,00131.5681,W,1,11,3.0,41.3,M,48.5,M,,*60
$GPGSA,A,3,04,07,08,10,16,18,20,21,26,27,34,,3.9,3.0,2.4*3E
$GPGSV,3,1,11,04,08,231,00,07,15,319,00,08,28,285,00,10,33,143,00*75
$GPGLL,4714.3424,N,00131.5681,W,160050,A,A*59
$GPBOD,,T,,M,,*47
$GPVTG,111.5,T,114.0,M,0.0,N,0.0,K*4E
$GPRTE,1,1,c,*37
$GPRMC,160052,A,4714.3432,N,00131.5688,W,0.0,111.5,260616,2.5,W,A*1D
$GPRMB,A,,,,,,,,,,,,V,A*1C
$GPGGA,160052,4714.3432,N,00131.5688,W,1,11,4.8,41.4,M,48.5,M,,*64
$GPGSA,A,3,04,07,08,10,16,18,20,21,26,27,34,,6.8,4.8,4.9*3E
$GPGSV,3,2,11,16,78,221,00,18,41,097,00,20,14,040,00,21,42,057,00*77
$GPGLL,4714.3432,N,00131.5688,W,160052,A,A*55
$GPBOD,,T,,M,,*47
$GPVTG,111.5,T,114.0,M,0.0,N,0.0,K*4E
$GPRTE,1,1,c,*37
$GPRMC,160054,A,4714.3435,N,00131.5681,W,0.0,111.5,260616,2.5,W,A*15
$GPRMB,A,,,,,,,,,,,,V,A*1C
$GPGGA,160054,4714.3435,N,00131.5681,W,1,11,3.0,41.1,M,48.5,M,,*66
$GPGSA,A,3,04,07,08,10,16,18,20,21,26,27,34,,3.9,3.0,2.4*3E
$GPGSV,3,3,11,26,52,166,00,27,62,299,00,34,65,090,00*45
$GPGLL,4714.3435,N,00131.5681,W,160054,A,A*5D
$GPBOD,,T,,M,,*47
$GPVTG,111.5,T,114.0,M,0.0,N,0.0,K*4E
$GPRTE,1,1,c,*37
$GPRMC,160056,A,4714.3436,N,00131.5673,W,0.0,111.5,260616,2.5,W,A*19
$GPRMB,A,,,,,,,,,,,,V,A*1C
$GPGGA,160056,4714.3436,N,00131.5673,W,1,11,3.0,41.1,M,48.5,M,,*6A
$GPGSA,A,3,04,07,08,10,16,18,20,21,26,27,34,,3.9,3.0,2.4*3E
$GPGSV,3,1,11,04,08,231,00,07,15,319,00,08,28,285,00,10,33,143,00*75
$GPGLL,4714.3436,N,00131.5673,W,160056,A,A*51
$GPBOD,,T,,M,,*47
$GPVTG,111.5,T,114.0,M,0.0,N,0.0,K*4E
$GPRTE,1,1,c,*37
$GPRMC,160058,A,4714.3436,N,00131.5673,W,0.0,111.5,260616,2.5,W,A*17
$GPRMB,A,,,,,,,,,,,,V,A*1C
$GPGGA,160058,4714.3436,N,00131.5673,W,1,11,3.0,41.1,M,48.5,M,,*64
$GPGSA,A,3,04,07,08,10,16,18,20,21,26,27,34,,3.9,3.0,2.4*3E
$GPGSV,3,2,11,16,78,221,00,18,41,096,00,20,14,040,00,21,42,057,00*76
$GPGLL,4714.3436,N,00131.5673,W,160058,A,A*5F
$GPBOD,,T,,M,,*47
$GPVTG,111.5,T,114.0,M,0.0,N,0.0,K*4E
$GPRTE,1,1,c,*37
$GPRMC,160100,A,4714.3436,N,00131.5673,W,0.0,111.5,260616,2.5,W,A*1B
$GPRMB,A,,,,,,,,,,,,V,A*1C
$GPGGA,160100,4714.3436,N,00131.5673,W,1,11,3.0,41.1,M,48.5,M,,*68
$GPGSA,A,3,04,07,08,10,16,18,20,21,26,27,34,,3.9,3.0,2.4*3E
$GPGSV,3,3,11,26,52,166,00,27,62,299,00,34,65,090,00*45
$GPGLL,4714.3436,N,00131.5673,W,160100,A,A*53
$GPBOD,,T,,M,,*47
$GPVTG,111.5,T,114.0,M,0.0,N,0.0,K*4E
$GPRTE,1,1,c,*37
$GPRMC,160102,A,4714.3442,N,00131.5680,W,0.0,111.5,260616,2.5,W,A*16
$GPRMB,A,,,,,,,,,,,,V,A*1C
$GPGGA,160102,4714.3442,N,00131.5680,W,1,11,3.1,42.1,M,48.5,M,,*67
$GPGSA,A,3,04,07,08,10,16,18,20,21,26,27,34,,4.2,3.1,2.8*3F
$GPGSV,3,1,11,04,08,231,00,07,15,319,00,08,28,285,00,10,33,143,00*75
$GPGLL,4714.3442,N,00131.5680,W,160102,A,A*5E
$GPBOD,,T,,M,,*47
$GPVTG,111.5,T,114.0,M,0.0,N,0.0,K*4E
$GPRTE,1,1,c,*37
$GPRMC,160104,A,4714.3444,N,00131.5689,W,0.0,111.5,260616,2.5,W,A*1F
$GPRMB,A,,,,,,,,,,,,V,A*1C
$GPGGA,160104,4714.3444,N,00131.5689,W,1,11,3.0,42.8,M,48.5,M,,*66
$GPGSA,A,3,04,07,08,10,16,18,20,21,26,27,34,,3.9,3.0,2.4*3E
$GPGSV,3,2,11,16,78,221,00,18,41,096,00,20,14,040,00,21,42,057,00*76
$GPGLL,4714.3444,N,00131.5689,W,160104,A,A*57
$GPBOD,,T,,M,,*47
$GPVTG,111.5,T,114.0,M,0.0,N,0.0,K*4E
$GPRTE,1,1,c,*37
$GPRMC,160106,A,4714.3450,N,00131.5701,W,0.0,111.5,260616,2.5,W,A*19
$GPRMB,A,,,,,,,,,,,,V,A*1C
$GPGGA,160106,4714.3450,N,00131.5701,W,1,11,3.0,43.7,M,48.5,M,,*6E
$GPGSA,A,3,04,07,08,10,16,18,20,21,26,27,34,,3.9,3.0,2.4*3E
$GPGSV,3,3,11,26,52,166,00,27,62,299,00,34,65,090,00*45
$GPGLL,4714.3450,N,00131.5701,W,160106,A,A*51
$GPBOD,,T,,M,,*47
$GPVTG,111.5,T,114.0,M,0.0,N,0.0,K*4E
$GPRTE,1,1,c,*37
$GPRMC,160108,A,4714.3447,N,00131.5707,W,0.0,111.5,260616,2.5,W,A*17
$GPRMB,A,,,,,,,,,,,,V,A*1C
$GPGGA,160108,4714.3447,N,00131.5707,W,1,11,4.8,43.9,M,48.5,M,,*61
$GPGSA,A,3,04,07,08,10,16,18,20,21,26,27,34,,6.8,4.8,4.9*3E
$GPGSV,3,1,11,04,08,231,00,07,15,319,00,08,28,285,00,10,33,143,00*75
$GPGLL,4714.3447,N,00131.5707,W,160108,A,A*5F
$GPBOD,,T,,M,,*47
$GPVTG,111.5,T,114.0,M,0.0,N,0.0,K*4E
$GPRTE,1,1,c,*37
$GPRMC,160110,A,4714.3440,N,00131.5708,W,0.0,111.5,260616,2.5,W,A*16
$GPRMB,A,,,,,,,,,,,,V,A*1C
$GPGGA,160110,4714.3440,N,00131.5708,W,1,11,4.8,43.7,M,48.5,M,,*6E
$GPGSA,A,3,04,07,08,10,16,18,20,21,26,27,34,,6.8,4.8,4.9*3E
$GPGSV,3,2,11,16,77,219,00,18,41,096,00,20,14,040,00,21,42,057,00*72
$GPGLL,4714.3440,N,00131.5708,W,160110,A,A*5E
$GPBOD,,T,,M,,*47
$GPVTG,111.5,T,114.0,M,0.0,N,0.0,K*4E
$GPRTE,1,1,c,*37
$GPRMC,160112,A,4714.3440,N,00131.5712,W,0.0,111.5,260616,2.5,W,A*1F
$GPRMB,A,,,,,,,,,,,,V,A*1C
$GPGGA,160112,4714.3440,N,00131.5712,W,1,11,3.0,44.1,M,48.5,M,,*69
$GPGSA,A,3,04,07,08,10,16,18,20,21,26,27,34,,3.9,3.0,2.4*3E
$GPGSV,3,3,11,26,52,166,00,27,62,299,00,34,65,090,00*45
$GPGLL,4714.3440,N,00131.5712,W,160112,A,A*57
$GPBOD,,T,,M,,*47
$GPVTG,111.5,T,114.0,M,0.0,N,0.0,K*4E
$GPRTE,1,1,c,*37
$GPRMC,160114,A,4714.3445,N,00131.5715,W,0.0,111.5,260616,2.5,W,A*1B
$GPRMB,A,,,,,,,,,,,,V,A*1C
$GPGGA,160114,4714.3445,N,00131.5715,W,1,11,3.0,44.3,M,48.5,M,,*6F
$GPGSA,A,3,04,07,08,10,16,18,20,21,26,27,34,,3.9,3.0,2.4*3E
$GPGSV,3,1,11,04,08,231,00,07,15,319,00,08,28,285,00,10,33,143,00*75
$GPGLL,4714.3445,N,00131.5715,W,160114,A,A*53
$GPBOD,,T,,M,,*47
$GPVTG,111.5,T,114.0,M,0.0,N,0.0,K*4E
$GPRTE,1,1,c,*37
$GPRMC,160116,A,4714.3444,N,00131.5717,W,0.0,111.5,260616,2.5,W,A*1A
$GPRMB,A,,,,,,,,,,,,V,A*1C
$GPGGA,160116,4714.3444,N,00131.5717,W,1,11,4.7,44.1,M,48.5,M,,*6C
$GPGSA,A,3,04,07,08,10,16,18,20,21,26,27,34,,6.8,4.7,4.9*31
$GPGSV,3,2,11,16,77,219,00,18,41,096,00,20,14,040,00,21,42,057,00*72
$GPGLL,4714.3444,N,00131.5717,W,160116,A,A*52
$GPBOD,,T,,M,,*47
$GPVTG,111.5,T,114.0,M,0.0,N,0.0,K*4E
$GPRTE,1,1,c,*37
$GPRMC,160118,A,4714.3440,N,00131.5716,W,0.0,111.5,260616,2.5,W,A*11
$GPRMB,A,,,,,,,,,,,,V,A*1C
$GPGGA,160118,4714.3440,N,00131.5716,W,1,11,4.7,43.8,M,48.5,M,,*69
$GPGSA,A,3,04,07,08,10,16,18,20,21,26,27,34,,6.8,4.7,4.9*31
$GPGSV,3,3,11,26,52,166,00,27,62,299,00,34,65,090,00*45
$GPGLL,4714.3440,N,00131.5716,W,160118,A,A*59
$GPBOD,,T,,M,,*47
$GPVTG,111.5,T,114.0,M,0.0,N,0.0,K*4E
$GPRTE,1,1,c,*37
$GPRMC,160120,A,4714.3440,N,00131.5716,W,0.0,111.5,260616,2.5,W,A*1A
$GPRMB,A,,,,,,,,,,,,V,A*1C
$GPGGA,160120,4714.3440,N,00131.5716,W,1,11,4.7,43.8,M,48.5,M,,*62
$GPGSA,A,3,04,07,08,10,16,18,20,21,26,27,34,,6.8,4.7,4.9*31
$GPGSV,3,1,11,04,08,231,00,07,15,319,00,08,28,285,00,10,33,143,00*75
$GPGLL,4714.3440,N,00131.5716,W,160120,A,A*52
$GPBOD,,T,,M,,*47
$GPVTG,111.5,T,114.0,M,0.0,N,0.0,K*4E
$GPRTE,1,1,c,*37
$GPRMC,160122,A,4714.3440,N,00131.5716,W,0.0,111.5,260616,2.5,W,A*18
$GPRMB,A,,,,,,,,,,,,V,A*1C
$GPGGA,160122,4714.3440,N,00131.5716,W,1,11,4.7,43.8,M,48.5,M,,*60
$GPGSA,A,3,04,07,08,10,16,18,20,21,26,27,34,,6.8,4.7,4.9*31
$GPGSV,3,2,11,16,77,219,00,18,41,096,00,20,14,040,00,21,42,057,00*72
$GPGLL,4714.3440,N,00131.5716,W,160122,A,A*50
$GPBOD,,T,,M,,*47
$GPVTG,111.5,T,114.0,M,0.0,N,0.0,K*4E
$GPRTE,1,1,c,*37
$GPRMC,160124,A,4714.3440,N,00131.5716,W,0.0,111.5,260616,2.5,W,A*1E
$GPRMB,A,,,,,,,,,,,,V,A*1C
$GPGGA,160124,4714.3440,N,00131.5716,W,1,11,4.7,43.8,M,48.5,M,,*66
$GPGSA,A,3,04,07,08,10,16,18,20,21,26,27,34,,6.8,4.7,4.9*31
$GPGSV,3,3,11,26,52,166,00,27,62,299,00,34,65,090,00*45
$GPGLL,4714.3440,N,00131.5716,W,160124,A,A*56
$GPBOD,,T,,M,,*47
$GPVTG,111.5,T,114.0,M,0.0,N,0.0,K*4E
$GPRTE,1,1,c,*37
$GPRMC,160126,A,4714.3440,N,00131.5716,W,0.0,111.5,260616,2.5,W,A*1C
$GPRMB,A,,,,,,,,,,,,V,A*1C
$GPGGA,160126,4714.3440,N,00131.5716,W,1,11,3.0,43.8,M,48.5,M,,*64
$GPGSA,A,3,04,07,08,10,16,18,20,21,26,27,34,,3.9,3.0,2.4*3E
$GPGSV,3,1,11,04,08,231,00,07,15,319,00,08,28,285,00,10,33,143,00*75
$GPGLL,4714.3440,N,00131.5716,W,160126,A,A*54
$GPBOD,,T,,M,,*47
$GPVTG,111.5,T,114.0,M,0.0,N,0.0,K*4E
$GPRTE,1,1,c,*37
$GPRMC,160128,A,4714.3453,N,00131.5715,W,0.0,111.5,260616,2.5,W,A*13
$GPRMB,A,,,,,,,,,,,,V,A*1C
$GPGGA,160128,4714.3453,N,00131.5715,W,1,11,3.1,43.5,M,48.5,M,,*67
$GPGSA,A,3,04,07,08,10,16,18,20,21,26,27,34,,3.9,3.1,2.4*3F
$GPGSV,3,2,11,16,77,219,00,18,41,096,00,20,14,040,00,21,42,057,00*72
$GPGLL,4714.3453,N,00131.5715,W,160128,A,A*5B
$GPBOD,,T,,M,,*47
$GPVTG,111.5,T,114.0,M,0.0,N,0.0,K*4E
$GPRTE,1,1,c,*37
$GPRMC,160130,A,4714.3467,N,00131.5716,W,0.0,111.5,260616,2.5,W,A*1E
$GPRMB,A,,,,,,,,,,,,V,A*1C
$GPGGA,160130,4714.3467,N,00131.5716,W,1,11,3.1,43.6,M,48.5,M,,*69
$GPGSA,A,3,04,07,08,10,16,18,20,21,26,27,34,,3.9,3.1,2.4*3F
$GPGSV,3,3,11,26,51,166,00,27,62,300,00,34,65,090,00*47
$GPGLL,4714.3467,N,00131.5716,W,160130,A,A*56
$GPBOD,,T,,M,,*47
$GPVTG,111.5,T,114.0,M,0.0,N,0.0,K*4E
$GPRTE,1,1,c,*37
$GPRMC,160132,A,4714.3480,N,00131.5714,W,0.0,111.5,260616,2.5,W,A*17
$GPRMB,A,,,,,,,,,,,,V,A*1C
$GPGGA,160132,4714.3480,N,00131.5714,W,1,11,3.1,43.4,M,48.5,M,,*62
$GPGSA,A,3,04,07,08,10,16,18,20,21,26,27,34,,4.2,3.1,2.8*3F
$GPGSV,3,1,11,04,08,231,00,07,15,319,00,08,28,285,00,10,33,143,00*75
$GPGLL,4714.3480,N,00131.5714,W,160132,A,A*5F
$GPBOD,,T,,M,,*47
$GPVTG,111.5,T,114.0,M,0.0,N,0.0,K*4E
$GPRTE,1,1,c,*37
$GPRMC,160134,A,4714.3480,N,00131.5714,W,0.0,111.5,260616,2.5,W,A*11
$GPRMB,A,,,,,,,,,,,,V,A*1C
$GPGGA,160134,4714.3480,N,00131.5714,W,1,11,3.1,43.4,M,48.5,M,,*64
$GPGSA,A,3,04,07,08,10,16,18,20,21,26,27,34,,4.2,3.1,2.8*3F
$GPGSV,3,2,11,16,77,219,00,18,41,096,00,20,14,040,00,21,42,057,00*72
$GPGLL,4714.3480,N,00131.5714,W,160134,A,A*59
$GPBOD,,T,,M,,*47
$GPVTG,111.5,T,114.0,M,0.0,N,0.0,K*4E
$GPRTE,1,1,c,*37
$GPRMC,160136,A,4714.3480,N,00131.5714,W,0.0,111.5,260616,2.5,W,A*13
$GPRMB,A,,,,,,,,,,,,V,A*1C
$GPGGA,160136,4714.3480,N,00131.5714,W,1,11,3.1,43.4,M,48.5,M,,*66
$GPGSA,A,3,04,07,08,10,16,18,20,21,26,27,34,,4.2,3.1,2.8*3F
$GPGSV,3,3,11,26,51,166,00,27,62,300,00,34,65,090,00*47
$GPGLL,4714.3480,N,00131.5714,W,160136,A,A*5B
$GPBOD,,T,,M,,*47
$GPVTG,111.5,T,114.0,M,0.0,N,0.0,K*4E
$GPRTE,1,1,c,*37
$GPRMC,160138,A,4714.3480,N,00131.5714,W,0.0,111.5,260616,2.5,W,A*1D
$GPRMB,A,,,,,,,,,,,,V,A*1C
$GPGGA,160138,4714.3480,N,00131.5714,W,1,11,3.1,43.4,M,48.5,M,,*68
$GPGSA,A,3,04,07,08,10,16,18,20,21,26,27,34,,4.2,3.1,2.8*3F
$GPGSV,3,1,11,04,08,231,00,07,15,319,00,08,28,285,00,10,33,143,00*75
$GPGLL,4714.3480,N,00131.5714,W,160138,A,A*55
$GPBOD,,T,,M,,*47
$GPVTG,111.5,T,114.0,M,0.0,N,0.0,K*4E
$GPRTE,1,1,c,*37
$GPRMC,160140,A,4714.3480,N,00131.5714,W,0.0,111.5,260616,2.5,W,A*12
$GPRMB,A,,,,,,,,,,,,V,A*1C
$GPGGA,160140,4714.3480,N,00131.5714,W,1,11,3.1,43.4,M,48.5,M,,*67
$GPGSA,A,3,04,07,08,10,16,18,20,21,26,27,34,,4.2,3.1,2.8*3F
$GPGSV,3,2,11,16,77,219,00,18,41,096,00,20,14,040,00,21,42,057,00*72
$GPGLL,4714.3480,N,00131.5714,W,160140,A,A*5A
$GPBOD,,T,,M,,*47
$GPVTG,111.5,T,114.0,M,0.0,N,0.0,K*4E
$GPRTE,1,1,c,*37
$GPRMC,160142,A,4714.3480,N,00131.5714,W,0.0,111.5,260616,2.5,W,A*10
$GPRMB,A,,,,,,,,,,,,V,A*1C
$GPGGA,160142,4714.3480,N,00131.5714,W,1,11,3.1,43.4,M,48.5,M,,*65
$GPGSA,A,3,04,07,08,10,16,18,20,21,26,27,34,,4.2,3.1,2.8*3F
$GPGSV,3,3,11,26,51,166,00,27,62,300,00,34,65,090,00*47
$GPGLL,4714.3480,N,00131.5714,W,160142,A,A*58
$GPBOD,,T,,M,,*47
$GPVTG,111.5,T,114.0,M,0.0,N,0.0,K*4E
$GPRTE,1,1,c,*37
$GPRMC,160144,A,4714.3496,N,00131.5719,W,0.0,111.5,260616,2.5,W,A*1C
$GPRMB,A,,,,,,,,,,,,V,A*1C
$GPGGA,160144,4714.3496,N,00131.5719,W,1,11,3.1,44.4,M,48.5,M,,*6E
$GPGSA,A,3,04,07,08,10,16,18,20,21,26,27,34,,4.2,3.1,2.8*3F
$GPGSV,3,1,11,04,08,231,00,07,15,319,00,08,28,285,00,10,33,143,00*75
$GPGLL,4714.3496,N,00131.5719,W,160144,A,A*54
$GPBOD,,T,,M,,*47
$GPVTG,111.5,T,114.0,M,0.0,N,0.0,K*4E
$GPRTE,1,1,c,*37
$GPRMC,160146,A,4714.3508,N,00131.5721,W,0.0,111.5,260616,2.5,W,A*13
$GPRMB,A,,,,,,,,,,,,V,A*1C
$GPGGA,160146,4714.3508,N,00131.5721,W,1,11,3.1,45.1,M,48.5,M,,*65
$GPGSA,A,3,04,07,08,10,16,18,20,21,26,27,34,,4.2,3.1,2.8*3F
$GPGSV,3,2,11,16,77,219,00,18,41,096,00,20,14,040,00,21,42,057,00*72
$GPGLL,4714.3508,N,00131.5721,W,160146,A,A*5B
$GPBOD,,T,,M,,*47
$GPVTG,111.5,T,114.0,M,0.0,N,0.0,K*4E
$GPRTE,1,1,c,*37
$GPRMC,160148,A,4714.3520,N,00131.5721,W,0.0,111.5,260616,2.5,W,A*17
$GPRMB,A,,,,,,,,,,,,V,A*1C
$GPGGA,160148,4714.3520,N,00131.5721,W,1,11,3.1,45.7,M,48.5,M,,*67
$GPGSA,A,3,04,07,08,10,16,18,20,21,26,27,40,,4.2,3.1,2.8*3C
$GPGSV,3,3,11,26,51,166,00,27,62,300,00,40,65,090,00*44
$GPGLL,4714.3520,N,00131.5721,W,160148,A,A*5F
$GPBOD,,T,,M,,*47
$GPVTG,111.5,T,114.0,M,0.0,N,0.0,K*4E
$GPRTE,1,1,c,*37
$GPRMC,160150,A,4714.3534,N,00131.5725,W,0.0,111.5,260616,2.5,W,A*1F
$GPRMB,A,,,,,,,,,,,,V,A*1C
$GPGGA,160150,4714.3534,N,00131.5725,W,1,11,3.1,46.5,M,48.5,M,,*6E
$GPGSA,A,3,04,07,08,10,16,18,20,21,26,27,40,,4.2,3.1,2.8*3C
$GPGSV,3,1,11,04,08,231,00,07,15,319,00,08,28,285,00,10,33,143,00*75
$GPGLL,4714.3534,N,00131.5725,W,160150,A,A*57
$GPBOD,,T,,M,,*47
$GPVTG,111.5,T,114.0,M,0.0,N,0.0,K*4E
$GPRTE,1,1,c,*37
$GPRMC,160152,A,4714.3534,N,00131.5725,W,0.0,111.5,260616,2.5,W,A*1D
$GPRMB,A,,,,,,,,,,,,V,A*1C
$GPGGA,160152,4714.3534,N,00131.5725,W,1,11,4.2,46.5,M,48.5,M,,*68
$GPGSA,A,2,04,07,08,10,16,18,20,21,26,27,40,,4.3,4.2,1.0*33
$GPGSV,3,2,11,16,77,219,00,18,41,096,00,20,14,040,00,21,42,057,00*72
$GPGLL,4714.3534,N,00131.5725,W,160152,A,A*55
$GPBOD,,T,,M,,*47
$GPVTG,111.5,T,114.0,M,0.0,N,0.0,K*4E
$GPRTE,1,1,c,*37
$GPRMC,160154,A,4714.3534,N,00131.5725,W,0.0,111.5,260616,2.5,W,A*1B
$GPRMB,A,,,,,,,,,,,,V,A*1C
$GPGGA,160154,4714.3534,N,00131.5725,W,1,11,4.2,46.5,M,48.5,M,,*6E
$GPGSA,A,2,04,07,08,10,16,18,20,21,26,27,40,,4.3,4.2,1.0*33
$GPGSV,3,3,11,26,52,166,00,27,62,300,00,40,65,090,00*47
$GPGLL,4714.3534,N,00131.5725,W,160154,A,A*53
$GPBOD,,T,,M,,*47
$GPVTG,111.5,T,114.0,M,0.0,N,0.0,K*4E
$GPRTE,1,1,c,*37
$GPRMC,160156,A,4714.3534,N,00131.5725,W,0.0,111.5,260616,2.5,W,A*19
$GPRMB,A,,,,,,,,,,,,V,A*1C
$GPGGA,160156,4714.3534,N,00131.5725,W,1,11,4.2,46.5,M,48.5,M,,*6C
$GPGSA,A,2,04,07,08,10,16,18,20,21,26,27,40,,4.3,4.2,1.0*33
$GPGSV,3,1,11,04,08,231,00,07,15,319,00,08,28,285,00,10,33,143,00*75
$GPGLL,4714.3534,N,00131.5725,W,160156,A,A*51
$GPBOD,,T,,M,,*47
$GPVTG,111.5,T,114.0,M,0.0,N,0.0,K*4E
$GPRTE,1,1,c,*37
$GPRMC,160158,A,4714.3534,N,00131.5725,W,0.0,111.5,260616,2.5,W,A*17
$GPRMB,A,,,,,,,,,,,,V,A*1C
$GPGGA,160158,4714.3534,N,00131.5725,W,1,11,4.7,46.5,M,48.5,M,,*67
$GPGSA,A,3,04,07,08,10,16,18,20,21,26,27,40,,6.8,4.7,4.8*33
$GPGSV,3,2,11,16,77,219,00,18,41,096,00,20,14,040,00,21,42,057,00*72
$GPGLL,4714.3534,N,00131.5725,W,160158,A,A*5F
$GPBOD,,T,,M,,*47
$GPVTG,111.5,T,114.0,M,0.0,N,0.0,K*4E
$GPRTE,1,1,c,*37
$GPRMC,160200,A,4714.3534,N,00131.5725,W,0.0,111.5,260616,2.5,W,A*19
$GPRMB,A,,,,,,,,,,,,V,A*1C
$GPGGA,160200,4714.3534,N,00131.5725,W,1,11,4.7,46.5,M,48.5,M,,*69
$GPGSA,A,3,04,07,08,10,16,18,20,21,26,27,40,,6.8,4.7,4.8*33
$GPGSV,3,3,11,26,51,166,00,27,62,300,00,40,65,090,00*44
$GPGLL,4714.3534,N,00131.5725,W,160200,A,A*51
$GPBOD,,T,,M,,*47
$GPVTG,111.5,T,114.0,M,0.0,N,0.0,K*4E
$GPRTE,1,1,c,*37
$GPRMC,160202,A,4714.3534,N,00131.5725,W,0.0,111.5,260616,2.5,W,A*1B
$GPRMB,A,,,,,,,,,,,,V,A*1C
$GPGGA,160202,4714.3534,N,00131.5725,W,1,11,4.2,46.5,M,48.5,M,,*6E
$GPGSA,A,2,04,07,08,10,16,18,20,21,26,27,40,,4.3,4.2,1.0*33
$GPGSV,3,1,11,04,08,231,00,07,15,319,00,08,28,285,00,10,33,142,00*74
$GPGLL,4714.3534,N,00131.5725,W,160202,A,A*53
$GPBOD,,T,,M,,*47
$GPVTG,111.5,T,114.0,M,0.0,N,0.0,K*4E
$GPRTE,1,1,c,*37
$GPRMC,160204,A,4714.3534,N,00131.5725,W,0.0,111.5,260616,2.5,W,A*1D
$GPRMB,A,,,,,,,,,,,,V,A*1C
$GPGGA,160204,4714.3534,N,00131.5725,W,1,11,4.2,46.5,M,48.5,M,,*68
$GPGSA,A,2,04,07,08,10,16,18,20,21,26,27,40,,4.3,4.2,1.0*33
$GPGSV,3,2,11,16,77,219,00,18,41,096,00,20,14,040,00,21,42,057,00*72
$GPGLL,4714.3534,N,00131.5725,W,160204,A,A*55
$GPBOD,,T,,M,,*47
$GPVTG,111.5,T,114.0,M,0.0,N,0.0,K*4E
$GPRTE,1,1,c,*37
$GPRMC,160206,A,4714.3534,N,00131.5725,W,0.0,111.5,260616,2.5,W,A*1F
$GPRMB,A,,,,,,,,,,,,V,A*1C
$GPGGA,160206,4714.3534,N,00131.5725,W,1,11,4.2,46.5,M,48.5,M,,*6A
$GPGSA,A,2,04,07,08,10,16,18,20,21,26,27,40,,4.3,4.2,1.0*33
$GPGSV,3,3,11,26,51,166,00,27,62,300,00,40,65,090,00*44
$GPGLL,4714.3534,N,00131.5725,W,160206,A,A*57
$GPBOD,,T,,M,,*47
$GPVTG,111.5,T,114.0,M,0.0,N,0.0,K*4E
$GPRTE,1,1,c,*37
$GPRMC,160208,A,4714.3534,N,00131.5725,W,0.0,111.5,260616,2.5,W,A*11
$GPRMB,A,,,,,,,,,,,,V,A*1C
$GPGGA,160208,4714.3534,N,00131.5725,W,1,11,4.2,46.5,M,48.5,M,,*64
$GPGSA,A,2,04,07,08,10,16,18,20,21,26,27,40,,4.3,4.2,1.0*33
$GPGSV,3,1,11,04,08,231,00,07,15,319,00,08,28,285,00,10,33,142,00*74
$GPGLL,4714.3534,N,00131.5725,W,160208,A,A*59
$GPBOD,,T,,M,,*47
$GPVTG,111.5,T,114.0,M,0.0,N,0.0,K*4E
$GPRTE,1,1,c,*37
$GPRMC,160210,A,4714.3534,N,00131.5725,W,0.0,111.5,260616,2.5,W,A*18
$GPRMB,A,,,,,,,,,,,,V,A*1C
$GPGGA,160210,4714.3534,N,00131.5725,W,1,11,4.2,46.5,M,48.5,M,,*6D
$GPGSA,A,2,04,07,08,10,16,18,20,21,26,27,40,,4.3,4.2,1.0*33
$GPGSV,3,2,11,16,77,219,00,18,41,096,00,20,14,040,00,21,42,057,00*72
$GPGLL,4714.3534,N,00131.5725,W,160210,A,A*50
$GPBOD,,T,,M,,*47
$GPVTG,111.5,T,114.0,M,0.0,N,0.0,K*4E
$GPRTE,1,1,c,*37
$GPRMC,160212,A,4714.3534,N,00131.5725,W,0.0,111.5,260616,2.5,W,A*1A
$GPRMB,A,,,,,,,,,,,,V,A*1C
$GPGGA,160212,4714.3534,N,00131.5725,W,1,11,4.2,46.5,M,48.5,M,,*6F
$GPGSA,A,2,04,07,08,10,16,18,20,21,26,27,40,,4.3,4.2,1.0*33
$GPGSV,3,3,11,26,51,166,00,27,62,300,00,40,65,090,00*44
$GPGLL,4714.3534,N,00131.5725,W,160212,A,A*52
$GPBOD,,T,,M,,*47
$GPVTG,111.5,T,114.0,M,0.0,N,0.0,K*4E
$GPRTE,1,1,c,*37
$GPRMC,160214,A,4714.3534,N,00131.5725,W,0.0,111.5,260616,2.5,W,A*1C
$GPRMB,A,,,,,,,,,,,,V,A*1C
$GPGGA,160214,4714.3534,N,00131.5725,W,1,12,4.2,46.5,M,48.5,M,,*6A
$GPGSA,A,2,04,07,08,10,16,18,20,21,26,27,30,40,4.3,4.2,1.0*30
$GPGSV,3,1,12,04,08,231,00,07,15,319,00,08,28,285,00,10,33,142,00*77
$GPGLL,4714.3534,N,00131.5725,W,160214,A,A*54
$GPBOD,,T,,M,,*47
$GPVTG,111.5,T,114.0,M,0.0,N,0.0,K*4E
$GPRTE,1,1,c,*37
$GPRMC,160216,A,4714.3534,N,00131.5725,W,0.0,111.5,260616,2.5,W,A*1E
$GPRMB,A,,,,,,,,,,,,V,A*1C
$GPGGA,160216,4714.3534,N,00131.5725,W,1,12,4.2,46.5,M,48.5,M,,*68
$GPGSA,A,2,04,07,08,10,16,18,20,21,26,27,30,40,4.3,4.2,1.0*30
$GPGSV,3,2,12,16,77,219,00,18,42,095,00,20,14,040,00,21,42,057,00*71
$GPGLL,4714.3534,N,00131.5725,W,160216,A,A*56
$GPBOD,,T,,M,,*47
$GPVTG,111.5,T,114.0,M,0.0,N,0.0,K*4E
$GPRTE,1,1,c,*37
$GPRMC,160218,A,4714.3534,N,00131.5725,W,0.0,111.5,260616,2.5,W,A*10
$GPRMB,A,,,,,,,,,,,,V,A*1C
$GPGGA,160218,4714.3534,N,00131.5725,W,1,12,4.2,46.5,M,48.5,M,,*66
$GPGSA,A,2,04,07,08,10,16,18,20,21,26,27,30,40,4.3,4.2,1.0*30
$GPGSV,3,3,12,26,51,166,00,27,62,300,00,30,01,339,00,40,65,090,00*7C
$GPGLL,4714.3534,N,00131.5725,W,160218,A,A*58
$GPBOD,,T,,M,,*47
$GPVTG,111.5,T,114.0,M,0.0,N,0.0,K*4E
$GPRTE,1,1,c,*37
$GPRMC,160220,A,4714.3534,N,00131.5725,W,0.0,111.5,260616,2.5,W,A*1B
$GPRMB,A,,,,,,,,,,,,V,A*1C
$GPGGA,160220,4714.3534,N,00131.5725,W,1,12,3.1,46.5,M,48.5,M,,*69
$GPGSA,A,3,04,07,08,10,16,18,20,21,26,27,30,40,4.2,3.1,2.8*3F
$GPGSV,3,1,12,04,08,231,00,07,15,319,00,08,28,285,00,10,33,142,00*77
$GPGLL,4714.3534,N,00131.5725,W,160220,A,A*53
$GPBOD,,T,,M,,*47
$GPVTG,111.5,T,114.0,M,0.0,N,0.0,K*4E
$GPRTE,1,1,c,*37
$GPRMC,160222,A,4714.3534,N,00131.5725,W,0.0,111.5,260616,2.5,W,A*19
$GPRMB,A,,,,,,,,,,,,V,A*1C
$GPGGA,160222,4714.3534,N,00131.5725,W,1,12,3.1,46.5,M,48.5,M,,*6B
$GPGSA,A,3,04,07,08,10,16,18,20,21,26,27,30,40,4.2,3.1,2.8*3F
$GPGSV,3,2,12,16,77,219,00,18,42,095,00,20,14,040,00,21,41,057,00*72
$GPGLL,4714.3534,N,00131.5725,W,160222,A,A*51
$GPBOD,,T,,M,,*47
$GPVTG,111.5,T,114.0,M,0.0,N,0.0,K*4E
$GPRTE,1,1,c,*37
$GPRMC,160224,A,4714.3534,N,00131.5725,W,0.0,111.5,260616,2.5,W,A*1F
$GPRMB,A,,,,,,,,,,,,V,A*1C
$GPGGA,160224,4714.3534,N,00131.5725,W,1,12,3.1,46.5,M,48.5,M,,*6D
$GPGSA,A,3,04,07,08,10,16,18,20,21,26,27,30,40,4.2,3.1,2.8*3F
$GPGSV,3,3,12,26,51,166,00,27,62,300,00,30,01,339,00,40,65,090,00*7C
$GPGLL,4714.3534,N,00131.5725,W,160224,A,A*57
$GPBOD,,T,,M,,*47
$GPVTG,111.5,T,114.0,M,0.0,N,0.0,K*4E
$GPRTE,1,1,c,*37
$GPRMC,160226,A,4714.3534,N,00131.5725,W,0.0,111.5,260616,2.5,W,A*1D
$GPRMB,A,,,,,,,,,,,,V,A*1C
$GPGGA,160226,4714.3534,N,00131.5725,W,1,12,3.1,46.5,M,48.5,M,,*6F
$GPGSA,A,3,04,07,08,10,16,18,20,21,26,27,30,40,4.2,3.1,2.8*3F
$GPGSV,3,1,12,04,08,231,00,07,15,319,00,08,28,285,00,10,33,142,00*77
$GPGLL,4714.3534,N,00131.5725,W,160226,A,A*55
$GPBOD,,T,,M,,*47
$GPVTG,111.5,T,114.0,M,0.0,N,0.0,K*4E
$GPRTE,1,1,c,*37
$GPRMC,160228,A,4714.3534,N,00131.5725,W,0.0,111.5,260616,2.5,W,A*13
$GPRMB,A,,,,,,,,,,,,V,A*1C
$GPGGA,160228,4714.3534,N,00131.5725,W,1,12,3.1,46.5,M,48.5,M,,*61
$GPGSA,A,3,04,07,08,10,16,18,20,21,26,27,30,40,4.2,3.1,2.8*3F
$GPGSV,3,2,12,16,77,219,00,18,42,095,00,20,14,040,00,21,41,057,00*72
$GPGLL,4714.3534,N,00131.5725,W,160228,A,A*5B
$GPBOD,,T,,M,,*47
$GPVTG,111.5,T,114.0,M,0.0,N,0.0,K*4E
$GPRTE,1,1,c,*37
$GPRMC,160230,A,4714.3529,N,00131.5724,W,0.0,111.5,260616,2.5,W,A*17
$GPRMB,A,,,,,,,,,,,,V,A*1C
$GPGGA,160230,4714.3529,N,00131.5724,W,1,12,3.1,47.0,M,48.5,M,,*61
$GPGSA,A,3,04,07,08,10,16,18,20,21,26,27,30,40,4.2,3.1,2.8*3F
$GPGSV,3,3,12,26,51,166,00,27,62,300,00,30,01,339,00,40,65,090,00*7C
$GPGLL,4714.3529,N,00131.5724,W,160230,A,A*5F
$GPBOD,,T,,M,,*47
$GPVTG,111.5,T,114.0,M,0.0,N,0.0,K*4E
$GPRTE,1,1,c,*37
$GPRMC,160232,A,4714.3529,N,00131.5724,W,0.0,111.5,260616,2.5,W,A*15
$GPRMB,A,,,,,,,,,,,,V,A*1C
$GPGGA,160232,4714.3529,N,00131.5724,W,1,12,3.1,47.0,M,48.5,M,,*63
$GPGSA,A,3,04,07,08,10,16,18,20,21,26,27,30,40,4.2,3.1,2.8*3F
$GPGSV,3,1,12,04,08,231,00,07,15,319,00,08,28,285,00,10,33,142,00*77
$GPGLL,4714.3529,N,00131.5724,W,160232,A,A*5D
$GPBOD,,T,,M,,*47
$GPVTG,111.5,T,114.0,M,0.0,N,0.0,K*4E
$GPRTE,1,1,c,*37
$GPRMC,160234,A,4714.3529,N,00131.5724,W,0.0,111.5,260616,2.5,W,A*13
$GPRMB,A,,,,,,,,,,,,V,A*1C
$GPGGA,160234,4714.3529,N,00131.5724,W,1,12,3.1,47.0,M,48.5,M,,*65
$GPGSA,A,3,04,07,08,10,16,18,20,21,26,27,30,40,4.2,3.1,2.8*3F
$GPGSV,3,2,12,16,77,219,00,18,42,095,00,20,14,040,00,21,41,057,00*72
$GPGLL,4714.3529,N,00131.5724,W,160234,A,A*5B
$GPBOD,,T,,M,,*47
$GPVTG,111.5,T,114.0,M,0.0,N,0.0,K*4E
$GPRTE,1,1,c,*37
$GPRMC,160236,A,4714.3529,N,00131.5724,W,0.0,111.5,260616,2.5,W,A*11
$GPRMB,A,,,,,,,,,,,,V,A*1C
$GPGGA,160236,4714.3529,N,00131.5724,W,1,12,3.1,47.0,M,48.5,M,,*67
$GPGSA,A,3,04,07,08,10,16,18,20,21,26,27,30,40,4.2,3.1,2.8*3F
$GPGSV,3,3,12,26,51,166,00,27,62,300,00,30,01,339,00,40,65,090,00*7C
$GPGLL,4714.3529,N,00131.5724,W,160236,A,A*59
$GPBOD,,T,,M,,*47
$GPVTG,111.5,T,114.0,M,0.0,N,0.0,K*4E
$GPRTE,1,1,c,*37
$GPRMC,160238,A,4714.3529,N,00131.5724,W,0.0,111.5,260616,2.5,W,A*1F
$GPRMB,A,,,,,,,,,,,,V,A*1C
$GPGGA,160238,4714.3529,N,00131.5724,W,1,12,3.1,47.0,M,48.5,M,,*69
$GPGSA,A,3,04,07,08,10,16,18,20,21,26,27,30,40,4.2,3.1,2.8*3F

-----------------------------------------------
Date: 26/06/2016 - 18:02:38
End log file
