Terminal log file
Date: 31/10/2016 - 14:28:09
-----------------------------------------------
VHW,,,297.,M,00.00,N,00.00,K*13
$IIMWV,176,R,06.2,N,A*17
$IIVWR,176.,R,06.2,N,03.2,M,011.5,K*79
$IIMWD,,,113.,M,06.2,N,03.2,M*08
$IIMTA,23.4,C*00
$IIMTW,16.8,C*1C
$IIVWT,176.,R,06.2,N,03.2,M,011.5,K*7F
$IIHDG,297.,,,,*75
$IIHDM,297.,M*1E
$IIGLL,4729.799,N,00222.957,W,132850,A,A*49
$IIZDA,132850,31,10,2016,,*54
$IIVTG,236.,T,,M,00.0,N,00.0,K,A*2D
$IIDPT,0003.2,,*73
$IIDBT,0010.6,f,0003.2,M,,*7F
$IIVLW,0001.0,N,001.35,N*4B
$IIVHW,,,297.,M,00.00,N,00.00,K*13
$IIMWV,178,R,06.1,N,A*1A
$IIVWR,178.,R,06.1,N,03.1,M,011.3,K*71
$IIMWD,,,115.,M,06.0,N,03.1,M*0F
$IIMTA,23.4,C*00
$IIMTW,16.8,C*1C
$IIVWT,178.,R,06.0,N,03.1,M,011.1,K*74
$IIHDG,297.,,,,*75
$IIHDM,297.,M*1E
$IIGLL,4729.799,N,00222.957,W,132852,A,A*4B
$IIZDA,132852,31,10,2016,,*56
$IIVTG,236.,T,,M,00.0,N,00.0,K,A*2D
$IIDPT,0003.2,,*73
$IIDBT,0010.6,f,0003.2,M,,*7F
$IIVLW,0001.0,N,001.35,N*4B
$IIVHW,,,297.,M,00.00,N,00.00,K*13
$IIMWV,180,R,06.0,N,A*1C
$IIVWR,180.,R,06.0,N,03.1,M,011.1,K*75
$IIMWD,,,116.,M,06.1,N,03.1,M*0D
$IIMTA,23.4,C*00
$IIMTW,16.8,C*1C
$IIVWT,179.,R,06.1,N,03.1,M,011.3,K*76
$IIHDG,297.,,,,*75
$IIHDM,297.,M*1E
$IIGLL,4729.799,N,00222.957,W,132852,A,A*4B
$IIZDA,132852,31,10,2016,,*56
$IIVTG,236.,T,,M,00.0,N,00.0,K,A*2D
$IIDPT,0003.2,,*73
$IIDBT,0010.6,f,0003.2,M,,*7F
$IIVLW,0001.0,N,001.35,N*4B
$IIVHW,,,297.,M,00.00,N,00.00,K*13
$IIMWV,179,R,06.0,N,A*1A
$IIVWR,179.,R,06.0,N,03.1,M,011.1,K*73
$IIMWD,,,116.,M,06.0,N,03.1,M*0C
$IIMTA,23.4,C*00
$IIMTW,16.8,C*1C
$IIVWT,179.,R,06.0,N,03.1,M,011.1,K*75
$IIHDG,297.,,,,*75
$IIHDM,297.,M*1E
$IIGLL,4729.799,N,00222.957,W,132854,A,A*4D
$IIZDA,132854,31,10,2016,,*50
$IIVTG,236.,T,,M,00.0,N,00.0,K,A*2D
$IIDPT,0003.2,,*73
$IIDBT,0010.6,f,0003.2,M,,*7F
$IIVLW,0001.0,N,001.35,N*4B
$IIVHW,,,297.,M,00.00,N,00.00,K*13
$IIMWV,179,R,06.0,N,A*1A
$IIVWR,179.,R,06.0,N,03.1,M,011.1,K*73
$IIMWD,,,116.,M,06.0,N,03.1,M*0C
$IIMTA,23.4,C*00
$IIMTW,16.8,C*1C
$IIVWT,179.,R,06.0,N,03.1,M,011.1,K*75
$IIHDG,297.,,,,*75
$IIHDM,297.,M*1E
$IIGLL,4729.799,N,00222.957,W,132854,A,A*4D
$IIZDA,132854,31,10,2016,,*50
$IIVTG,236.,T,,M,00.0,N,00.0,K,A*2D
$IIDPT,0003.2,,*73
$IIDBT,0010.6,f,0003.2,M,,*7F
$IIVLW,0001.0,N,001.35,N*4B
$IIVHW,,,297.,M,00.00,N,00.00,K*13
$IIMWV,180,R,06.0,N,A*1C
$IIVWR,180.,R,06.0,N,03.1,M,011.1,K*75
$IIMWD,,,116.,M,06.0,N,03.1,M*0C
$IIMTA,23.4,C*00
$IIMTW,16.8,C*1C
$IIVWT,179.,R,06.0,N,03.1,M,011.1,K*75
$IIHDG,297.,,,,*75
$IIHDM,297.,M*1E
$IIGLL,4729.799,N,00222.957,W,132856,A,A*4F
$IIZDA,132856,31,10,2016,,*52
$IIVTG,236.,T,,M,00.0,N,00.0,K,A*2D
$IIDPT,0003.2,,*73
$IIDBT,0010.6,f,0003.2,M,,*7F
$IIVLW,0001.0,N,001.35,N*4B
$IIVHW,,,297.,M,00.00,N,00.00,K*13
$IIMWV,180,R,05.9,N,A*16
$IIVWR,180.,R,05.9,N,03.0,M,010.9,K*77
$IIMWD,,,117.,M,05.9,N,03.0,M*06
$IIMTA,23.4,C*00
$IIMTW,16.8,C*1C
$IIVWT,180.,R,05.9,N,03.0,M,010.9,K*71
$IIHDG,297.,,,,*75
$IIHDM,297.,M*1E
$IIGLL,4729.799,N,00222.957,W,132858,A,A*41
$IIZDA,132858,31,10,2016,,*5C
$IIVTG,236.,T,,M,00.0,N,00.0,K,A*2D
$IIDPT,0003.2,,*73
$IIDBT,0010.6,f,0003.2,M,,*7F
$IIVLW,0001.0,N,001.35,N*4B
$IIVHW,,,297.,M,00.00,N,00.00,K*13
$IIMWV,181,R,05.9,N,A*17
$IIVWR,179.,L,05.9,N,03.0,M,010.9,K*6F
$IIMWD,,,118.,M,05.9,N,03.0,M*09
$IIMTA,23.4,C*00
$IIMTW,16.8,C*1C
$IIVWT,179.,L,05.9,N,03.0,M,010.9,K*69
$IIHDG,297.,,,,*75
$IIHDM,297.,M*1E
$IIGLL,4729.799,N,00222.957,W,132858,A,A*41
$IIZDA,132858,31,10,2016,,*5C
$IIVTG,236.,T,,M,00.0,N,00.0,K,A*2D
$IIDPT,0003.2,,*73
$IIDBT,0010.6,f,0003.2,M,,*7F
$IIVLW,0001.0,N,001.35,N*4B
$IIVHW,,,297.,M,00.00,N,00.00,K*13
$IIMWV,181,R,05.8,N,A*16
$IIVWR,179.,L,05.8,N,03.0,M,010.7,K*60
$IIMWD,,,118.,M,05.9,N,03.0,M*09
$IIMTA,23.4,C*00
$IIMTW,16.8,C*1C
$IIVWT,179.,L,05.8,N,03.0,M,010.7,K*66
$IIHDG,297.,,,,*75
$IIHDM,297.,M*1E
$IIGLL,4729.799,N,00222.957,W,132900,A,A*4D
$IIZDA,132900,31,10,2016,,*50
$IIVTG,236.,T,,M,00.0,N,00.0,K,A*2D
$IIDPT,0003.2,,*73
$IIDBT,0010.6,f,0003.2,M,,*7F
$IIVLW,0001.0,N,001.35,N*4B
$IIVHW,,,297.,M,00.00,N,00.00,K*13
$IIMWV,180,R,05.8,N,A*17
$IIVWR,180.,R,05.8,N,03.0,M,010.7,K*78
$IIMWD,,,118.,M,05.8,N,03.0,M*08
$IIMTA,23.4,C*00
$IIMTW,16.8,C*1C
$IIVWT,180.,R,05.8,N,03.0,M,010.7,K*7E
$IIHDG,297.,,,,*75
$IIHDM,297.,M*1E
$IIGLL,4729.799,N,00222.957,W,132900,A,A*4D
$IIZDA,132900,31,10,2016,,*50
$IIVTG,236.,T,,M,00.0,N,00.0,K,A*2D
$IIDPT,0003.2,,*73
$IIDBT,0010.6,f,0003.2,M,,*7F
$IIVLW,0001.0,N,001.35,N*4B
$IIVHW,,,297.,M,00.00,N,00.00,K*13
$IIMWV,178,R,05.9,N,A*11
$IIVWR,178.,R,05.9,N,03.0,M,010.9,K*70
$IIMWD,,,115.,M,05.9,N,03.0,M*04
$IIMTA,23.4,C*00
$IIMTW,16.8,C*1C
$IIVWT,178.,R,05.9,N,03.0,M,010.9,K*76
$IIHDG,297.,,,,*75
$IIHDM,297.,M*1E
$IIGLL,4729.799,N,00222.957,W,132902,A,A*4F
$IIZDA,132902,31,10,2016,,*52
$IIVTG,236.,T,,M,00.0,N,00.0,K,A*2D
$IIDPT,0003.2,,*73
$IIDBT,0010.6,f,0003.2,M,,*7F
$IIVLW,0001.0,N,001.35,N*4B
$IIVHW,,,297.,M,00.00,N,00.00,K*13
$IIMWV,177,R,05.9,N,A*1E
$IIVWR,177.,R,05.9,N,03.0,M,010.9,K*7F
$IIMWD,,,114.,M,05.9,N,03.0,M*05
$IIMTA,23.4,C*00
$IIMTW,16.8,C*1C
$IIVWT,177.,R,05.9,N,03.0,M,010.9,K*79
$IIHDG,297.,,,,*75
$IIHDM,297.,M*1E
$IIGLL,4729.799,N,00222.957,W,132902,A,A*4F
$IIZDA,132902,31,10,2016,,*52
$IIVTG,236.,T,,M,00.0,N,00.0,K,A*2D
$IIDPT,0003.2,,*73
$IIDBT,0010.6,f,0003.2,M,,*7F
$IIVLW,0001.0,N,001.35,N*4B
$IIVHW,,,297.,M,00.00,N,00.00,K*13
$IIMWV,177,R,06.0,N,A*14
$IIVWR,177.,R,06.0,N,03.1,M,011.1,K*7D
$IIMWD,,,114.,M,06.0,N,03.1,M*0E
$IIMTA,23.4,C*00
$IIMTW,16.8,C*1C
$IIVWT,177.,R,06.0,N,03.1,M,011.1,K*7B
$IIHDG,297.,,,,*75
$IIHDM,297.,M*1E
$IIGLL,4729.799,N,00222.957,W,132904,A,A*49
$IIZDA,132904,31,10,2016,,*54
$IIVTG,236.,T,,M,00.0,N,00.0,K,A*2D
$IIDPT,0003.2,,*73
$IIDBT,0010.6,f,0003.2,M,,*7F
$IIVLW,0001.0,N,001.35,N*4B
$IIVHW,,,297.,M,00.00,N,00.00,K*13
$IIMWV,176,R,06.1,N,A*14
$IIVWR,176.,R,06.1,N,03.1,M,011.3,K*7F
$IIMWD,,,113.,M,06.1,N,03.1,M*08
$IIMTA,23.4,C*00
$IIMTW,16.8,C*1C
$IIVWT,176.,R,06.1,N,03.1,M,011.3,K*79
$IIHDG,297.,,,,*75
$IIHDM,297.,M*1E
$IIGLL,4729.799,N,00222.957,W,132904,A,A*49
$IIZDA,132904,31,10,2016,,*54
$IIVTG,236.,T,,M,00.0,N,00.0,K,A*2D
$IIDPT,0003.2,,*73
$IIDBT,0010.6,f,0003.2,M,,*7F
$IIVLW,0001.0,N,001.35,N*4B
$IIVHW,,,297.,M,00.00,N,00.00,K*13
$IIMWV,175,R,06.2,N,A*14
$IIVWR,175.,R,06.2,N,03.2,M,011.5,K*7A
$IIMWD,,,113.,M,06.1,N,03.1,M*08
$IIMTA,23.4,C*00
$IIMTW,16.8,C*1C
$IIVWT,176.,R,06.1,N,03.1,M,011.3,K*79
$IIHDG,297.,,,,*75
$IIHDM,297.,M*1E
$IIGLL,4729.799,N,00222.957,W,132906,A,A*4B
$IIZDA,132906,31,10,2016,,*56
$IIVTG,236.,T,,M,00.0,N,00.0,K,A*2D
$IIDPT,0003.2,,*73
$IIDBT,0010.6,f,0003.2,M,,*7F
$IIVLW,0001.0,N,001.35,N*4B
$IIVHW,,,297.,M,00.00,N,00.00,K*13
$IIMWV,175,R,06.3,N,A*15
$IIVWR,175.,R,06.3,N,03.2,M,011.7,K*79
$IIMWD,,,112.,M,06.3,N,03.2,M*08
$IIMTA,23.4,C*00
$IIMTW,16.8,C*1C
$IIVWT,175.,R,06.3,N,03.2,M,011.7,K*7F
$IIHDG,297.,,,,*75
$IIHDM,297.,M*1E
$IIGLL,4729.799,N,00222.957,W,132908,A,A*45
$IIZDA,132908,31,10,2016,,*58
$IIVTG,236.,T,,M,00.0,N,00.0,K,A*2D
$IIDPT,0003.2,,*73
$IIDBT,0010.6,f,0003.2,M,,*7F
$IIVLW,0001.0,N,001.35,N*4B
$IIVHW,,,297.,M,00.00,N,00.00,K*13
$IIMWV,174,R,06.5,N,A*12
$IIVWR,174.,R,06.5,N,03.3,M,012.0,K*7B
$IIMWD,,,112.,M,06.3,N,03.2,M*08
$IIMTA,23.4,C*00
$IIMTW,16.8,C*1C
$IIVWT,175.,R,06.3,N,03.2,M,011.7,K*7F
$IIHDG,297.,,,,*75
$IIHDM,297.,M*1E
$IIGLL,4729.799,N,00222.957,W,132908,A,A*45
$IIZDA,132908,31,10,2016,,*58
$IIVTG,236.,T,,M,00.0,N,00.0,K,A*2D
$IIDPT,0003.2,,*73
$IIDBT,0010.6,f,0003.2,M,,*7F
$IIVLW,0001.0,N,001.35,N*4B
$IIVHW,,,297.,M,00.00,N,00.00,K*13
$IIMWV,173,R,06.5,N,A*15
$IIVWR,173.,R,06.5,N,03.3,M,012.0,K*7C
$IIMWD,,,111.,M,06.5,N,03.3,M*0C
$IIMTA,23.4,C*00
$IIMTW,16.8,C*1C
$IIVWT,174.,R,06.5,N,03.3,M,012.0,K*7D
$IIHDG,297.,,,,*75
$IIHDM,297.,M*1E
$IIGLL,4729.799,N,00222.957,W,132910,A,A*4C
$IIZDA,132910,31,10,2016,,*51
$IIVTG,236.,T,,M,00.0,N,00.0,K,A*2D
$IIDPT,0003.2,,*73
$IIDBT,0010.6,f,0003.2,M,,*7F
$IIVLW,0001.0,N,001.35,N*4B
$IIVHW,,,297.,M,00.00,N,00.00,K*13
$IIMWV,172,R,06.6,N,A*17
$IIVWR,172.,R,06.6,N,03.4,M,012.2,K*7B
$IIMWD,,,109.,M,06.6,N,03.4,M*01
$IIMTA,23.4,C*00
$IIMTW,16.8,C*1C
$IIVWT,172.,R,06.6,N,03.4,M,012.2,K*7D
$IIHDG,297.,,,,*75
$IIHDM,297.,M*1E
$IIGLL,4729.799,N,00222.957,W,132910,A,A*4C
$IIZDA,132910,31,10,2016,,*51
$IIVTG,236.,T,,M,00.0,N,00.0,K,A*2D
$IIDPT,0003.2,,*73
$IIDBT,0010.6,f,0003.2,M,,*7F
$IIVLW,0001.0,N,001.35,N*4B
$IIVHW,,,297.,M,00.00,N,00.00,K*13
$IIMWV,172,R,06.7,N,A*16
$IIVWR,172.,R,06.7,N,03.4,M,012.4,K*7C
$IIMWD,,,109.,M,06.6,N,03.4,M*01
$IIMTA,23.4,C*00
$IIMTW,16.8,C*1C
$IIVWT,172.,R,06.7,N,03.4,M,012.4,K*7A
$IIHDG,297.,,,,*75
$IIHDM,297.,M*1E
$IIGLL,4729.799,N,00222.957,W,132912,A,A*4E
$IIZDA,132912,31,10,2016,,*53
$IIVTG,236.,T,,M,00.0,N,00.0,K,A*2D
$IIDPT,0003.1,,*70
$IIDBT,0010.3,f,0003.1,M,,*79
$IIVLW,0001.0,N,001.35,N*4B
$IIVHW,,,297.,M,00.00,N,00.00,K*13
$IIMWV,172,R,06.7,N,A*16
$IIVWR,172.,R,06.7,N,03.4,M,012.4,K*7C
$IIMWD,,,109.,M,06.7,N,03.4,M*00
$IIMTA,23.4,C*00
$IIMTW,16.8,C*1C
$IIVWT,172.,R,06.7,N,03.4,M,012.4,K*7A
$IIHDG,297.,,,,*75
$IIHDM,297.,M*1E
$IIGLL,4729.799,N,00222.957,W,132912,A,A*4E
$IIZDA,132912,31,10,2016,,*53
$IIVTG,236.,T,,M,00.0,N,00.0,K,A*2D
$IIDPT,0003.2,,*73
$IIDBT,0010.6,f,0003.2,M,,*7F
$IIVLW,0001.0,N,001.35,N*4B
$IIVHW,,,297.,M,00.00,N,00.00,K*13
$IIMWV,172,R,06.8,N,A*19
$IIVWR,172.,R,06.8,N,03.5,M,012.6,K*70
$IIMWD,,,109.,M,06.8,N,03.5,M*0E
$IIMTA,23.4,C*00
$IIMTW,16.8,C*1C
$IIVWT,172.,R,06.8,N,03.5,M,012.6,K*76
$IIHDG,297.,,,,*75
$IIHDM,297.,M*1E
$IIGLL,4729.799,N,00222.957,W,132914,A,A*48
$IIZDA,132914,31,10,2016,,*55
$IIVTG,236.,T,,M,00.0,N,00.0,K,A*2D
$IIDPT,0003.2,,*73
$IIDBT,0010.6,f,0003.2,M,,*7F
$IIVLW,0001.0,N,001.35,N*4B
$IIVHW,,,297.,M,00.00,N,00.00,K*13
$IIMWV,172,R,06.9,N,A*18
$IIVWR,172.,R,06.9,N,03.5,M,012.8,K*7F
$IIMWD,,,109.,M,06.9,N,03.5,M*0F
$IIMTA,23.4,C*00
$IIMTW,16.8,C*1C
$IIVWT,172.,R,06.9,N,03.5,M,012.8,K*79
$IIHDG,297.,,,,*75
$IIHDM,297.,M*1E
$IIGLL,4729.799,N,00222.957,W,132914,A,A*48
$IIZDA,132914,31,10,2016,,*55
$IIVTG,236.,T,,M,00.0,N,00.0,K,A*2D
$IIDPT,0003.2,,*73
$IIDBT,0010.6,f,0003.2,M,,*7F
$IIVLW,0001.0,N,001.35,N*4B
$IIVHW,,,297.,M,00.00,N,00.00,K*13
$IIMWV,173,R,07.0,N,A*11
$IIVWR,173.,R,07.0,N,03.6,M,013.0,K*7C
$IIMWD,,,109.,M,06.9,N,03.5,M*0F
$IIMTA,23.4,C*00
$IIMTW,16.8,C*1C
$IIVWT,172.,R,06.9,N,03.5,M,012.8,K*79
$IIHDG,297.,,,,*75
$IIHDM,297.,M*1E
$IIGLL,4729.799,N,00222.957,W,132916,A,A*4A
$IIZDA,132916,31,10,2016,,*57
$IIVTG,236.,T,,M,00.0,N,00.0,K,A*2D
$IIDPT,0003.2,,*73
$IIDBT,0010.6,f,0003.2,M,,*7F
$IIVLW,0001.0,N,001.35,N*4B
$IIVHW,,,297.,M,00.00,N,00.00,K*13
$IIMWV,174,R,07.0,N,A*16
$IIVWR,174.,R,07.0,N,03.6,M,013.0,K*7B
$IIMWD,,,110.,M,07.0,N,03.6,M*0C
$IIMTA,23.4,C*00
$IIMTW,16.8,C*1C
$IIVWT,173.,R,07.0,N,03.6,M,013.0,K*7A
$IIHDG,297.,,,,*75
$IIHDM,297.,M*1E
$IIGLL,4729.799,N,00222.957,W,132916,A,A*4A
$IIZDA,132916,31,10,2016,,*57
$IIVTG,236.,T,,M,00.0,N,00.0,K,A*2D
$IIDPT,0003.2,,*73
$IIDBT,0010.6,f,0003.2,M,,*7F
$IIVLW,0001.0,N,001.35,N*4B
$IIVHW,,,297.,M,00.00,N,00.00,K*13
$IIMWV,176,R,07.0,N,A*14
$IIVWR,176.,R,07.0,N,03.6,M,013.0,K*79
$IIMWD,,,111.,M,07.0,N,03.6,M*0D
$IIMTA,23.4,C*00
$IIMTW,16.8,C*1C
$IIVWT,174.,R,07.0,N,03.6,M,013.0,K*7D
$IIHDG,297.,,,,*75
$IIHDM,297.,M*1E
$IIGLL,4729.799,N,00222.957,W,132918,A,A*44
$IIZDA,132918,31,10,2016,,*59
$IIVTG,236.,T,,M,00.0,N,00.0,K,A*2D
$IIDPT,0003.2,,*73
$IIDBT,0010.6,f,0003.2,M,,*7F
$IIVLW,0001.0,N,001.35,N*4B
$IIVHW,,,297.,M,00.00,N,00.00,K*13
$IIMWV,177,R,07.0,N,A*15
$IIVWR,177.,R,07.0,N,03.6,M,013.0,K*78
$IIMWD,,,113.,M,07.0,N,03.6,M*0F
$IIMTA,23.4,C*00
$IIMTW,16.8,C*1C
$IIVWT,176.,R,07.0,N,03.6,M,013.0,K*7F
$IIHDG,297.,,,,*75
$IIHDM,297.,M*1E
$IIGLL,4729.799,N,00222.957,W,132920,A,A*4F
$IIZDA,132920,31,10,2016,,*52
$IIVTG,236.,T,,M,00.0,N,00.0,K,A*2D
$IIDPT,0003.2,,*73
$IIDBT,0010.6,f,0003.2,M,,*7F
$IIVLW,0001.0,N,001.35,N*4B
$IIVHW,,,297.,M,00.00,N,00.00,K*13
$IIMWV,178,R,07.0,N,A*1A
$IIVWR,178.,R,07.0,N,03.6,M,013.0,K*77
$IIMWD,,,114.,M,07.0,N,03.6,M*08
$IIMTA,23.4,C*00
$IIMTW,16.8,C*1C
$IIVWT,177.,R,07.0,N,03.6,M,013.0,K*7E
$IIHDG,296.,,,,*74
$IIHDM,296.,M*1F
$IIGLL,4729.799,N,00222.957,W,132920,A,A*4F
$IIZDA,132920,31,10,2016,,*52
$IIVTG,236.,T,,M,00.0,N,00.0,K,A*2D
$IIDPT,0003.2,,*73
$IIDBT,0010.6,f,0003.2,M,,*7F
$IIVLW,0001.0,N,001.35,N*4B
$IIVHW,,,296.,M,00.00,N,00.00,K*12
$IIMWV,178,R,07.0,N,A*1A
$IIVWR,178.,R,07.0,N,03.6,M,013.0,K*77
$IIMWD,,,115.,M,07.0,N,03.6,M*09
$IIMTA,23.4,C*00
$IIMTW,16.8,C*1C
$IIVWT,178.,R,07.0,N,03.6,M,013.0,K*71
$IIHDG,296.,,,,*74
$IIHDM,296.,M*1F
$IIGLL,4729.799,N,00222.957,W,132922,A,A*4D
$IIZDA,132922,31,10,2016,,*50
$IIVTG,236.,T,,M,00.0,N,00.0,K,A*2D
$IIDPT,0003.2,,*73
$IIDBT,0010.6,f,0003.2,M,,*7F
$IIVLW,0001.0,N,001.35,N*4B
$IIVHW,,,296.,M,00.00,N,00.00,K*12
$IIMWV,179,R,07.1,N,A*1A
$IIVWR,179.,R,07.1,N,03.7,M,013.1,K*77
$IIMWD,,,114.,M,07.0,N,03.6,M*08
$IIMTA,23.4,C*00
$IIMTW,16.8,C*1C
$IIVWT,179.,R,07.1,N,03.7,M,013.1,K*71
$IIHDG,296.,,,,*74
$IIHDM,296.,M*1F
$IIGLL,4729.799,N,00222.957,W,132922,A,A*4D
$IIZDA,132922,31,10,2016,,*50
$IIVTG,236.,T,,M,00.0,N,00.0,K,A*2D
$IIDPT,0003.2,,*73
$IIDBT,0010.6,f,0003.2,M,,*7F
$IIVLW,0001.0,N,001.35,N*4B
$IIVHW,,,297.,M,00.00,N,00.00,K*13
$IIMWV,179,R,07.2,N,A*19
$IIVWR,179.,R,07.2,N,03.7,M,013.3,K*76
$IIMWD,,,115.,M,07.1,N,03.7,M*09
$IIMTA,23.4,C*00
$IIMTW,16.8,C*1C
$IIVWT,179.,R,07.2,N,03.7,M,013.3,K*70
$IIHDG,297.,,,,*75
$IIHDM,297.,M*1E
$IIGLL,4729.799,N,00222.957,W,132924,A,A*4B
$IIZDA,132924,31,10,2016,,*56
$IIVTG,236.,T,,M,00.0,N,00.0,K,A*2D
$IIDPT,0003.2,,*73
$IIDBT,0010.6,f,0003.2,M,,*7F
$IIVLW,0001.0,N,001.35,N*4B
$IIVHW,,,297.,M,00.00,N,00.00,K*13
$IIMWV,179,R,07.5,N,A*1E
$IIVWR,179.,R,07.5,N,03.9,M,013.9,K*75
$IIMWD,,,116.,M,07.3,N,03.8,M*07
$IIMTA,23.4,C*00
$IIMTW,16.8,C*1C
$IIVWT,179.,R,07.3,N,03.8,M,013.5,K*78
$IIHDG,297.,,,,*75
$IIHDM,297.,M*1E
$IIGLL,4729.799,N,00222.957,W,132924,A,A*4B
$IIZDA,132924,31,10,2016,,*56
$IIVTG,236.,T,,M,00.0,N,00.0,K,A*2D
$IIDPT,0003.2,,*73
$IIDBT,0010.6,f,0003.2,M,,*7F
$IIVLW,0001.0,N,001.35,N*4B
$IIVHW,,,297.,M,00.00,N,00.00,K*13
$IIMWV,179,R,07.7,N,A*1C
$IIVWR,179.,R,07.7,N,04.0,M,014.3,K*74
$IIMWD,,,116.,M,07.5,N,03.9,M*00
$IIMTA,23.4,C*00
$IIMTW,16.8,C*1C
$IIVWT,179.,R,07.5,N,03.9,M,013.9,K*73
$IIHDG,297.,,,,*75
$IIHDM,297.,M*1E
$IIGLL,4729.799,N,00222.957,W,132926,A,A*49
$IIZDA,132926,31,10,2016,,*54
$IIVTG,236.,T,,M,00.0,N,00.0,K,A*2D
$IIDPT,0003.2,,*73
$IIDBT,0010.6,f,0003.2,M,,*7F
$IIVLW,0001.0,N,001.35,N*4B
$IIVHW,,,297.,M,00.00,N,00.00,K*13
$IIMWV,179,R,07.8,N,A*13
$IIVWR,179.,R,07.8,N,04.0,M,014.4,K*7C
$IIMWD,,,116.,M,07.8,N,04.0,M*03
$IIMTA,23.4,C*00
$IIMTW,16.8,C*1C
$IIVWT,179.,R,07.8,N,04.0,M,014.4,K*7A
$IIHDG,297.,,,,*75
$IIHDM,297.,M*1E
$IIGLL,4729.799,N,00222.957,W,132926,A,A*49
$IIZDA,132926,31,10,2016,,*54
$IIVTG,236.,T,,M,00.0,N,00.0,K,A*2D
$IIDPT,0003.2,,*73
$IIDBT,0010.6,f,0003.2,M,,*7F
$IIVLW,0001.0,N,001.35,N*4B
$IIVHW,,,297.,M,00.00,N,00.00,K*13
$IIMWV,179,R,07.9,N,A*12
$IIVWR,179.,R,07.9,N,04.1,M,014.6,K*7E
$IIMWD,,,116.,M,07.8,N,04.0,M*03
$IIMTA,23.5,C*01
$IIMTW,16.8,C*1C
$IIVWT,179.,R,07.8,N,04.0,M,014.4,K*7A
$IIHDG,297.,,,,*75
$IIHDM,297.,M*1E
$IIGLL,4729.799,N,00222.957,W,132928,A,A*47
$IIZDA,132928,31,10,2016,,*5A
$IIVTG,236.,T,,M,00.0,N,00.0,K,A*2D
$IIDPT,0003.2,,*73
$IIDBT,0010.6,f,0003.2,M,,*7F
$IIVLW,0001.0,N,001.35,N*4B
$IIVHW,,,297.,M,00.00,N,00.00,K*13
$IIMWV,179,R,08.1,N,A*15
$IIVWR,179.,R,08.1,N,04.2,M,015.0,K*7D
$IIMWD,,,116.,M,07.9,N,04.1,M*03
$IIMTA,23.5,C*01
$IIMTW,16.8,C*1C
$IIVWT,179.,R,07.9,N,04.1,M,014.6,K*78
$IIHDG,296.,,,,*74
$IIHDM,296.,M*1F
$IIGLL,4729.799,N,00222.957,W,132928,A,A*47
$IIZDA,132928,31,10,2016,,*5A
$IIVTG,236.,T,,M,00.0,N,00.0,K,A*2D
$IIDPT,0003.2,,*73
$IIDBT,0010.6,f,0003.2,M,,*7F
$IIVLW,0001.0,N,001.35,N*4B
$IIVHW,,,296.,M,00.00,N,00.00,K*12
$IIMWV,180,R,08.2,N,A*10
$IIVWR,180.,R,08.2,N,04.2,M,015.2,K*7A
$IIMWD,,,115.,M,08.1,N,04.2,M*04
$IIMTA,23.5,C*01
$IIMTW,16.8,C*1C
$IIVWT,179.,R,08.1,N,04.2,M,015.0,K*7B
$IIHDG,296.,,,,*74
$IIHDM,296.,M*1F
$IIGLL,4729.799,N,00222.957,W,132930,A,A*4E
$IIZDA,132930,31,10,2016,,*53
$IIVTG,236.,T,,M,00.0,N,00.0,K,A*2D
$IIDPT,0003.4,,*75
$IIDBT,0011.0,f,0003.4,M,,*7E
$IIVLW,0001.0,N,001.35,N*4B
$IIVHW,,,296.,M,00.00,N,00.00,K*12
$IIMWV,180,R,08.3,N,A*11
$IIVWR,180.,R,08.3,N,04.3,M,015.4,K*7C
$IIMWD,,,116.,M,08.2,N,04.2,M*04
$IIMTA,23.5,C*01
$IIMTW,16.8,C*1C
$IIVWT,180.,R,08.2,N,04.2,M,015.2,K*7C
$IIHDG,296.,,,,*74
$IIHDM,296.,M*1F
$IIGLL,4729.799,N,00222.957,W,132932,A,A*4C
$IIZDA,132932,31,10,2016,,*51
$IIVTG,236.,T,,M,00.0,N,00.0,K,A*2D
$IIDPT,0003.4,,*75
$IIDBT,0011.0,f,0003.4,M,,*7E
$IIVLW,0001.0,N,001.35,N*4B
$IIVHW,,,296.,M,00.00,N,00.00,K*12
$IIMWV,180,R,08.3,N,A*11
$IIVWR,180.,R,08.3,N,04.3,M,015.4,K*7C
$IIMWD,,,116.,M,08.3,N,04.3,M*04
$IIMTA,23.5,C*01
$IIMTW,16.8,C*1C
$IIVWT,180.,R,08.3,N,04.3,M,015.4,K*7A
$IIHDG,296.,,,,*74
$IIHDM,296.,M*1F
$IIGLL,4729.799,N,00222.957,W,132932,A,A*4C
$IIZDA,132932,31,10,2016,,*51
$IIVTG,236.,T,,M,00.0,N,00.0,K,A*2D
$IIDPT,0003.2,,*73
$IIDBT,0010.6,f,0003.2,M,,*7F
$IIVLW,0001.0,N,001.35,N*4B
$IIVHW,,,296.,M,00.00,N,00.00,K*12
$IIMWV,181,R,08.4,N,A*17
$IIVWR,179.,L,08.4,N,04.3,M,015.6,K*61
$IIMWD,,,116.,M,08.3,N,04.3,M*04
$IIMTA,23.5,C*01
$IIMTW,16.8,C*1C
$IIVWT,180.,R,08.3,N,04.3,M,015.4,K*7A
$IIHDG,296.,,,,*74
$IIHDM,296.,M*1F
$IIGLL,4729.799,N,00222.957,W,132934,A,A*4A
$IIZDA,132934,31,10,2016,,*57
$IIVTG,236.,T,,M,00.0,N,00.0,K,A*2D
$IIDPT,0003.2,,*73
$IIDBT,0010.6,f,0003.2,M,,*7F
$IIVLW,0001.0,N,001.35,N*4B
$IIVHW,,,296.,M,00.00,N,00.00,K*12
$IIMWV,181,R,08.5,N,A*16
$IIVWR,179.,L,08.5,N,04.4,M,015.7,K*66
$IIMWD,,,117.,M,08.4,N,04.3,M*02
$IIMTA,23.5,C*01
$IIMTW,16.8,C*1C
$IIVWT,179.,L,08.5,N,04.4,M,015.7,K*60
$IIHDG,296.,,,,*74
$IIHDM,296.,M*1F
$IIGLL,4729.799,N,00222.957,W,132934,A,A*4A
$IIZDA,132934,31,10,2016,,*57
$IIVTG,236.,T,,M,00.0,N,00.0,K,A*2D
$IIDPT,0003.2,,*73
$IIDBT,0010.6,f,0003.2,M,,*7F
$IIVLW,0001.0,N,001.35,N*4B
$IIVHW,,,296.,M,00.00,N,00.00,K*12
$IIMWV,181,R,08.6,N,A*15
$IIVWR,179.,L,08.6,N,04.4,M,015.9,K*6B
$IIMWD,,,117.,M,08.5,N,04.4,M*04
$IIMTA,23.5,C*01
$IIMTW,16.8,C*1C
$IIVWT,179.,L,08.5,N,04.4,M,015.7,K*60
$IIHDG,296.,,,,*74
$IIHDM,296.,M*1F
$IIGLL,4729.799,N,00222.957,W,132936,A,A*48
$IIZDA,132936,31,10,2016,,*55
$IIVTG,236.,T,,M,00.0,N,00.0,K,A*2D
$IIDPT,0003.2,,*73
$IIDBT,0010.6,f,0003.2,M,,*7F
$IIVLW,0001.0,N,001.35,N*4B
$IIVHW,,,296.,M,00.00,N,00.00,K*12
$IIMWV,182,R,08.7,N,A*17
$IIVWR,178.,L,08.7,N,04.5,M,016.1,K*61
$IIMWD,,,118.,M,08.6,N,04.4,M*08
$IIMTA,23.5,C*01
$IIMTW,16.8,C*1C
$IIVWT,178.,L,08.6,N,04.4,M,015.9,K*6C
$IIHDG,296.,,,,*74
$IIHDM,296.,M*1F
$IIGLL,4729.799,N,00222.957,W,132936,A,A*48
$IIZDA,132936,31,10,2016,,*55
$IIVTG,236.,T,,M,00.0,N,00.0,K,A*2D
$IIDPT,0003.2,,*73
$IIDBT,0010.6,f,0003.2,M,,*7F
$IIVLW,0001.0,N,001.35,N*4B
$IIVHW,,,296.,M,00.00,N,00.00,K*12
$IIMWV,180,R,08.8,N,A*1A
$IIVWR,180.,R,08.8,N,04.5,M,016.3,K*75
$IIMWD,,,117.,M,08.7,N,04.5,M*07
$IIMTA,23.5,C*01
$IIMTW,16.8,C*1C
$IIVWT,179.,L,08.7,N,04.5,M,016.1,K*66
$IIHDG,296.,,,,*74
$IIHDM,296.,M*1F
$IIGLL,4729.799,N,00222.957,W,132938,A,A*46
$IIZDA,132938,31,10,2016,,*5B
$IIVTG,236.,T,,M,00.0,N,00.0,K,A*2D
$IIDPT,0003.2,,*73
$IIDBT,0010.6,f,0003.2,M,,*7F
$IIVLW,0001.0,N,001.35,N*4B
$IIVHW,,,296.,M,00.00,N,00.00,K*12
$IIMWV,180,R,08.8,N,A*1A
$IIVWR,180.,R,08.8,N,04.5,M,016.3,K*75
$IIMWD,,,116.,M,08.8,N,04.5,M*09
$IIMTA,23.5,C*01
$IIMTW,16.8,C*1C
$IIVWT,180.,R,08.8,N,04.5,M,016.3,K*73
$IIHDG,296.,,,,*74
$IIHDM,296.,M*1F
$IIGLL,4729.799,N,00222.957,W,132938,A,A*46
$IIZDA,132938,31,10,2016,,*5B
$IIVTG,236.,T,,M,00.0,N,00.0,K,A*2D
$IIDPT,0003.2,,*73
$IIDBT,0010.6,f,0003.2,M,,*7F
$IIVLW,0001.0,N,001.35,N*4B
$IIVHW,,,296.,M,00.00,N,00.00,K*12
$IIMWV,179,R,08.8,N,A*1C
$IIVWR,179.,R,08.8,N,04.5,M,016.3,K*73
$IIMWD,,,115.,M,08.8,N,04.5,M*0A
$IIMTA,23.5,C*01
$IIMTW,16.8,C*1C
$IIVWT,179.,R,08.8,N,04.5,M,016.3,K*75
$IIHDG,296.,,,,*74
$IIHDM,296.,M*1F
$IIGLL,4729.799,N,00222.957,W,132940,A,A*49
$IIZDA,132940,31,10,2016,,*54
$IIVTG,236.,T,,M,00.0,N,00.0,K,A*2D
$IIDPT,0003.2,,*73
$IIDBT,0010.6,f,0003.2,M,,*7F
$IIVLW,0001.0,N,001.35,N*4B
$IIVHW,,,296.,M,00.00,N,00.00,K*12
$IIMWV,177,R,08.8,N,A*12
$IIVWR,177.,R,08.8,N,04.5,M,016.3,K*7D
$IIMWD,,,115.,M,08.8,N,04.5,M*0A
$IIMTA,23.5,C*01
$IIMTW,16.8,C*1C
$IIVWT,179.,R,08.8,N,04.5,M,016.3,K*75
$IIHDG,296.,,,,*74
$IIHDM,296.,M*1F
$IIGLL,4729.799,N,00222.957,W,132942,A,A*4B
$IIZDA,132942,31,10,2016,,*56
$IIVTG,236.,T,,M,00.0,N,00.0,K,A*2D
$IIDPT,0003.4,,*75
$IIDBT,0011.3,f,0003.4,M,,*7D
$IIVLW,0001.0,N,001.35,N*4B
$IIVHW,,,296.,M,00.00,N,00.00,K*12
$IIMWV,176,R,08.7,N,A*1C
$IIVWR,176.,R,08.7,N,04.5,M,016.1,K*71
$IIMWD,,,113.,M,08.8,N,04.5,M*0C
$IIMTA,23.5,C*01
$IIMTW,16.8,C*1C
$IIVWT,177.,R,08.8,N,04.5,M,016.3,K*7B
$IIHDG,296.,,,,*74
$IIHDM,296.,M*1F
$IIGLL,4729.799,N,00222.957,W,132942,A,A*4B
$IIZDA,132942,31,10,2016,,*56
$IIVTG,236.,T,,M,00.0,N,00.0,K,A*2D
$IIDPT,0003.4,,*75
$IIDBT,0011.0,f,0003.4,M,,*7E
$IIVLW,0001.0,N,001.35,N*4B
$IIVHW,,,296.,M,00.00,N,00.00,K*12
$IIMWV,175,R,08.7,N,A*1F
$IIVWR,175.,R,08.7,N,04.5,M,016.1,K*72
$IIMWD,,,112.,M,08.7,N,04.5,M*02
$IIMTA,23.5,C*01
$IIMTW,16.8,C*1C
$IIVWT,176.,R,08.7,N,04.5,M,016.1,K*77
$IIHDG,296.,,,,*74
$IIHDM,296.,M*1F
$IIGLL,4729.799,N,00222.957,W,132944,A,A*4D
$IIZDA,132944,31,10,2016,,*50
$IIVTG,236.,T,,M,00.0,N,00.0,K,A*2D
$IIDPT,0003.2,,*73
$IIDBT,0010.6,f,0003.2,M,,*7F
$IIVLW,0001.0,N,001.35,N*4B
$IIVHW,,,296.,M,00.00,N,00.00,K*12
$IIMWV,173,R,08.8,N,A*16
$IIVWR,173.,R,08.8,N,04.5,M,016.3,K*79
$IIMWD,,,111.,M,08.7,N,04.5,M*01
$IIMTA,23.5,C*01
$IIMTW,16.8,C*1C
$IIVWT,175.,R,08.7,N,04.5,M,016.1,K*74
$IIHDG,296.,,,,*74
$IIHDM,296.,M*1F
$IIGLL,4729.799,N,00222.957,W,132944,A,A*4D
$IIZDA,132944,31,10,2016,,*50
$IIVTG,236.,T,,M,00.0,N,00.0,K,A*2D
$IIDPT,0003.4,,*75
$IIDBT,0011.0,f,0003.4,M,,*7E
$IIVLW,0001.0,N,001.35,N*4B
$IIVHW,,,296.,M,00.00,N,00.00,K*12
$IIMWV,172,R,08.9,N,A*16
$IIVWR,172.,R,08.9,N,04.6,M,016.5,K*7C
$IIMWD,,,109.,M,08.8,N,04.5,M*07
$IIMTA,23.5,C*01
$IIMTW,16.8,C*1C
$IIVWT,173.,R,08.8,N,04.5,M,016.3,K*7F
$IIHDG,296.,,,,*74
$IIHDM,296.,M*1F
$IIGLL,4729.799,N,00222.957,W,132946,A,A*4F
$IIZDA,132946,31,10,2016,,*52
$IIVTG,236.,T,,M,00.0,N,00.0,K,A*2D
$IIDPT,0003.4,,*75
$IIDBT,0011.0,f,0003.4,M,,*7E
$IIVLW,0001.0,N,001.35,N*4B
$IIVHW,,,296.,M,00.00,N,00.00,K*12
$IIMWV,170,R,08.9,N,A*14
$IIVWR,170.,R,08.9,N,04.6,M,016.5,K*7E
$IIMWD,,,108.,M,08.9,N,04.6,M*04
$IIMTA,23.5,C*01
$IIMTW,16.8,C*1C
$IIVWT,170.,R,08.9,N,04.6,M,016.5,K*78
$IIHDG,296.,,,,*74
$IIHDM,296.,M*1F
$IIGLL,4729.799,N,00222.957,W,132946,A,A*4F
$IIZDA,132946,31,10,2016,,*52
$IIVTG,236.,T,,M,00.0,N,00.0,K,A*2D
$IIDPT,0003.4,,*75
$IIDBT,0011.0,f,0003.4,M,,*7E
$IIVLW,0001.0,N,001.35,N*4B
$IIVHW,,,296.,M,00.00,N,00.00,K*12
$IIMWV,170,R,08.8,N,A*15
$IIVWR,170.,R,08.8,N,04.5,M,016.3,K*7A
$IIMWD,,,106.,M,08.9,N,04.6,M*0A
$IIMTA,23.5,C*01
$IIMTW,16.8,C*1C
$IIVWT,170.,R,08.8,N,04.5,M,016.3,K*7C
$IIHDG,296.,,,,*74
$IIHDM,296.,M*1F
$IIGLL,4729.799,N,00222.957,W,132948,A,A*41
$IIZDA,132948,31,10,2016,,*5C
$IIVTG,236.,T,,M,00.0,N,00.0,K,A*2D
$IIDPT,0003.2,,*73
$IIDBT,0010.6,f,0003.2,M,,*7F
$IIVLW,0001.0,N,001.35,N*4B
$IIVHW,,,296.,M,00.00,N,00.00,K*12
$IIMWV,169,R,08.7,N,A*12
$IIVWR,169.,R,08.7,N,04.5,M,016.1,K*7F
$IIMWD,,,106.,M,08.8,N,04.5,M*08
$IIMTA,23.5,C*01
$IIMTW,16.8,C*1C
$IIVWT,170.,R,08.8,N,04.5,M,016.3,K*7C
$IIHDG,296.,,,,*74
$IIHDM,296.,M*1F
$IIGLL,4729.799,N,00222.957,W,132948,A,A*41
$IIZDA,132948,31,10,2016,,*5C
$IIVTG,236.,T,,M,00.0,N,00.0,K,A*2D
$IIDPT,0003.2,,*73
$IIDBT,0010.6,f,0003.2,M,,*7F
$IIVLW,0001.0,N,001.35,N*4B
$IIVHW,,,296.,M,00.00,N,00.00,K*12
$IIMWV,169,R,08.7,N,A*12
$IIVWR,169.,R,08.7,N,04.5,M,016.1,K*7F
$IIMWD,,,105.,M,08.7,N,04.5,M*04
$IIMTA,23.5,C*01
$IIMTW,16.8,C*1C
$IIVWT,169.,R,08.7,N,04.5,M,016.1,K*79
$IIHDG,296.,,,,*74
$IIHDM,296.,M*1F
$IIGLL,4729.799,N,00222.957,W,132950,A,A*48
$IIZDA,132950,31,10,2016,,*55
$IIVTG,236.,T,,M,00.0,N,00.0,K,A*2D
$IIDPT,0003.2,,*73
$IIDBT,0010.6,f,0003.2,M,,*7F
$IIVLW,0001.0,N,001.35,N*4B
$IIVHW,,,296.,M,00.00,N,00.00,K*12
$IIMWV,168,R,08.6,N,A*12
$IIVWR,168.,R,08.6,N,04.4,M,015.9,K*75
$IIMWD,,,105.,M,08.6,N,04.4,M*04
$IIMTA,23.5,C*01
$IIMTW,16.8,C*1C
$IIVWT,169.,R,08.6,N,04.4,M,015.9,K*72
$IIHDG,296.,,,,*74
$IIHDM,296.,M*1F
$IIGLL,4729.799,N,00222.957,W,132950,A,A*48
$IIZDA,132950,31,10,2016,,*55
$IIVTG,236.,T,,M,00.0,N,00.0,K,A*2D
$IIDPT,0003.4,,*75
$IIDBT,0011.0,f,0003.4,M,,*7E
$IIVLW,0001.0,N,001.35,N*4B
$IIVHW,,,296.,M,00.00,N,00.00,K*12
$IIMWV,168,R,08.5,N,A*11
$IIVWR,168.,R,08.5,N,04.4,M,015.7,K*78
$IIMWD,,,104.,M,08.6,N,04.4,M*05
$IIMTA,23.5,C*01
$IIMTW,16.8,C*1C
$IIVWT,168.,R,08.5,N,04.4,M,015.7,K*7E
$IIHDG,296.,,,,*74
$IIHDM,296.,M*1F
$IIGLL,4729.799,N,00222.957,W,132952,A,A*4A
$IIZDA,132952,31,10,2016,,*57
$IIVTG,236.,T,,M,00.0,N,00.0,K,A*2D
$IIDPT,0003.2,,*73
$IIDBT,0010.6,f,0003.2,M,,*7F
$IIVLW,0001.0,N,001.35,N*4B
$IIVHW,,,296.,M,00.00,N,00.00,K*12
$IIMWV,168,R,08.4,N,A*10
$IIVWR,168.,R,08.4,N,04.3,M,015.6,K*7F
$IIMWD,,,104.,M,08.5,N,04.4,M*06
$IIMTA,23.5,C*01
$IIMTW,16.8,C*1C
$IIVWT,168.,R,08.5,N,04.4,M,015.7,K*7E
$IIHDG,296.,,,,*74
$IIHDM,296.,M*1F
$IIGLL,4729.799,N,00222.957,W,132954,A,A*4C
$IIZDA,132954,31,10,2016,,*51
$IIVTG,236.,T,,M,00.0,N,00.0,K,A*2D
$IIDPT,0003.2,,*73
$IIDBT,0010.6,f,0003.2,M,,*7F
$IIVLW,0001.0,N,001.35,N*4B
$IIVHW,,,296.,M,00.00,N,00.00,K*12
$IIMWV,168,R,08.3,N,A*17
$IIVWR,168.,R,08.3,N,04.3,M,015.4,K*7A
$IIMWD,,,104.,M,08.4,N,04.3,M*00
$IIMTA,23.5,C*01
$IIMTW,16.8,C*1C
$IIVWT,168.,R,08.4,N,04.3,M,015.6,K*79
$IIHDG,296.,,,,*74
$IIHDM,296.,M*1F
$IIGLL,4729.799,N,00222.957,W,132954,A,A*4C
$IIZDA,132954,31,10,2016,,*51
$IIVTG,236.,T,,M,00.0,N,00.0,K,A*2D
$IIDPT,0003.2,,*73
$IIDBT,0010.6,f,0003.2,M,,*7F
$IIVLW,0001.0,N,001.35,N*4B
$IIVHW,,,297.,M,00.00,N,00.00,K*13
$IIMWV,168,R,08.2,N,A*16
$IIVWR,168.,R,08.2,N,04.2,M,015.2,K*7C
$IIMWD,,,105.,M,08.3,N,04.3,M*06
$IIMTA,23.5,C*01
$IIMTW,16.8,C*1C
$IIVWT,168.,R,08.3,N,04.3,M,015.4,K*7C
$IIHDG,297.,,,,*75
$IIHDM,297.,M*1E
$IIGLL,4729.799,N,00222.957,W,132956,A,A*4E
$IIZDA,132956,31,10,2016,,*53
$IIVTG,236.,T,,M,00.0,N,00.0,K,A*2D
$IIDPT,0003.2,,*73
$IIDBT,0010.6,f,0003.2,M,,*7F
$IIVLW,0001.0,N,001.35,N*4B
$IIVHW,,,297.,M,00.00,N,00.00,K*13
$IIMWV,168,R,08.2,N,A*16
$IIVWR,168.,R,08.2,N,04.2,M,015.2,K*7C
$IIMWD,,,105.,M,08.2,N,04.2,M*06
$IIMTA,23.5,C*01
$IIMTW,16.8,C*1C
$IIVWT,168.,R,08.2,N,04.2,M,015.2,K*7A
$IIHDG,297.,,,,*75
$IIHDM,297.,M*1E
$IIGLL,4729.799,N,00222.957,W,132956,A,A*4E
$IIZDA,132956,31,10,2016,,*53
$IIVTG,236.,T,,M,00.0,N,00.0,K,A*2D
$IIDPT,0003.2,,*73
$IIDBT,0010.6,f,0003.2,M,,*7F
$IIVLW,0001.0,N,001.35,N*4B
$IIVHW,,,297.,M,00.00,N,00.00,K*13
$IIMWV,168,R,08.1,N,A*15
$IIVWR,168.,R,08.1,N,04.2,M,015.0,K*7D
$IIMWD,,,105.,M,08.1,N,04.2,M*05
$IIMTA,23.5,C*01
$IIMTW,16.8,C*1C
$IIVWT,168.,R,08.1,N,04.2,M,015.0,K*7B
$IIHDG,297.,,,,*75
$IIHDM,297.,M*1E
$IIGLL,4729.799,N,00222.957,W,132958,A,A*40
$IIZDA,132958,31,10,2016,,*5D
$IIVTG,236.,T,,M,00.0,N,00.0,K,A*2D
$IIDPT,0003.2,,*73
$IIDBT,0010.6,f,0003.2,M,,*7F
$IIVLW,0001.0,N,001.35,N*4B
$IIVHW,,,297.,M,00.00,N,00.00,K*13
$IIMWV,168,R,07.9,N,A*12
$IIVWR,168.,R,07.9,N,04.1,M,014.6,K*7E
$IIMWD,,,105.,M,08.1,N,04.2,M*05
$IIMTA,23.5,C*01
$IIMTW,16.8,C*1C
$IIVWT,168.,R,08.0,N,04.1,M,014.8,K*70
$IIHDG,297.,,,,*75
$IIHDM,297.,M*1E
$IIGLL,4729.799,N,00222.957,W,132958,A,A*40
$IIZDA,132958,31,10,2016,,*5D
$IIVTG,236.,T,,M,00.0,N,00.0,K,A*2D
$IIDPT,0003.2,,*73
$IIDBT,0010.6,f,0003.2,M,,*7F
$IIVLW,0001.0,N,001.35,N*4B
$IIVHW,,,297.,M,00.00,N,00.00,K*13
$IIMWV,168,R,07.9,N,A*12
$IIVWR,168.,R,07.9,N,04.1,M,014.6,K*7E
$IIMWD,,,105.,M,07.9,N,04.1,M*01
$IIMTA,23.5,C*01
$IIMTW,16.8,C*1C
$IIVWT,168.,R,07.9,N,04.1,M,014.6,K*78
$IIHDG,297.,,,,*75
$IIHDM,297.,M*1E
$IIGLL,4729.799,N,00222.957,W,133000,A,A*45
$IIZDA,133000,31,10,2016,,*58
$IIVTG,236.,T,,M,00.0,N,00.0,K,A*2D
$IIDPT,0003.2,,*73
$IIDBT,0010.6,f,0003.2,M,,*7F
$IIVLW,0001.0,N,001.35,N*4B
$IIVHW,,,297.,M,00.00,N,00.00,K*13
$IIMWV,169,R,07.8,N,A*12
$IIVWR,169.,R,07.8,N,04.0,M,014.4,K*7D
$IIMWD,,,105.,M,07.9,N,04.1,M*01
$IIMTA,23.5,C*01
$IIMTW,16.8,C*1C
$IIVWT,168.,R,07.9,N,04.1,M,014.6,K*78
$IIHDG,297.,,,,*75
$IIHDM,297.,M*1E
$IIGLL,4729.799,N,00222.957,W,133000,A,A*45
$IIZDA,133000,31,10,2016,,*58
$IIVTG,236.,T,,M,00.0,N,00.0,K,A*2D
$IIDPT,0003.2,,*73
$IIDBT,0010.6,f,0003.2,M,,*7F
$IIVLW,0001.0,N,001.35,N*4B
$IIVHW,,,297.,M,00.00,N,00.00,K*13
$IIMWV,169,R,07.8,N,A*12
$IIVWR,169.,R,07.8,N,04.0,M,014.4,K*7D
$IIMWD,,,106.,M,07.8,N,04.0,M*02
$IIMTA,23.5,C*01
$IIMTW,16.8,C*1C
$IIVWT,169.,R,07.8,N,04.0,M,014.4,K*7B
$IIHDG,297.,,,,*75
$IIHDM,297.,M*1E
$IIGLL,4729.799,N,00222.957,W,133002,A,A*47
$IIZDA,133002,31,10,2016,,*5A
$IIVTG,236.,T,,M,00.0,N,00.0,K,A*2D
$IIDPT,0003.2,,*73
$IIDBT,0010.6,f,0003.2,M,,*7F
$IIVLW,0001.0,N,001.35,N*4B
$IIVHW,,,297.,M,00.00,N,00.00,K*13
$IIMWV,170,R,07.9,N,A*1B
$IIVWR,170.,R,07.9,N,04.1,M,014.6,K*77
$IIMWD,,,107.,M,07.9,N,04.1,M*03
$IIMTA,23.5,C*01
$IIMTW,16.8,C*1C
$IIVWT,170.,R,07.9,N,04.1,M,014.6,K*71
$IIHDG,297.,,,,*75
$IIHDM,297.,M*1E
$IIGLL,4729.799,N,00222.957,W,133004,A,A*41
$IIZDA,133004,31,10,2016,,*5C
$IIVTG,236.,T,,M,00.0,N,00.0,K,A*2D
$IIDPT,0003.2,,*73
$IIDBT,0010.6,f,0003.2,M,,*7F
$IIVLW,0001.0,N,001.35,N*4B
$IIVHW,,,297.,M,00.00,N,00.00,K*13
$IIMWV,170,R,08.2,N,A*1F
$IIVWR,170.,R,08.2,N,04.2,M,015.2,K*75
$IIMWD,,,107.,M,08.0,N,04.1,M*05
$IIMTA,23.5,C*01
$IIMTW,16.8,C*1C
$IIVWT,170.,R,08.2,N,04.2,M,015.2,K*73
$IIHDG,297.,,,,*75
$IIHDM,297.,M*1E
$IIGLL,4729.799,N,00222.956,W,133004,A,A*40
$IIZDA,133004,31,10,2016,,*5C
$IIVTG,236.,T,,M,00.0,N,00.0,K,A*2D
$IIDPT,0003.2,,*73
$IIDBT,0010.6,f,0003.2,M,,*7F
$IIVLW,0001.0,N,001.35,N*4B
$IIVHW,,,297.,M,00.00,N,00.00,K*13
$IIMWV,170,R,08.3,N,A*1E
$IIVWR,170.,R,08.3,N,04.3,M,015.4,K*73
$IIMWD,,,107.,M,08.2,N,04.2,M*04
$IIMTA,23.5,C*01
$IIMTW,16.8,C*1C
$IIVWT,170.,R,08.3,N,04.3,M,015.4,K*75
$IIHDG,297.,,,,*75
$IIHDM,297.,M*1E
$IIGLL,4729.799,N,00222.956,W,133006,A,A*42
$IIZDA,133006,31,10,2016,,*5E
$IIVTG,236.,T,,M,00.0,N,00.0,K,A*2D
$IIDPT,0003.2,,*73
$IIDBT,0010.6,f,0003.2,M,,*7F
$IIVLW,0001.0,N,001.35,N*4B
$IIVHW,,,297.,M,00.00,N,00.00,K*13
$IIMWV,171,R,08.4,N,A*18
$IIVWR,171.,R,08.4,N,04.3,M,015.6,K*77
$IIMWD,,,108.,M,08.4,N,04.3,M*0C
$IIMTA,23.5,C*01
$IIMTW,16.8,C*1C
$IIVWT,171.,R,08.4,N,04.3,M,015.6,K*71
$IIHDG,297.,,,,*75
$IIHDM,297.,M*1E
$IIGLL,4729.799,N,00222.956,W,133006,A,A*42
$IIZDA,133006,31,10,2016,,*5E
$IIVTG,236.,T,,M,00.0,N,00.0,K,A*2D
$IIDPT,0003.2,,*73
$IIDBT,0010.6,f,0003.2,M,,*7F
$IIVLW,0001.0,N,001.35,N*4B
$IIVHW,,,297.,M,00.00,N,00.00,K*13
$IIMWV,171,R,08.6,N,A*1A
$IIVWR,171.,R,08.6,N,04.4,M,015.9,K*7D
$IIMWD,,,108.,M,08.6,N,04.4,M*09
$IIMTA,23.5,C*01
$IIMTW,16.8,C*1C
$IIVWT,171.,R,08.6,N,04.4,M,015.9,K*7B
$IIHDG,297.,,,,*75
$IIHDM,297.,M*1E
$IIGLL,4729.799,N,00222.956,W,133008,A,A*4C
$IIZDA,133008,31,10,2016,,*50
$IIVTG,236.,T,,M,00.0,N,00.0,K,A*2D
$IIDPT,0003.2,,*73
$IIDBT,0010.6,f,0003.2,M,,*7F
$IIVLW,0001.0,N,001.35,N*4B
$IIVHW,,,297.,M,00.00,N,00.00,K*13
$IIMWV,172,R,08.7,N,A*18
$IIVWR,172.,R,08.7,N,04.5,M,016.1,K*75
$IIMWD,,,109.,M,08.7,N,04.5,M*08
$IIMTA,23.5,C*01
$IIMTW,16.8,C*1C
$IIVWT,172.,R,08.7,N,04.5,M,016.1,K*73
$IIHDG,297.,,,,*75
$IIHDM,297.,M*1E
$IIGLL,4729.799,N,00222.956,W,133008,A,A*4C
$IIZDA,133008,31,10,2016,,*50
$IIVTG,236.,T,,M,00.0,N,00.0,K,A*2D
$IIDPT,0003.2,,*73
$IIDBT,0010.6,f,0003.2,M,,*7F
$IIVLW,0001.0,N,001.35,N*4B
$IIVHW,,,297.,M,00.00,N,00.00,K*13
$IIMWV,173,R,09.0,N,A*1F
$IIVWR,173.,R,09.0,N,04.6,M,016.7,K*77
$IIMWD,,,110.,M,09.0,N,04.6,M*05
$IIMTA,23.5,C*01
$IIMTW,16.8,C*1C
$IIVWT,173.,R,09.0,N,04.6,M,016.7,K*71
$IIHDG,296.,,,,*74
$IIHDM,296.,M*1F
$IIGLL,4729.799,N,00222.956,W,133010,A,A*45
$IIZDA,133010,31,10,2016,,*59
$IIVTG,236.,T,,M,00.0,N,00.0,K,A*2D
$IIDPT,0003.2,,*73
$IIDBT,0010.6,f,0003.2,M,,*7F
$IIVLW,0001.0,N,001.35,N*4B
$IIVHW,,,296.,M,00.00,N,00.00,K*12
$IIMWV,173,R,09.2,N,A*1D
$IIVWR,173.,R,09.2,N,04.7,M,017.0,K*72
$IIMWD,,,109.,M,09.1,N,04.7,M*0D
$IIMTA,23.5,C*01
$IIMTW,16.8,C*1C
$IIVWT,173.,R,09.1,N,04.7,M,016.9,K*7F
$IIHDG,296.,,,,*74
$IIHDM,296.,M*1F
$IIGLL,4729.799,N,00222.956,W,133010,A,A*45
$IIZDA,133010,31,10,2016,,*59
$IIVTG,236.,T,,M,00.0,N,00.0,K,A*2D
$IIDPT,0003.2,,*73
$IIDBT,0010.6,f,0003.2,M,,*7F
$IIVLW,0001.0,N,001.35,N*4B
$IIVHW,,,296.,M,00.00,N,00.00,K*12
$IIMWV,173,R,09.3,N,A*1C
$IIVWR,173.,R,09.3,N,04.8,M,017.2,K*7E
$IIMWD,,,109.,M,09.2,N,04.7,M*0E
$IIMTA,23.5,C*01
$IIMTW,16.8,C*1C
$IIVWT,173.,R,09.2,N,04.7,M,017.0,K*74
$IIHDG,296.,,,,*74
$IIHDM,296.,M*1F
$IIGLL,4729.799,N,00222.956,W,133012,A,A*47
$IIZDA,133012,31,10,2016,,*5B
$IIVTG,236.,T,,M,00.0,N,00.0,K,A*2D
$IIDPT,0003.2,,*73
$IIDBT,0010.6,f,0003.2,M,,*7F
$IIVLW,0001.0,N,001.35,N*4B
$IIVHW,,,296.,M,00.00,N,00.00,K*12
$IIMWV,173,R,09.3,N,A*1C
$IIVWR,173.,R,09.3,N,04.8,M,017.2,K*7E
$IIMWD,,,109.,M,09.3,N,04.8,M*00
$IIMTA,23.5,C*01
$IIMTW,16.8,C*1C
$IIVWT,173.,R,09.3,N,04.8,M,017.2,K*78
$IIHDG,296.,,,,*74
$IIHDM,296.,M*1F
$IIGLL,4729.799,N,00222.956,W,133012,A,A*47
$IIZDA,133012,31,10,2016,,*5B
$IIVTG,236.,T,,M,00.0,N,00.0,K,A*2D
$IIDPT,0003.2,,*73
$IIDBT,0010.6,f,0003.2,M,,*7F
$IIVLW,0001.0,N,001.35,N*4B
$IIVHW,,,296.,M,00.00,N,00.00,K*12
$IIMWV,173,R,09.4,N,A*1B
$IIVWR,173.,R,09.4,N,04.8,M,017.4,K*7F
$IIMWD,,,109.,M,09.4,N,04.8,M*07
$IIMTA,23.5,C*01
$IIMTW,16.8,C*1C
$IIVWT,173.,R,09.4,N,04.8,M,017.4,K*79
$IIHDG,296.,,,,*74
$IIHDM,296.,M*1F
$IIGLL,4729.799,N,00222.956,W,133014,A,A*41
$IIZDA,133014,31,10,2016,,*5D
$IIVTG,236.,T,,M,00.0,N,00.0,K,A*2D
$IIDPT,0003.2,,*73
$IIDBT,0010.6,f,0003.2,M,,*7F
$IIVLW,0001.0,N,001.35,N*4B
$IIVHW,,,296.,M,00.00,N,00.00,K*12
$IIMWV,173,R,09.4,N,A*1B
$IIVWR,173.,R,09.4,N,04.8,M,017.4,K*7F
$IIMWD,,,109.,M,09.4,N,04.8,M*07
$IIMTA,23.5,C*01
$IIMTW,16.8,C*1C
$IIVWT,173.,R,09.4,N,04.8,M,017.4,K*79
$IIHDG,296.,,,,*74
$IIHDM,296.,M*1F
$IIGLL,4729.799,N,00222.956,W,133016,A,A*43
$IIZDA,133016,31,10,2016,,*5F
$IIVTG,236.,T,,M,00.0,N,00.0,K,A*2D
$IIDPT,0003.2,,*73
$IIDBT,0010.6,f,0003.2,M,,*7F
$IIVLW,0001.0,N,001.35,N*4B
$IIVHW,,,296.,M,00.00,N,00.00,K*12
$IIMWV,173,R,09.4,N,A*1B
$IIVWR,173.,R,09.4,N,04.8,M,017.4,K*7F
$IIMWD,,,109.,M,09.4,N,04.8,M*07
$IIMTA,23.6,C*02
$IIMTW,16.8,C*1C
$IIVWT,173.,R,09.4,N,04.8,M,017.4,K*79
$IIHDG,296.,,,,*74
$IIHDM,296.,M*1F
$IIGLL,4729.799,N,00222.956,W,133016,A,A*43
$IIZDA,133016,31,10,2016,,*5F
$IIVTG,236.,T,,M,00.0,N,00.0,K,A*2D
$IIDPT,0003.2,,*73
$IIDBT,0010.6,f,0003.2,M,,*7F
$IIVLW,0001.0,N,001.35,N*4B
$IIVHW,,,296.,M,00.00,N,00.00,K*12
$IIMWV,173,R,09.4,N,A*1B
$IIVWR,173.,R,09.4,N,04.8,M,017.4,K*7F
$IIMWD,,,109.,M,09.4,N,04.8,M*07
$IIMTA,23.6,C*02
$IIMTW,16.8,C*1C
$IIVWT,173.,R,09.4,N,04.8,M,017.4,K*79
$IIHDG,296.,,,,*74
$IIHDM,296.,M*1F
$IIGLL,4729.799,N,00222.956,W,133018,A,A*4D
$IIZDA,133018,31,10,2016,,*51
$IIVTG,236.,T,,M,00.0,N,00.0,K,A*2D
$IIDPT,0003.2,,*73
$IIDBT,0010.6,f,0003.2,M,,*7F
$IIVLW,0001.0,N,001.35,N*4B
$IIVHW,,,296.,M,00.00,N,00.00,K*12
$IIMWV,174,R,09.5,N,A*1D
$IIVWR,174.,R,09.5,N,04.9,M,017.6,K*7A
$IIMWD,,,110.,M,09.5,N,04.9,M*0F
$IIMTA,23.5,C*01
$IIMTW,16.8,C*1C
$IIVWT,174.,R,09.5,N,04.9,M,017.6,K*7C
$IIHDG,296.,,,,*74
$IIHDM,296.,M*1F
$IIGLL,4729.799,N,00222.956,W,133018,A,A*4D
$IIZDA,133018,31,10,2016,,*51
$IIVTG,236.,T,,M,00.0,N,00.0,K,A*2D
$IIDPT,0003.2,,*73
$IIDBT,0010.6,f,0003.2,M,,*7F
$IIVLW,0001.0,N,001.35,N*4B
$IIVHW,,,296.,M,00.00,N,00.00,K*12
$IIMWV,174,R,09.5,N,A*1D
$IIVWR,174.,R,09.5,N,04.9,M,017.6,K*7A
$IIMWD,,,110.,M,09.5,N,04.9,M*0F
$IIMTA,23.5,C*01
$IIMTW,16.8,C*1C
$IIVWT,174.,R,09.5,N,04.9,M,017.6,K*7C
$IIHDG,296.,,,,*74
$IIHDM,296.,M*1F
$IIGLL,4729.799,N,00222.956,W,133020,A,A*46
$IIZDA,133020,31,10,2016,,*5A
$IIVTG,236.,T,,M,00.0,N,00.0,K,A*2D
$IIDPT,0003.2,,*73
$IIDBT,0010.6,f,0003.2,M,,*7F
$IIVLW,0001.0,N,001.35,N*4B
$IIVHW,,,296.,M,00.00,N,00.00,K*12
$IIMWV,175,R,09.5,N,A*1C
$IIVWR,175.,R,09.5,N,04.9,M,017.6,K*7B
$IIMWD,,,111.,M,09.5,N,04.9,M*0E
$IIMTA,23.5,C*01
$IIMTW,16.8,C*1C
$IIVWT,175.,R,09.5,N,04.9,M,017.6,K*7D
$IIHDG,296.,,,,*74
$IIHDM,296.,M*1F
$IIGLL,4729.799,N,00222.956,W,133020,A,A*46
$IIZDA,133020,31,10,2016,,*5A
$IIVTG,236.,T,,M,00.0,N,00.0,K,A*2D
$IIDPT,0003.2,,*73
$IIDBT,0010.6,f,0003.2,M,,*7F
$IIVLW,0001.0,N,001.35,N*4B
$IIVHW,,,296.,M,00.00,N,00.00,K*12
$IIMWV,177,R,09.4,N,A*1F
$IIVWR,177.,R,09.4,N,04.8,M,017.4,K*7B
$IIMWD,,,112.,M,09.4,N,04.8,M*0D
$IIMTA,23.5,C*01
$IIMTW,16.8,C*1C
$IIVWT,176.,R,09.4,N,04.8,M,017.4,K*7C
$IIHDG,296.,,,,*74
$IIHDM,296.,M*1F
$IIGLL,4729.799,N,00222.956,W,133022,A,A*44
$IIZDA,133022,31,10,2016,,*58
$IIVTG,236.,T,,M,00.0,N,00.0,K,A*2D
$IIDPT,0003.2,,*73
$IIDBT,0010.6,f,0003.2,M,,*7F
$IIVLW,0001.0,N,001.35,N*4B
$IIVHW,,,296.,M,00.00,N,00.00,K*12
$IIMWV,177,R,09.4,N,A*1F
$IIVWR,177.,R,09.4,N,04.8,M,017.4,K*7B
$IIMWD,,,113.,M,09.4,N,04.8,M*0C
$IIMTA,23.5,C*01
$IIMTW,16.8,C*1C
$IIVWT,177.,R,09.4,N,04.8,M,017.4,K*7D
$IIHDG,296.,,,,*74
$IIHDM,296.,M*1F
$IIGLL,4729.799,N,00222.956,W,133022,A,A*44
$IIZDA,133022,31,10,2016,,*58
$IIVTG,236.,T,,M,00.0,N,00.0,K,A*2D
$IIDPT,0003.2,,*73
$IIDBT,0010.6,f,0003.2,M,,*7F
$IIVLW,0001.0,N,001.35,N*4B
$IIVHW,,,296.,M,00.00,N,00.00,K*12
$IIMWV,178,R,09.4,N,A*10
$IIVWR,178.,R,09.4,N,04.8,M,017.4,K*74
$IIMWD,,,113.,M,09.4,N,04.8,M*0C
$IIMTA,23.5,C*01
$IIMTW,16.8,C*1C
$IIVWT,177.,R,09.4,N,04.8,M,017.4,K*7D
$IIHDG,296.,,,,*74
$IIHDM,296.,M*1F
$IIGLL,4729.799,N,00222.956,W,133024,A,A*42
$IIZDA,133024,31,10,2016,,*5E
$IIVTG,236.,T,,M,00.0,N,00.0,K,A*2D
$IIDPT,0003.2,,*73
$IIDBT,0010.6,f,0003.2,M,,*7F
$IIVLW,0001.0,N,001.35,N*4B
$IIVHW,,,296.,M,00.00,N,00.00,K*12
$IIMWV,178,R,09.3,N,A*17
$IIVWR,178.,R,09.3,N,04.8,M,017.2,K*75
$IIMWD,,,114.,M,09.3,N,04.8,M*0C
$IIMTA,23.6,C*02
$IIMTW,16.8,C*1C
$IIVWT,178.,R,09.3,N,04.8,M,017.2,K*73
$IIHDG,296.,,,,*74
$IIHDM,296.,M*1F
$IIGLL,4729.799,N,00222.956,W,133026,A,A*40
$IIZDA,133026,31,10,2016,,*5C
$IIVTG,236.,T,,M,00.0,N,00.0,K,A*2D
$IIDPT,0003.2,,*73
$IIDBT,0010.6,f,0003.2,M,,*7F
$IIVLW,0001.0,N,001.35,N*4B
$IIVHW,,,296.,M,00.00,N,00.00,K*12
$IIMWV,179,R,09.3,N,A*16
$IIVWR,179.,R,09.3,N,04.8,M,017.2,K*74
$IIMWD,,,115.,M,09.3,N,04.8,M*0D
$IIMTA,23.5,C*01
$IIMTW,16.8,C*1C
$IIVWT,179.,R,09.3,N,04.8,M,017.2,K*72
$IIHDG,296.,,,,*74
$IIHDM,296.,M*1F
$IIGLL,4729.799,N,00222.956,W,133026,A,A*40
$IIZDA,133026,31,10,2016,,*5C
$IIVTG,236.,T,,M,00.0,N,00.0,K,A*2D
$IIDPT,0003.4,,*75
$IIDBT,0011.0,f,0003.4,M,,*7E
$IIVLW,0001.0,N,001.35,N*4B
$IIVHW,,,296.,M,00.00,N,00.00,K*12
$IIMWV,179,R,09.2,N,A*17
$IIVWR,179.,R,09.2,N,04.7,M,017.0,K*78
$IIMWD,,,115.,M,09.3,N,04.8,M*0D
$IIMTA,23.5,C*01
$IIMTW,16.8,C*1C
$IIVWT,179.,R,09.3,N,04.8,M,017.2,K*72
$IIHDG,296.,,,,*74
$IIHDM,296.,M*1F
$IIGLL,4729.799,N,00222.956,W,133028,A,A*4E
$IIZDA,133028,31,10,2016,,*52
$IIVTG,236.,T,,M,00.0,N,00.0,K,A*2D
$IIDPT,0003.4,,*75
$IIDBT,0011.0,f,0003.4,M,,*7E
$IIVLW,0001.0,N,001.35,N*4B
$IIVHW,,,296.,M,00.00,N,00.00,K*12
$IIMWV,180,R,09.2,N,A*11
$IIVWR,180.,R,09.2,N,04.7,M,017.0,K*7E
$IIMWD,,,116.,M,09.2,N,04.7,M*00
$IIMTA,23.5,C*01
$IIMTW,16.8,C*1C
$IIVWT,180.,R,09.2,N,04.7,M,017.0,K*78
$IIHDG,296.,,,,*74
$IIHDM,296.,M*1F
$IIGLL,4729.799,N,00222.956,W,133028,A,A*4E
$IIZDA,133028,31,10,2016,,*52
$IIVTG,236.,T,,M,00.0,N,00.0,K,A*2D
$IIDPT,0003.4,,*75
$IIDBT,0011.0,f,0003.4,M,,*7E
$IIVLW,0001.0,N,001.35,N*4B
$IIVHW,,,296.,M,00.00,N,00.00,K*12
$IIMWV,180,R,09.2,N,A*11
$IIVWR,180.,R,09.2,N,04.7,M,017.0,K*7E
$IIMWD,,,116.,M,09.2,N,04.7,M*00
$IIMTA,23.5,C*01
$IIMTW,16.8,C*1C
$IIVWT,180.,R,09.2,N,04.7,M,017.0,K*78
$IIHDG,296.,,,,*74
$IIHDM,296.,M*1F
$IIGLL,4729.799,N,00222.956,W,133030,A,A*47
$IIZDA,133030,31,10,2016,,*5B
$IIVTG,236.,T,,M,00.0,N,00.0,K,A*2D
$IIDPT,0003.2,,*73
$IIDBT,0010.6,f,0003.2,M,,*7F
$IIVLW,0001.0,N,001.35,N*4B
$IIVHW,,,296.,M,00.00,N,00.00,K*12
$IIMWV,181,R,09.2,N,A*10
$IIVWR,179.,L,09.2,N,04.7,M,017.0,K*66
$IIMWD,,,117.,M,09.2,N,04.7,M*01
$IIMTA,23.5,C*01
$IIMTW,16.8,C*1C
$IIVWT,179.,L,09.2,N,04.7,M,017.0,K*60
$IIHDG,296.,,,,*74
$IIHDM,296.,M*1F
$IIGLL,4729.799,N,00222.956,W,133030,A,A*47
$IIZDA,133030,31,10,2016,,*5B
$IIVTG,236.,T,,M,00.0,N,00.0,K,A*2D
$IIDPT,0003.4,,*75
$IIDBT,0011.3,f,0003.4,M,,*7D
$IIVLW,0001.0,N,001.35,N*4B
$IIVHW,,,296.,M,00.00,N,00.00,K*12
$IIMWV,181,R,09.2,N,A*10
$IIVWR,179.,L,09.2,N,04.7,M,017.0,K*66
$IIMWD,,,117.,M,09.2,N,04.7,M*01
$IIMTA,23.5,C*01
$IIMTW,16.8,C*1C
$IIVWT,179.,L,09.2,N,04.7,M,017.0,K*60
$IIHDG,296.,,,,*74
$IIHDM,296.,M*1F
$IIGLL,4729.799,N,00222.956,W,133032,A,A*45
$IIZDA,133032,31,10,2016,,*59
$IIVTG,236.,T,,M,00.0,N,00.0,K,A*2D
$IIDPT,0003.4,,*75
$IIDBT,0011.3,f,0003.4,M,,*7D
$IIVLW,0001.0,N,001.35,N*4B
$IIVHW,,,296.,M,00.00,N,00.00,K*12
$IIMWV,181,R,09.1,N,A*13
$IIVWR,179.,L,09.1,N,04.7,M,016.9,K*6D
$IIMWD,,,117.,M,09.1,N,04.7,M*02
$IIMTA,23.5,C*01
$IIMTW,16.8,C*1C
$IIVWT,179.,L,09.1,N,04.7,M,016.9,K*6B
$IIHDG,296.,,,,*74
$IIHDM,296.,M*1F
$IIGLL,4729.799,N,00222.956,W,133032,A,A*45
$IIZDA,133032,31,10,2016,,*59
$IIVTG,236.,T,,M,00.0,N,00.0,K,A*2D
$IIDPT,0003.4,,*75
$IIDBT,0011.3,f,0003.4,M,,*7D
$IIVLW,0001.0,N,001.35,N*4B
$IIVHW,,,296.,M,00.00,N,00.00,K*12
$IIMWV,182,R,09.0,N,A*11
$IIVWR,178.,L,09.0,N,04.6,M,016.7,K*62
$IIMWD,,,117.,M,09.1,N,04.7,M*02
$IIMTA,23.6,C*02
$IIMTW,16.8,C*1C
$IIVWT,179.,L,09.1,N,04.7,M,016.9,K*6B
$IIHDG,296.,,,,*74
$IIHDM,296.,M*1F
$IIGLL,4729.799,N,00222.956,W,133034,A,A*43
$IIZDA,133034,31,10,2016,,*5F
$IIVTG,236.,T,,M,00.0,N,00.0,K,A*2D
$IIDPT,0003.2,,*73
$IIDBT,0010.6,f,0003.2,M,,*7F
$IIVLW,0001.0,N,001.35,N*4B
$IIVHW,,,296.,M,00.00,N,00.00,K*12
$IIMWV,181,R,09.0,N,A*12
$IIVWR,179.,L,09.0,N,04.6,M,016.7,K*63
$IIMWD,,,118.,M,09.0,N,04.6,M*0D
$IIMTA,23.5,C*01
$IIMTW,16.8,C*1C
$IIVWT,178.,L,09.0,N,04.6,M,016.7,K*64
$IIHDG,296.,,,,*74
$IIHDM,296.,M*1F
$IIGLL,4729.799,N,00222.956,W,133034,A,A*43
$IIZDA,133034,31,10,2016,,*5F
$IIVTG,236.,T,,M,00.0,N,00.0,K,A*2D
$IIDPT,0003.2,,*73
$IIDBT,0010.6,f,0003.2,M,,*7F
$IIVLW,0001.0,N,001.35,N*4B
$IIVHW,,,296.,M,00.00,N,00.00,K*12
$IIMWV,181,R,09.0,N,A*12
$IIVWR,179.,L,09.0,N,04.6,M,016.7,K*63
$IIMWD,,,117.,M,09.0,N,04.6,M*02
$IIMTA,23.5,C*01
$IIMTW,16.8,C*1C
$IIVWT,179.,L,09.0,N,04.6,M,016.7,K*65
$IIHDG,296.,,,,*74
$IIHDM,296.,M*1F
$IIGLL,4729.799,N,00222.956,W,133036,A,A*41
$IIZDA,133036,31,10,2016,,*5D
$IIVTG,236.,T,,M,00.0,N,00.0,K,A*2D
$IIDPT,0003.2,,*73
$IIDBT,0010.6,f,0003.2,M,,*7F
$IIVLW,0001.0,N,001.35,N*4B
$IIVHW,,,296.,M,00.00,N,00.00,K*12
$IIMWV,180,R,08.9,N,A*1B
$IIVWR,180.,R,08.9,N,04.6,M,016.5,K*71
$IIMWD,,,117.,M,08.9,N,04.6,M*0A
$IIMTA,23.5,C*01
$IIMTW,16.8,C*1C
$IIVWT,179.,L,08.9,N,04.6,M,016.5,K*6F
$IIHDG,296.,,,,*74
$IIHDM,296.,M*1F
$IIGLL,4729.799,N,00222.956,W,133038,A,A*4F
$IIZDA,133038,31,10,2016,,*53
$IIVTG,236.,T,,M,00.0,N,00.0,K,A*2D
$IIDPT,0003.2,,*73
$IIDBT,0010.6,f,0003.2,M,,*7F
$IIVLW,0001.0,N,001.35,N*4B
$IIVHW,,,296.,M,00.00,N,00.00,K*12
$IIMWV,180,R,08.9,N,A*1B
$IIVWR,180.,R,08.9,N,04.6,M,016.5,K*71
$IIMWD,,,116.,M,08.9,N,04.6,M*0B
$IIMTA,23.5,C*01
$IIMTW,16.8,C*1C
$IIVWT,180.,R,08.9,N,04.6,M,016.5,K*77
$IIHDG,296.,,,,*74
$IIHDM,296.,M*1F
$IIGLL,4729.799,N,00222.956,W,133038,A,A*4F
$IIZDA,133038,31,10,2016,,*53
$IIVTG,236.,T,,M,00.0,N,00.0,K,A*2D
$IIDPT,0003.2,,*73
$IIDBT,0010.6,f,0003.2,M,,*7F
$IIVLW,0001.0,N,001.35,N*4B
$IIVHW,,,296.,M,00.00,N,00.00,K*12
$IIMWV,179,R,08.8,N,A*1C
$IIVWR,179.,R,08.8,N,04.5,M,016.3,K*73
$IIMWD,,,116.,M,08.8,N,04.5,M*09
$IIMTA,23.5,C*01
$IIMTW,16.8,C*1C
$IIVWT,179.,R,08.8,N,04.5,M,016.3,K*75
$IIHDG,296.,,,,*74
$IIHDM,296.,M*1F
$IIGLL,4729.799,N,00222.956,W,133040,A,A*40
$IIZDA,133040,31,10,2016,,*5C
$IIVTG,236.,T,,M,00.0,N,00.0,K,A*2D
$IIDPT,0003.2,,*73
$IIDBT,0010.6,f,0003.2,M,,*7F
$IIVLW,0001.0,N,001.35,N*4B
$IIVHW,,,296.,M,00.00,N,00.00,K*12
$IIMWV,178,R,08.7,N,A*12
$IIVWR,178.,R,08.7,N,04.5,M,016.1,K*7F
$IIMWD,,,115.,M,08.8,N,04.5,M*0A
$IIMTA,23.5,C*01
$IIMTW,16.8,C*1C
$IIVWT,178.,R,08.6,N,04.4,M,015.9,K*72
$IIHDG,296.,,,,*74
$IIHDM,296.,M*1F
$IIGLL,4729.799,N,00222.956,W,133040,A,A*40
$IIZDA,133040,31,10,2016,,*5C
$IIVTG,236.,T,,M,00.0,N,00.0,K,A*2D
$IIDPT,0003.2,,*73
$IIDBT,0010.6,f,0003.2,M,,*7F
$IIVLW,0001.0,N,001.35,N*4B
$IIVHW,,,296.,M,00.00,N,00.00,K*12
$IIMWV,178,R,08.6,N,A*13
$IIVWR,178.,R,08.6,N,04.4,M,015.9,K*74
$IIMWD,,,114.,M,08.6,N,04.4,M*04
$IIMTA,23.5,C*01
$IIMTW,16.8,C*1C
$IIVWT,178.,R,08.6,N,04.4,M,015.9,K*72
$IIHDG,296.,,,,*74
$IIHDM,296.,M*1F
$IIGLL,4729.799,N,00222.956,W,133042,A,A*42
$IIZDA,133042,31,10,2016,,*5E
$IIVTG,236.,T,,M,00.0,N,00.0,K,A*2D
$IIDPT,0003.2,,*73
$IIDBT,0010.6,f,0003.2,M,,*7F
$IIVLW,0001.0,N,001.35,N*4B
$IIVHW,,,296.,M,00.00,N,00.00,K*12
$IIMWV,177,R,08.6,N,A*1C
$IIVWR,177.,R,08.6,N,04.4,M,015.9,K*7B
$IIMWD,,,113.,M,08.6,N,04.4,M*03
$IIMTA,23.5,C*01
$IIMTW,16.8,C*1C
$IIVWT,177.,R,08.6,N,04.4,M,015.9,K*7D
$IIHDG,296.,,,,*74
$IIHDM,296.,M*1F
$IIGLL,4729.799,N,00222.956,W,133042,A,A*42
$IIZDA,133042,31,10,2016,,*5E
$IIVTG,236.,T,,M,00.0,N,00.0,K,A*2D
$IIDPT,0003.2,,*73
$IIDBT,0010.6,f,0003.2,M,,*7F
$IIVLW,0001.0,N,001.35,N*4B
$IIVHW,,,296.,M,00.00,N,00.00,K*12
$IIMWV,175,R,08.4,N,A*1C
$IIVWR,175.,R,08.4,N,04.3,M,015.6,K*73
$IIMWD,,,111.,M,08.4,N,04.3,M*04
$IIMTA,23.5,C*01
$IIMTW,16.8,C*1C
$IIVWT,175.,R,08.4,N,04.3,M,015.6,K*75
$IIHDG,296.,,,,*74
$IIHDM,296.,M*1F
$IIGLL,4729.799,N,00222.957,W,133044,A,A*45
$IIZDA,133044,31,10,2016,,*58
$IIVTG,236.,T,,M,00.0,N,00.0,K,A*2D
$IIDPT,0003.2,,*73
$IIDBT,0010.6,f,0003.2,M,,*7F
$IIVLW,0001.0,N,001.35,N*4B
$IIVHW,,,296.,M,00.00,N,00.00,K*12
$IIMWV,175,R,08.4,N,A*1C
$IIVWR,175.,R,08.4,N,04.3,M,015.6,K*73
$IIMWD,,,111.,M,08.4,N,04.3,M*04
$IIMTA,23.5,C*01
$IIMTW,16.8,C*1C
$IIVWT,175.,R,08.4,N,04.3,M,015.6,K*75
$IIHDG,296.,,,,*74
$IIHDM,296.,M*1F
$IIGLL,4729.799,N,00222.957,W,133044,A,A*45
$IIZDA,133044,31,10,2016,,*58
$IIVTG,236.,T,,M,00.0,N,00.0,K,A*2D
$IIDPT,0003.2,,*73
$IIDBT,0010.6,f,0003.2,M,,*7F
$IIVLW,0001.0,N,001.35,N*4B
$IIVHW,,,296.,M,00.00,N,00.00,K*12
$IIMWV,174,R,08.3,N,A*1A
$IIVWR,174.,R,08.3,N,04.3,M,015.4,K*77
$IIMWD,,,110.,M,08.3,N,04.3,M*02
$IIMTA,23.5,C*01
$IIMTW,16.8,C*1C
$IIVWT,174.,R,08.3,N,04.3,M,015.4,K*71
$IIHDG,296.,,,,*74
$IIHDM,296.,M*1F
$IIGLL,4729.799,N,00222.957,W,133046,A,A*47
$IIZDA,133046,31,10,2016,,*5A
$IIVTG,236.,T,,M,00.0,N,00.0,K,A*2D
$IIDPT,0003.2,,*73
$IIDBT,0010.6,f,0003.2,M,,*7F
$IIVLW,0001.0,N,001.35,N*4B
$IIVHW,,,296.,M,00.00,N,00.00,K*12
$IIMWV,174,R,08.1,N,A*18
$IIVWR,174.,R,08.1,N,04.2,M,015.0,K*70
$IIMWD,,,111.,M,08.2,N,04.2,M*03
$IIMTA,23.5,C*01
$IIMTW,16.8,C*1C
$IIVWT,175.,R,08.2,N,04.2,M,015.2,K*76
$IIHDG,296.,,,,*74
$IIHDM,296.,M*1F
$IIGLL,4729.799,N,00222.957,W,133046,A,A*47
$IIZDA,133046,31,10,2016,,*5A
$IIVTG,236.,T,,M,00.0,N,00.0,K,A*2D
$IIDPT,0003.2,,*73
$IIDBT,0010.6,f,0003.2,M,,*7F
$IIVLW,0001.0,N,001.35,N*4B
$IIVHW,,,296.,M,00.00,N,00.00,K*12
$IIMWV,174,R,08.1,N,A*18
$IIVWR,174.,R,08.1,N,04.2,M,015.0,K*70
$IIMWD,,,110.,M,08.1,N,04.2,M*01
$IIMTA,23.5,C*01
$IIMTW,16.8,C*1C
$IIVWT,174.,R,08.1,N,04.2,M,015.0,K*76
$IIHDG,296.,,,,*74
$IIHDM,296.,M*1F
$IIGLL,4729.799,N,00222.957,W,133048,A,A*49
$IIZDA,133048,31,10,2016,,*54
$IIVTG,236.,T,,M,00.0,N,00.0,K,A*2D
$IIDPT,0003.1,,*70
$IIDBT,0010.3,f,0003.1,M,,*79
$IIVLW,0001.0,N,001.35,N*4B
$IIVHW,,,296.,M,00.00,N,00.00,K*12
$IIMWV,174,R,08.0,N,A*19
$IIVWR,174.,R,08.0,N,04.1,M,014.8,K*7B
$IIMWD,,,110.,M,08.0,N,04.1,M*03
$IIMTA,23.5,C*01
$IIMTW,16.8,C*1C
$IIVWT,174.,R,08.0,N,04.1,M,014.8,K*7D
$IIHDG,296.,,,,*74
$IIHDM,296.,M*1F
$IIGLL,4729.799,N,00222.957,W,133050,A,A*40
$IIZDA,133050,31,10,2016,,*5D
$IIVTG,236.,T,,M,00.0,N,00.0,K,A*2D
$IIDPT,0003.2,,*73
$IIDBT,0010.6,f,0003.2,M,,*7F
$IIVLW,0001.0,N,001.35,N*4B
$IIVHW,,,296.,M,00.00,N,00.00,K*12
$IIMWV,173,R,07.9,N,A*18
$IIVWR,173.,R,07.9,N,04.1,M,014.6,K*74
$IIMWD,,,110.,M,08.0,N,04.1,M*03
$IIMTA,23.5,C*01
$IIMTW,16.8,C*1C
$IIVWT,174.,R,08.0,N,04.1,M,014.8,K*7D
$IIHDG,296.,,,,*74
$IIHDM,296.,M*1F
$IIGLL,4729.799,N,00222.957,W,133050,A,A*40
$IIZDA,133050,31,10,2016,,*5D
$IIVTG,236.,T,,M,00.0,N,00.0,K,A*2D
$IIDPT,0003.4,,*75
$IIDBT,0011.0,f,0003.4,M,,*7E
$IIVLW,0001.0,N,001.35,N*4B
$IIVHW,,,296.,M,00.00,N,00.00,K*12
$IIMWV,172,R,07.8,N,A*18
$IIVWR,172.,R,07.8,N,04.0,M,014.4,K*77
$IIMWD,,,108.,M,07.8,N,04.0,M*0C
$IIMTA,23.5,C*01
$IIMTW,16.8,C*1C
$IIVWT,171.,R,07.8,N,04.0,M,014.4,K*72
$IIHDG,296.,,,,*74
$IIHDM,296.,M*1F
$IIGLL,4729.799,N,00222.957,W,133052,A,A*42
$IIZDA,133052,31,10,2016,,*5F
$IIVTG,236.,T,,M,00.0,N,00.0,K,A*2D
$IIDPT,0003.2,,*73
$IIDBT,0010.6,f,0003.2,M,,*7F
$IIVLW,0001.0,N,001.35,N*4B
$IIVHW,,,296.,M,00.00,N,00.00,K*12
$IIMWV,171,R,07.8,N,A*1B
$IIVWR,171.,R,07.8,N,04.0,M,014.4,K*74
$IIMWD,,,107.,M,07.8,N,04.0,M*03
$IIMTA,23.5,C*01
$IIMTW,16.8,C*1C
$IIVWT,171.,R,07.8,N,04.0,M,014.4,K*72
$IIHDG,296.,,,,*74
$IIHDM,296.,M*1F
$IIGLL,4729.799,N,00222.957,W,133052,A,A*42
$IIZDA,133052,31,10,2016,,*5F
$IIVTG,236.,T,,M,00.0,N,00.0,K,A*2D
$IIDPT,0003.4,,*75
$IIDBT,0011.0,f,0003.4,M,,*7E
$IIVLW,0001.0,N,001.35,N*4B
$IIVHW,,,296.,M,00.00,N,00.00,K*12
$IIMWV,170,R,07.7,N,A*15
$IIVWR,170.,R,07.7,N,04.0,M,014.3,K*7D
$IIMWD,,,106.,M,07.7,N,04.0,M*0D
$IIMTA,23.5,C*01
$IIMTW,16.8,C*1C
$IIVWT,170.,R,07.7,N,04.0,M,014.3,K*7B
$IIHDG,296.,,,,*74
$IIHDM,296.,M*1F
$IIGLL,4729.799,N,00222.957,W,133054,A,A*44
$IIZDA,133054,31,10,2016,,*59
$IIVTG,236.,T,,M,00.0,N,00.0,K,A*2D
$IIDPT,0003.4,,*75
$IIDBT,0011.3,f,0003.4,M,,*7D
$IIVLW,0001.0,N,001.35,N*4B
$IIVHW,,,296.,M,00.00,N,00.00,K*12
$IIMWV,170,R,07.6,N,A*14
$IIVWR,170.,R,07.6,N,03.9,M,014.1,K*70
$IIMWD,,,106.,M,07.6,N,03.9,M*02
$IIMTA,23.5,C*01
$IIMTW,16.8,C*1C
$IIVWT,170.,R,07.6,N,03.9,M,014.1,K*76
$IIHDG,296.,,,,*74
$IIHDM,296.,M*1F
$IIGLL,4729.799,N,00222.957,W,133054,A,A*44
$IIZDA,133054,31,10,2016,,*59
$IIVTG,236.,T,,M,00.0,N,00.0,K,A*2D
$IIDPT,0003.4,,*75
$IIDBT,0011.3,f,0003.4,M,,*7D
$IIVLW,0001.0,N,001.35,N*4B
$IIVHW,,,296.,M,00.00,N,00.00,K*12
$IIMWV,168,R,07.6,N,A*1D
$IIVWR,168.,R,07.6,N,03.9,M,014.1,K*79
$IIMWD,,,104.,M,07.6,N,03.9,M*00
$IIMTA,23.6,C*02
$IIMTW,16.8,C*1C
$IIVWT,168.,R,07.6,N,03.9,M,014.1,K*7F
$IIHDG,296.,,,,*74
$IIHDM,296.,M*1F
$IIGLL,4729.799,N,00222.957,W,133056,A,A*46
$IIZDA,133056,31,10,2016,,*5B
$IIVTG,236.,T,,M,00.0,N,00.0,K,A*2D
$IIDPT,0003.4,,*75
$IIDBT,0011.3,f,0003.4,M,,*7D
$IIVLW,0001.0,N,001.35,N*4B
$IIVHW,,,296.,M,00.00,N,00.00,K*12
$IIMWV,168,R,07.6,N,A*1D
$IIVWR,168.,R,07.6,N,03.9,M,014.1,K*79
$IIMWD,,,104.,M,07.6,N,03.9,M*00
$IIMTA,23.6,C*02
$IIMTW,16.8,C*1C
$IIVWT,168.,R,07.6,N,03.9,M,014.1,K*7F
$IIHDG,296.,,,,*74
$IIHDM,296.,M*1F
$IIGLL,4729.799,N,00222.957,W,133056,A,A*46
$IIZDA,133056,31,10,2016,,*5B
$IIVTG,236.,T,,M,00.0,N,00.0,K,A*2D
$IIDPT,0003.4,,*75
$IIDBT,0011.0,f,0003.4,M,,*7E
$IIVLW,0001.0,N,001.35,N*4B
$IIVHW,,,296.,M,00.00,N,00.00,K*12
$IIMWV,166,R,07.6,N,A*13
$IIVWR,166.,R,07.6,N,03.9,M,014.1,K*77
$IIMWD,,,103.,M,07.6,N,03.9,M*07
$IIMTA,23.6,C*02
$IIMTW,16.8,C*1C
$IIVWT,167.,R,07.6,N,03.9,M,014.1,K*70
$IIHDG,296.,,,,*74
$IIHDM,296.,M*1F
$IIGLL,4729.799,N,00222.957,W,133058,A,A*48
$IIZDA,133058,31,10,2016,,*55
$IIVTG,236.,T,,M,00.0,N,00.0,K,A*2D
$IIDPT,0003.4,,*75
$IIDBT,0011.0,f,0003.4,M,,*7E
$IIVLW,0001.0,N,001.35,N*4B
$IIVHW,,,296.,M,00.00,N,00.00,K*12
$IIMWV,165,R,07.6,N,A*10
$IIVWR,165.,R,07.6,N,03.9,M,014.1,K*74
$IIMWD,,,101.,M,07.6,N,03.9,M*05
$IIMTA,23.5,C*01
$IIMTW,16.8,C*1C
$IIVWT,165.,R,07.6,N,03.9,M,014.1,K*72
$IIHDG,296.,,,,*74
$IIHDM,296.,M*1F
$IIGLL,4729.799,N,00222.957,W,133058,A,A*48
$IIZDA,133058,31,10,2016,,*55
$IIVTG,236.,T,,M,00.0,N,00.0,K,A*2D
$IIDPT,0003.2,,*73
$IIDBT,0010.6,f,0003.2,M,,*7F
$IIVLW,0001.0,N,001.35,N*4B
$IIVHW,,,296.,M,00.00,N,00.00,K*12
$IIMWV,165,R,07.6,N,A*10
$IIVWR,165.,R,07.6,N,03.9,M,014.1,K*74
$IIMWD,,,101.,M,07.6,N,03.9,M*05
$IIMTA,23.5,C*01
$IIMTW,16.8,C*1C
$IIVWT,165.,R,07.6,N,03.9,M,014.1,K*72
$IIHDG,296.,,,,*74
$IIHDM,296.,M*1F
$IIGLL,4729.799,N,00222.957,W,133100,A,A*44
$IIZDA,133100,31,10,2016,,*59
$IIVTG,236.,T,,M,00.0,N,00.0,K,A*2D
$IIDPT,0003.2,,*73
$IIDBT,0010.6,f,0003.2,M,,*7F
$IIVLW,0001.0,N,001.35,N*4B
$IIVHW,,,296.,M,00.00,N,00.00,K*12
$IIMWV,166,R,07.5,N,A*10
$IIVWR,166.,R,07.5,N,03.9,M,013.9,K*7B
$IIMWD,,,101.,M,07.6,N,03.9,M*05
$IIMTA,23.5,C*01
$IIMTW,16.8,C*1C
$IIVWT,165.,R,07.6,N,03.9,M,014.1,K*72
$IIHDG,296.,,,,*74
$IIHDM,296.,M*1F
$IIGLL,4729.799,N,00222.957,W,133100,A,A*44
$IIZDA,133100,31,10,2016,,*59
$IIVTG,236.,T,,M,00.0,N,00.0,K,A*2D
$IIDPT,0003.4,,*75
$IIDBT,0011.0,f,0003.4,M,,*7E
$IIVLW,0001.0,N,001.35,N*4B
$IIVHW,,,296.,M,00.00,N,00.00,K*12
$IIMWV,167,R,07.4,N,A*10
$IIVWR,167.,R,07.4,N,03.8,M,013.7,K*74
$IIMWD,,,102.,M,07.5,N,03.9,M*05
$IIMTA,23.5,C*01
$IIMTW,16.8,C*1C
$IIVWT,166.,R,07.5,N,03.9,M,013.9,K*7D
$IIHDG,296.,,,,*74
$IIHDM,296.,M*1F
$IIGLL,4729.799,N,00222.957,W,133102,A,A*46
$IIZDA,133102,31,10,2016,,*5B
$IIVTG,236.,T,,M,00.0,N,00.0,K,A*2D
$IIDPT,0003.2,,*73
$IIDBT,0010.6,f,0003.2,M,,*7F
$IIVLW,0001.0,N,001.35,N*4B
$IIVHW,,,296.,M,00.00,N,00.00,K*12
$IIMWV,168,R,07.4,N,A*1F
$IIVWR,168.,R,07.4,N,03.8,M,013.7,K*7B
$IIMWD,,,103.,M,07.4,N,03.8,M*04
$IIMTA,23.5,C*01
$IIMTW,16.8,C*1C
$IIVWT,168.,R,07.4,N,03.8,M,013.7,K*7D
$IIHDG,296.,,,,*74
$IIHDM,296.,M*1F
$IIGLL,4729.799,N,00222.957,W,133104,A,A*40
$IIZDA,133104,31,10,2016,,*5D
$IIVTG,236.,T,,M,00.0,N,00.0,K,A*2D
$IIDPT,0003.2,,*73
$IIDBT,0010.6,f,0003.2,M,,*7F
$IIVLW,0001.0,N,001.35,N*4B
$IIVHW,,,296.,M,00.00,N,00.00,K*12
$IIMWV,168,R,07.4,N,A*1F
$IIVWR,168.,R,07.4,N,03.8,M,013.7,K*7B
$IIMWD,,,104.,M,07.4,N,03.8,M*03
$IIMTA,23.5,C*01
$IIMTW,16.8,C*1C
$IIVWT,168.,R,07.4,N,03.8,M,013.7,K*7D
$IIHDG,296.,,,,*74
$IIHDM,296.,M*1F
$IIGLL,4729.799,N,00222.957,W,133104,A,A*40
$IIZDA,133104,31,10,2016,,*5D
$IIVTG,236.,T,,M,00.0,N,00.0,K,A*2D
$IIDPT,0003.2,,*73
$IIDBT,0010.6,f,0003.2,M,,*7F
$IIVLW,0001.0,N,001.35,N*4B
$IIVHW,,,296.,M,00.00,N,00.00,K*12
$IIMWV,168,R,07.4,N,A*1F
$IIVWR,168.,R,07.4,N,03.8,M,013.7,K*7B
$IIMWD,,,104.,M,07.4,N,03.8,M*03
$IIMTA,23.5,C*01
$IIMTW,16.8,C*1C
$IIVWT,168.,R,07.4,N,03.8,M,013.7,K*7D
$IIHDG,296.,,,,*74
$IIHDM,296.,M*1F
$IIGLL,4729.799,N,00222.957,W,133106,A,A*42
$IIZDA,133106,31,10,2016,,*5F
$IIVTG,236.,T,,M,00.0,N,00.0,K,A*2D
$IIDPT,0003.4,,*75
$IIDBT,0011.0,f,0003.4,M,,*7E
$IIVLW,0001.0,N,001.35,N*4B
$IIVHW,,,296.,M,00.00,N,00.00,K*12
$IIMWV,170,R,07.4,N,A*16
$IIVWR,170.,R,07.4,N,03.8,M,013.7,K*72
$IIMWD,,,105.,M,07.4,N,03.8,M*02
$IIMTA,23.5,C*01
$IIMTW,16.8,C*1C
$IIVWT,169.,R,07.4,N,03.8,M,013.7,K*7C
$IIHDG,296.,,,,*74
$IIHDM,296.,M*1F
$IIGLL,4729.799,N,00222.957,W,133106,A,A*42
$IIZDA,133106,31,10,2016,,*5F
$IIVTG,236.,T,,M,00.0,N,00.0,K,A*2D
$IIDPT,0003.4,,*75
$IIDBT,0011.3,f,0003.4,M,,*7D
$IIVLW,0001.0,N,001.35,N*4B
$IIVHW,,,296.,M,00.00,N,00.00,K*12
$IIMWV,170,R,07.3,N,A*11
$IIVWR,170.,R,07.3,N,03.8,M,013.5,K*77
$IIMWD,,,106.,M,07.3,N,03.8,M*06
$IIMTA,23.5,C*01
$IIMTW,16.8,C*1C
$IIVWT,170.,R,07.3,N,03.8,M,013.5,K*71
$IIHDG,296.,,,,*74
$IIHDM,296.,M*1F
$IIGLL,4729.799,N,00222.957,W,133108,A,A*4C
$IIZDA,133108,31,10,2016,,*51
$IIVTG,236.,T,,M,00.0,N,00.0,K,A*2D
$IIDPT,0003.4,,*75
$IIDBT,0011.0,f,0003.4,M,,*7E
$IIVLW,0001.0,N,001.35,N*4B
$IIVHW,,,296.,M,00.00,N,00.00,K*12
$IIMWV,170,R,07.4,N,A*16
$IIVWR,170.,R,07.4,N,03.8,M,013.7,K*72
$IIMWD,,,106.,M,07.4,N,03.8,M*01
$IIMTA,23.5,C*01
$IIMTW,16.8,C*1C
$IIVWT,170.,R,07.4,N,03.8,M,013.7,K*74
$IIHDG,296.,,,,*74
$IIHDM,296.,M*1F
$IIGLL,4729.799,N,00222.957,W,133108,A,A*4C
$IIZDA,133108,31,10,2016,,*51
$IIVTG,236.,T,,M,00.0,N,00.0,K,A*2D
$IIDPT,0003.4,,*75
$IIDBT,0011.3,f,0003.4,M,,*7D
$IIVLW,0001.0,N,001.35,N*4B
$IIVHW,,,296.,M,00.00,N,00.00,K*12
$IIMWV,170,R,07.4,N,A*16
$IIVWR,170.,R,07.4,N,03.8,M,013.7,K*72
$IIMWD,,,106.,M,07.4,N,03.8,M*01
$IIMTA,23.5,C*01
$IIMTW,16.8,C*1C
$IIVWT,170.,R,07.4,N,03.8,M,013.7,K*74
$IIHDG,296.,,,,*74
$IIHDM,296.,M*1F
$IIGLL,4729.799,N,00222.957,W,133110,A,A*45
$IIZDA,133110,31,10,2016,,*58
$IIVTG,236.,T,,M,00.0,N,00.0,K,A*2D
$IIDPT,0003.4,,*75
$IIDBT,0011.0,f,0003.4,M,,*7E
$IIVLW,0001.0,N,001.35,N*4B
$IIVHW,,,296.,M,00.00,N,00.00,K*12
$IIMWV,170,R,07.4,N,A*16
$IIVWR,170.,R,07.4,N,03.8,M,013.7,K*72
$IIMWD,,,106.,M,07.4,N,03.8,M*01
$IIMTA,23.5,C*01
$IIMTW,16.8,C*1C
$IIVWT,170.,R,07.4,N,03.8,M,013.7,K*74
$IIHDG,296.,,,,*74
$IIHDM,296.,M*1F
$IIGLL,4729.799,N,00222.957,W,133110,A,A*45
$IIZDA,133110,31,10,2016,,*58
$IIVTG,236.,T,,M,00.0,N,00.0,K,A*2D
$IIDPT,0003.2,,*73
$IIDBT,0010.6,f,0003.2,M,,*7F
$IIVLW,0001.0,N,001.35,N*4B
$IIVHW,,,296.,M,00.00,N,00.00,K*12
$IIMWV,171,R,07.4,N,A*17
$IIVWR,171.,R,07.4,N,03.8,M,013.7,K*73
$IIMWD,,,106.,M,07.4,N,03.8,M*01
$IIMTA,23.5,C*01
$IIMTW,16.8,C*1C
$IIVWT,170.,R,07.4,N,03.8,M,013.7,K*74
$IIHDG,296.,,,,*74
$IIHDM,296.,M*1F
$IIGLL,4729.799,N,00222.957,W,133112,A,A*47
$IIZDA,133112,31,10,2016,,*5A
$IIVTG,236.,T,,M,00.0,N,00.0,K,A*2D
$IIDPT,0003.2,,*73
$IIDBT,0010.6,f,0003.2,M,,*7F
$IIVLW,0001.0,N,001.35,N*4B
$IIVHW,,,296.,M,00.00,N,00.00,K*12
$IIMWV,171,R,07.4,N,A*17
$IIVWR,171.,R,07.4,N,03.8,M,013.7,K*73
$IIMWD,,,107.,M,07.4,N,03.8,M*00
$IIMTA,23.5,C*01
$IIMTW,16.8,C*1C
$IIVWT,171.,R,07.4,N,03.8,M,013.7,K*75
$IIHDG,296.,,,,*74
$IIHDM,296.,M*1F
$IIGLL,4729.799,N,00222.957,W,133114,A,A*41
$IIZDA,133114,31,10,2016,,*5C
$IIVTG,236.,T,,M,00.0,N,00.0,K,A*2D
$IIDPT,0003.2,,*73
$IIDBT,0010.6,f,0003.2,M,,*7F
$IIVLW,0001.0,N,001.35,N*4B
$IIVHW,,,296.,M,00.00,N,00.00,K*12
$IIMWV,172,R,07.4,N,A*14
$IIVWR,172.,R,07.4,N,03.8,M,013.7,K*70
$IIMWD,,,107.,M,07.4,N,03.8,M*00
$IIMTA,23.5,C*01
$IIMTW,16.8,C*1C
$IIVWT,171.,R,07.4,N,03.8,M,013.7,K*75
$IIHDG,296.,,,,*74
$IIHDM,296.,M*1F
$IIGLL,4729.799,N,00222.957,W,133114,A,A*41
$IIZDA,133114,31,10,2016,,*5C
$IIVTG,236.,T,,M,00.0,N,00.0,K,A*2D
$IIDPT,0003.2,,*73
$IIDBT,0010.6,f,0003.2,M,,*7F
$IIVLW,0001.0,N,001.35,N*4B
$IIVHW,,,296.,M,00.00,N,00.00,K*12
$IIMWV,174,R,07.4,N,A*12
$IIVWR,174.,R,07.4,N,03.8,M,013.7,K*76
$IIMWD,,,108.,M,07.4,N,03.8,M*0F
$IIMTA,23.5,C*01
$IIMTW,16.8,C*1C
$IIVWT,174.,R,07.4,N,03.8,M,013.7,K*70
$IIHDG,296.,,,,*74
$IIHDM,296.,M*1F
$IIGLL,4729.799,N,00222.957,W,133116,A,A*43
$IIZDA,133116,31,10,2016,,*5E
$IIVTG,236.,T,,M,00.0,N,00.0,K,A*2D
$IIDPT,0003.2,,*73
$IIDBT,0010.6,f,0003.2,M,,*7F
$IIVLW,0001.0,N,001.35,N*4B
$IIVHW,,,296.,M,00.00,N,00.00,K*12
$IIMWV,177,R,07.3,N,A*16
$IIVWR,177.,R,07.3,N,03.8,M,013.5,K*70
$IIMWD,,,110.,M,07.4,N,03.8,M*06
$IIMTA,23.5,C*01
$IIMTW,16.8,C*1C
$IIVWT,175.,R,07.3,N,03.8,M,013.5,K*74
$IIHDG,296.,,,,*74
$IIHDM,296.,M*1F
$IIGLL,4729.799,N,00222.957,W,133116,A,A*43
$IIZDA,133116,31,10,2016,,*5E
$IIVTG,236.,T,,M,00.0,N,00.0,K,A*2D
$IIDPT,0003.4,,*75
$IIDBT,0011.0,f,0003.4,M,,*7E
$IIVLW,0001.0,N,001.35,N*4B
$IIVHW,,,296.,M,00.00,N,00.00,K*12
$IIMWV,178,R,07.2,N,A*18
$IIVWR,178.,R,07.2,N,03.7,M,013.3,K*77
$IIMWD,,,113.,M,07.3,N,03.8,M*02
$IIMTA,23.5,C*01
$IIMTW,16.8,C*1C
$IIVWT,177.,R,07.3,N,03.8,M,013.5,K*76
$IIHDG,296.,,,,*74
$IIHDM,296.,M*1F
$IIGLL,4729.799,N,00222.957,W,133118,A,A*4D
$IIZDA,133118,31,10,2016,,*50
$IIVTG,236.,T,,M,00.0,N,00.0,K,A*2D
$IIDPT,0003.2,,*73
$IIDBT,0010.6,f,0003.2,M,,*7F
$IIVLW,0001.0,N,001.35,N*4B
$IIVHW,,,296.,M,00.00,N,00.00,K*12
$IIMWV,178,R,07.1,N,A*1B
