$GPRMC,193418,A,4714.3396,N,00131.5925,W,0.0,286.0,170614,2.5,W,A*12
$GPRMB,A,,,,,,,,,,,,V,A*1C
$GPGGA,193418,4714.3396,N,00131.5925,W,1,12,3.1,29.1,M,48.5,M,,*65
$GPGSA,A,3,01,03,07,08,11,15,16,18,19,21,27,30,4.3,3.1,2.9*36
$GPGSV,3,1,12,01,01,242,00,03,67,302,00,07,17,293,00,08,16,316,00*7D
$GPGLL,4714.3396,N,00131.5925,W,193418,A,A*52
$GPBOD,,T,,M,,*47
$GPVTG,286.0,T,288.5,M,0.0,N,0.0,K*45
$PGRME,17.0,M,38.5,M,42.1,M*11
$PGRMZ,96,f,3*24
$PGRMM,WGS 84*06
$GPRTE,1,1,c,*37
$GPRMC,193420,A,4714.3396,N,00131.5925,W,0.0,286.0,170614,2.5,W,A*19
$GPRMB,A,,,,,,,,,,,,V,A*1C
$GPGGA,193420,4714.3396,N,00131.5925,W,1,12,3.1,29.1,M,48.5,M,,*6E
$GPGSA,A,3,01,03,07,08,11,15,16,18,19,21,27,30,4.3,3.1,2.9*36
$GPGSV,3,2,12,11,18,258,00,15,04,034,00,16,49,182,00,18,38,064,00*7B
$GPGLL,4714.3396,N,00131.5925,W,193420,A,A*59
$GPBOD,,T,,M,,*47
$GPVTG,286.0,T,288.5,M,0.0,N,0.0,K*45
$PGRME,17.1,M,38.5,M,42.1,M*10
$PGRMZ,96,f,3*24
$PGRMM,WGS 84*06
$GPRTE,1,1,c,*37
$GPRMC,193422,A,4714.3396,N,00131.5925,W,0.0,286.0,170614,2.5,W,A*1B
$GPRMB,A,,,,,,,,,,,,V,A*1C
$GPGGA,193422,4714.3396,N,00131.5925,W,1,12,3.1,29.1,M,48.5,M,,*6C
$GPGSA,A,3,01,03,07,08,11,15,16,18,19,21,27,30,4.3,3.1,2.9*36
$GPGSV,3,3,12,19,55,299,00,21,21,061,00,27,83,028,00,30,11,320,00*71
$GPGLL,4714.3396,N,00131.5925,W,193422,A,A*5B
$GPBOD,,T,,M,,*47
$GPVTG,286.0,T,288.5,M,0.0,N,0.0,K*45
$PGRME,17.1,M,38.5,M,42.1,M*10
$PGRMZ,96,f,3*24
$PGRMM,WGS 84*06
$GPRTE,1,1,c,*37
$GPRMC,193424,A,4714.3396,N,00131.5925,W,0.0,286.0,170614,2.5,W,A*1D
$GPRMB,A,,,,,,,,,,,,V,A*1C
$GPGGA,193424,4714.3396,N,00131.5925,W,1,12,6.8,29.1,M,48.5,M,,*66
$GPGSA,A,3,01,03,07,08,11,15,16,18,19,21,22,30,8.2,6.8,4.6*3B
$GPGSV,3,1,12,01,01,242,00,03,67,302,00,07,17,293,00,08,16,316,00*7D
$GPGLL,4714.3396,N,00131.5925,W,193424,A,A*5D
$GPBOD,,T,,M,,*47
$GPVTG,286.0,T,288.5,M,0.0,N,0.0,K*45
$PGRME,17.1,M,38.5,M,42.1,M*10
$PGRMZ,96,f,3*24
$PGRMM,WGS 84*06
$GPRTE,1,1,c,*37
$GPRMC,193426,A,4714.3396,N,00131.5925,W,0.0,286.0,170614,2.5,W,A*1F
$GPRMB,A,,,,,,,,,,,,V,A*1C
$GPGGA,193426,4714.3396,N,00131.5925,W,1,12,6.8,29.1,M,48.5,M,,*64
$GPGSA,A,3,01,03,07,08,11,15,16,18,19,21,22,30,8.2,6.8,4.6*3B
$GPGSV,3,2,12,11,18,258,00,15,04,034,00,16,49,182,00,18,38,064,00*7B
$GPGLL,4714.3396,N,00131.5925,W,193426,A,A*5F
$GPBOD,,T,,M,,*47
$GPVTG,286.0,T,288.5,M,0.0,N,0.0,K*45
$PGRME,17.1,M,38.5,M,42.1,M*10
$PGRMZ,96,f,3*24
$PGRMM,WGS 84*06
$GPRTE,1,1,c,*37
$GPRMC,193428,A,4714.3396,N,00131.5925,W,0.0,286.0,170614,2.5,W,A*11
$GPRMB,A,,,,,,,,,,,,V,A*1C
$GPGGA,193428,4714.3396,N,00131.5925,W,1,12,3.1,29.1,M,48.5,M,,*66
$GPGSA,A,3,01,03,07,08,11,15,16,18,19,21,27,30,4.3,3.1,2.9*36
$GPGSV,3,3,12,19,56,299,00,21,21,061,00,27,83,028,00,30,11,320,00*72
$GPGLL,4714.3396,N,00131.5925,W,193428,A,A*51
$GPBOD,,T,,M,,*47
$GPVTG,286.0,T,288.5,M,0.0,N,0.0,K*45
$PGRME,17.1,M,38.5,M,42.1,M*10
$PGRMZ,96,f,3*24
$PGRMM,WGS 84*06
$GPRTE,1,1,c,*37
$GPRMC,193430,A,4714.3396,N,00131.5925,W,0.0,286.0,170614,2.5,W,A*18
$GPRMB,A,,,,,,,,,,,,V,A*1C
$GPGGA,193430,4714.3396,N,00131.5925,W,1,12,3.1,29.1,M,48.5,M,,*6F
$GPGSA,A,3,01,03,07,08,11,15,16,18,19,21,27,30,4.3,3.1,2.9*36
$GPGSV,3,1,12,01,01,242,00,03,67,302,00,07,17,293,00,08,16,316,00*7D
$GPGLL,4714.3396,N,00131.5925,W,193430,A,A*58
$GPBOD,,T,,M,,*47
$GPVTG,286.0,T,288.5,M,0.0,N,0.0,K*45
$PGRME,17.1,M,38.5,M,42.1,M*10
$PGRMZ,96,f,3*24
$PGRMM,WGS 84*06
$GPRTE,1,1,c,*37
$GPRMC,193432,A,4714.3396,N,00131.5925,W,0.0,286.0,170614,2.5,W,A*1A
$GPRMB,A,,,,,,,,,,,,V,A*1C
$GPGGA,193432,4714.3396,N,00131.5925,W,1,12,3.1,29.1,M,48.5,M,,*6D
$GPGSA,A,3,01,03,07,08,11,15,16,18,19,21,27,30,4.3,3.1,2.9*36
$GPGSV,3,2,12,11,18,258,00,15,04,034,00,16,49,182,00,18,38,064,00*7B
$GPGLL,4714.3396,N,00131.5925,W,193432,A,A*5A
$GPBOD,,T,,M,,*47
$GPVTG,286.0,T,288.5,M,0.0,N,0.0,K*45
$PGRME,17.1,M,38.5,M,42.1,M*10
$PGRMZ,96,f,3*24
$PGRMM,WGS 84*06
$GPRTE,1,1,c,*37
$GPRMC,193434,A,4714.3396,N,00131.5925,W,0.0,286.0,170614,2.5,W,A*1C
$GPRMB,A,,,,,,,,,,,,V,A*1C
$GPGGA,193434,4714.3396,N,00131.5925,W,1,12,3.1,29.1,M,48.5,M,,*6B
$GPGSA,A,3,01,03,07,08,11,15,16,18,19,21,27,30,4.3,3.1,2.9*36
$GPGSV,3,3,12,19,56,299,00,21,21,061,00,27,83,028,00,30,11,320,00*72
$GPGLL,4714.3396,N,00131.5925,W,193434,A,A*5C
$GPBOD,,T,,M,,*47
$GPVTG,286.0,T,288.5,M,0.0,N,0.0,K*45
$PGRME,17.1,M,38.5,M,42.1,M*10
$PGRMZ,96,f,3*24
$PGRMM,WGS 84*06
$GPRTE,1,1,c,*37
$GPRMC,193436,A,4714.3396,N,00131.5925,W,0.0,286.0,170614,2.5,W,A*1E
$GPRMB,A,,,,,,,,,,,,V,A*1C
$GPGGA,193436,4714.3396,N,00131.5925,W,1,12,6.8,29.1,M,48.5,M,,*65
$GPGSA,A,3,01,03,07,08,11,15,16,18,19,21,22,30,8.2,6.8,4.6*3B
$GPGSV,3,1,12,01,01,242,00,03,67,302,00,07,17,293,00,08,16,316,00*7D
$GPGLL,4714.3396,N,00131.5925,W,193436,A,A*5E
$GPBOD,,T,,M,,*47
$GPVTG,286.0,T,288.5,M,0.0,N,0.0,K*45
$PGRME,17.1,M,38.5,M,42.1,M*10
$PGRMZ,96,f,3*24
$PGRMM,WGS 84*06
$GPRTE,1,1,c,*37
$GPRMC,193438,V,,,,,,,,,,N*57
$GPRMB,V,,,,,,,,,,,,,N*52
$GPRMC,193440,A,4714.3396,N,00131.5925,W,0.0,286.0,170614,2.5,W,A*1F
$GPRMB,A,,,,,,,,,,,,V,A*1C
$GPGGA,193440,4714.3396,N,00131.5925,W,1,12,6.8,29.1,M,48.5,M,,*64
$GPGSA,A,3,01,03,07,08,11,15,16,18,19,21,22,30,8.2,6.8,4.6*3B
$GPGSV,3,2,12,11,18,258,00,15,04,034,00,16,49,182,00,18,38,064,00*7B
$GPGLL,4714.3396,N,00131.5925,W,193440,A,A*5F
$GPBOD,,T,,M,,*47
$GPVTG,286.0,T,288.5,M,0.0,N,0.0,K*45
$PGRME,17.1,M,38.5,M,42.1,M*10
$PGRMZ,96,f,3*24
$PGRMM,WGS 84*06
$GPRTE,1,1,c,*37
$GPRMC,193442,A,4714.3396,N,00131.5925,W,0.0,286.0,170614,2.5,W,A*1D
$GPRMB,A,,,,,,,,,,,,V,A*1C
$GPGGA,193442,4714.3396,N,00131.5925,W,1,12,7.8,29.1,M,48.5,M,,*67
$GPGSA,A,3,01,03,07,08,11,15,16,18,19,21,22,30,9.8,7.8,5.9*3F
$GPGSV,3,3,12,19,55,299,00,21,21,061,00,22,51,119,00,30,11,320,00*78
$GPGLL,4714.3396,N,00131.5925,W,193442,A,A*5D
$GPBOD,,T,,M,,*47
$GPVTG,286.0,T,288.5,M,0.0,N,0.0,K*45
$PGRME,17.1,M,38.5,M,42.1,M*10
$PGRMZ,96,f,3*24
$PGRMM,WGS 84*06
$GPRTE,1,1,c,*37
$GPRMC,193444,A,4714.3396,N,00131.5925,W,0.0,286.0,170614,2.5,W,A*1B
$GPRMB,A,,,,,,,,,,,,V,A*1C
$GPGGA,193444,4714.3396,N,00131.5925,W,1,12,7.8,29.1,M,48.5,M,,*61
$GPGSA,A,3,01,03,07,08,11,15,16,18,19,21,22,30,9.8,7.8,5.9*3F
$GPGSV,3,1,12,01,01,242,00,03,67,302,00,07,17,293,00,08,16,316,00*7D
$GPGLL,4714.3396,N,00131.5925,W,193444,A,A*5B
$GPBOD,,T,,M,,*47
$GPVTG,286.0,T,288.5,M,0.0,N,0.0,K*45
$PGRME,17.1,M,38.5,M,42.1,M*10
$PGRMZ,96,f,3*24
$PGRMM,WGS 84*06
$GPRTE,1,1,c,*37
$GPRMC,193446,A,4714.3396,N,00131.5925,W,0.0,286.0,170614,2.5,W,A*19
$GPRMB,A,,,,,,,,,,,,V,A*1C
$GPGGA,193446,4714.3396,N,00131.5925,W,1,12,3.8,29.1,M,48.5,M,,*67
$GPGSA,A,2,01,03,07,08,11,15,16,18,19,21,22,30,3.9,3.8,1.0*3C
$GPGSV,3,2,12,11,18,258,00,15,04,034,00,16,49,182,00,18,38,064,00*7B
$GPGLL,4714.3396,N,00131.5925,W,193446,A,A*59
$GPBOD,,T,,M,,*47
$GPVTG,286.0,T,288.5,M,0.0,N,0.0,K*45
$PGRME,17.1,M,38.5,M,42.1,M*10
$PGRMZ,96,f,2*25
$PGRMM,WGS 84*06
$GPRTE,1,1,c,*37
$GPRMC,193448,A,4714.3396,N,00131.5925,W,0.0,286.0,170614,2.5,W,A*17
$GPRMB,A,,,,,,,,,,,,V,A*1C
$GPGGA,193448,4714.3396,N,00131.5925,W,1,12,3.8,29.1,M,48.5,M,,*69
$GPGSA,A,2,01,03,07,08,11,15,16,18,19,21,22,30,3.9,3.8,1.0*3C
$GPGSV,3,3,12,19,56,299,00,21,21,061,00,22,51,119,00,30,11,320,00*7B
$GPGLL,4714.3396,N,00131.5925,W,193448,A,A*57
$GPBOD,,T,,M,,*47
$GPVTG,286.0,T,288.5,M,0.0,N,0.0,K*45
$PGRME,17.1,M,38.5,M,42.1,M*10
$PGRMZ,96,f,2*25
$PGRMM,WGS 84*06
$GPRTE,1,1,c,*37
$GPRMC,193452,A,4714.3396,N,00131.5925,W,0.0,286.0,170614,2.5,W,A*1C
$GPRMB,A,,,,,,,,,,,,V,A*1C
$GPGGA,193452,4714.3396,N,00131.5925,W,1,12,4.4,29.1,M,48.5,M,,*69
$GPGSA,A,2,01,03,07,08,11,15,16,18,19,21,22,27,4.5,4.4,1.0*3A
$GPGSV,3,1,12,01,01,242,00,03,67,302,00,07,17,293,00,08,16,316,00*7D
$GPGLL,4714.3396,N,00131.5925,W,193452,A,A*5C
$GPBOD,,T,,M,,*47
$GPVTG,286.0,T,288.5,M,0.0,N,0.0,K*45
$PGRME,17.1,M,38.5,M,42.1,M*10
$PGRMZ,96,f,2*25
$PGRMM,WGS 84*06
$GPRTE,1,1,c,*37
$GPRMC,193454,V,,,,,,,,,,N*5D
$GPRMB,V,,,,,,,,,,,,,N*52
$GPRMC,193456,A,4714.3396,N,00131.5925,W,0.0,286.0,170614,2.5,W,A*18
$GPRMB,A,,,,,,,,,,,,V,A*1C
$GPGGA,193456,4714.3396,N,00131.5925,W,1,12,8.4,29.1,M,48.5,M,,*61
$GPGSA,A,3,01,03,07,08,11,15,16,18,19,21,22,30,9.7,8.4,4.9*32
$GPGSV,3,2,12,11,18,258,00,15,04,034,00,16,49,182,00,18,38,064,00*7B
$GPGLL,4714.3396,N,00131.5925,W,193456,A,A*58
$GPBOD,,T,,M,,*47
$GPVTG,286.0,T,288.5,M,0.0,N,0.0,K*45
$PGRME,17.1,M,38.5,M,42.1,M*10
$PGRMZ,96,f,3*24
$PGRMM,WGS 84*06
$GPRTE,1,1,c,*37
$GPRMC,193458,A,4714.3397,N,00131.5923,W,0.0,286.0,170614,2.5,W,A*11
$GPRMB,A,,,,,,,,,,,,V,A*1C
$GPGGA,193458,4714.3397,N,00131.5923,W,1,12,8.4,29.3,M,48.5,M,,*6A
$GPGSA,A,3,01,03,07,08,11,15,16,18,19,21,22,30,9.7,8.4,4.9*32
$GPGSV,3,3,12,19,56,299,00,21,21,061,00,22,51,119,00,30,11,320,00*7B
$GPGLL,4714.3397,N,00131.5923,W,193458,A,A*51
$GPBOD,,T,,M,,*47
$GPVTG,286.0,T,288.5,M,0.0,N,0.0,K*45
$PGRME,17.0,M,38.4,M,42.0,M*11
$PGRMZ,96,f,3*24
$PGRMM,WGS 84*06
$GPRTE,1,1,c,*37
$GPRMC,193500,A,4714.3397,N,00131.5923,W,0.0,286.0,170614,2.5,W,A*1D
$GPRMB,A,,,,,,,,,,,,V,A*1C
$GPGGA,193500,4714.3397,N,00131.5923,W,1,12,8.4,29.3,M,48.5,M,,*66
$GPGSA,A,3,01,03,07,08,11,15,16,18,19,21,22,30,9.7,8.4,4.9*32
$GPGSV,3,1,12,01,01,242,00,03,67,301,00,07,17,293,00,08,16,316,00*7E
$GPGLL,4714.3397,N,00131.5923,W,193500,A,A*5D
$GPBOD,,T,,M,,*47
$GPVTG,286.0,T,288.5,M,0.0,N,0.0,K*45
$PGRME,17.0,M,38.4,M,42.0,M*11
$PGRMZ,96,f,3*24
$PGRMM,WGS 84*06
$GPRTE,1,1,c,*37
$GPRMC,193502,A,4714.3397,N,00131.5923,W,0.0,286.0,170614,2.5,W,A*1F
$GPRMB,A,,,,,,,,,,,,V,A*1C
$GPGGA,193502,4714.3397,N,00131.5923,W,1,12,8.4,29.3,M,48.5,M,,*64
$GPGSA,A,3,01,03,07,08,11,15,16,18,19,21,22,30,9.7,8.4,4.9*32
$GPGSV,3,2,12,11,18,258,00,15,04,034,00,16,49,182,00,18,38,064,00*7B
$GPGLL,4714.3397,N,00131.5923,W,193502,A,A*5F
$GPBOD,,T,,M,,*47
$GPVTG,286.0,T,288.5,M,0.0,N,0.0,K*45
$PGRME,17.0,M,38.4,M,42.0,M*11
$PGRMZ,96,f,3*24
$PGRMM,WGS 84*06
$GPRTE,1,1,c,*37
$GPRMC,193504,A,4714.3397,N,00131.5923,W,0.0,286.0,170614,2.5,W,A*19
$GPRMB,A,,,,,,,,,,,,V,A*1C
$GPGGA,193504,4714.3397,N,00131.5923,W,1,12,8.4,29.3,M,48.5,M,,*62
$GPGSA,A,3,01,03,07,08,11,15,16,18,19,21,22,30,9.7,8.4,4.9*32
$GPGSV,3,3,12,19,56,299,00,21,21,061,00,22,51,119,00,30,11,320,00*7B
$GPGLL,4714.3397,N,00131.5923,W,193504,A,A*59
$GPBOD,,T,,M,,*47
$GPVTG,286.0,T,288.5,M,0.0,N,0.0,K*45
$PGRME,17.0,M,38.4,M,42.0,M*11
$PGRMZ,96,f,3*24
$PGRMM,WGS 84*06
$GPRTE,1,1,c,*37
$GPRMC,193506,A,4714.3397,N,00131.5923,W,0.0,286.0,170614,2.5,W,A*1B
$GPRMB,A,,,,,,,,,,,,V,A*1C
$GPGGA,193506,4714.3397,N,00131.5923,W,1,12,8.4,29.3,M,48.5,M,,*60
$GPGSA,A,3,01,03,07,08,11,15,16,18,19,21,22,30,9.7,8.4,4.9*32
$GPGSV,3,1,12,01,01,242,00,03,67,301,00,07,17,293,00,08,16,316,00*7E
$GPGLL,4714.3397,N,00131.5923,W,193506,A,A*5B
$GPBOD,,T,,M,,*47
$GPVTG,286.0,T,288.5,M,0.0,N,0.0,K*45
$PGRME,17.0,M,38.4,M,42.0,M*11
$PGRMZ,96,f,3*24
$PGRMM,WGS 84*06
$GPRTE,1,1,c,*37
$GPRMC,193508,A,4714.3397,N,00131.5923,W,0.0,286.0,170614,2.5,W,A*15
$GPRMB,A,,,,,,,,,,,,V,A*1C
$GPGGA,193508,4714.3397,N,00131.5923,W,1,12,8.4,29.3,M,48.5,M,,*6E
$GPGSA,A,3,01,03,07,08,11,15,16,18,19,21,22,30,9.7,8.4,5.0*3A
$GPGSV,3,2,12,11,18,258,00,15,04,033,00,16,48,182,00,18,38,064,00*7D
$GPGLL,4714.3397,N,00131.5923,W,193508,A,A*55
$GPBOD,,T,,M,,*47
$GPVTG,286.0,T,288.5,M,0.0,N,0.0,K*45
$PGRME,17.0,M,38.4,M,42.0,M*11
$PGRMZ,96,f,3*24
$PGRMM,WGS 84*06
$GPRTE,1,1,c,*37
$GPRMC,193510,A,4714.3397,N,00131.5923,W,0.0,286.0,170614,2.5,W,A*1C
$GPRMB,A,,,,,,,,,,,,V,A*1C
$GPGGA,193510,4714.3397,N,00131.5923,W,1,12,8.4,29.3,M,48.5,M,,*67
$GPGSA,A,3,01,03,07,08,11,15,16,18,19,21,22,30,9.8,8.4,5.0*35
$GPGSV,3,3,12,19,56,299,00,21,21,061,00,22,51,119,00,30,11,320,00*7B
$GPGLL,4714.3397,N,00131.5923,W,193510,A,A*5C
$GPBOD,,T,,M,,*47
$GPVTG,286.0,T,288.5,M,0.0,N,0.0,K*45
$PGRME,17.0,M,38.4,M,42.0,M*11
$PGRMZ,96,f,3*24
$PGRMM,WGS 84*06
$GPRTE,1,1,c,*37
$GPRMC,193512,A,4714.3397,N,00131.5923,W,0.0,286.0,170614,2.5,W,A*1E
$GPRMB,A,,,,,,,,,,,,V,A*1C
$GPGGA,193512,4714.3397,N,00131.5923,W,1,12,8.4,29.3,M,48.5,M,,*65
$GPGSA,A,3,01,03,07,08,11,15,16,18,19,21,22,30,9.8,8.4,5.0*35
$GPGSV,3,1,12,01,01,242,00,03,67,301,00,07,17,292,00,08,16,316,00*7F
$GPGLL,4714.3397,N,00131.5923,W,193512,A,A*5E
$GPBOD,,T,,M,,*47
$GPVTG,286.0,T,288.5,M,0.0,N,0.0,K*45
$PGRME,17.0,M,38.4,M,42.0,M*11
$PGRMZ,96,f,3*24
$PGRMM,WGS 84*06
$GPRTE,1,1,c,*37
$GPRMC,193514,A,4714.3397,N,00131.5923,W,0.0,286.0,170614,2.5,W,A*18
$GPRMB,A,,,,,,,,,,,,V,A*1C
$GPGGA,193514,4714.3397,N,00131.5923,W,1,12,8.4,29.3,M,48.5,M,,*63
$GPGSA,A,3,01,03,07,08,11,15,16,18,19,21,22,30,9.8,8.4,5.0*35
$GPGSV,3,2,12,11,18,258,00,15,04,033,00,16,48,182,00,18,38,064,00*7D
$GPGLL,4714.3397,N,00131.5923,W,193514,A,A*58
$GPBOD,,T,,M,,*47
$GPVTG,286.0,T,288.5,M,0.0,N,0.0,K*45
$PGRME,17.0,M,38.4,M,42.0,M*11
$PGRMZ,96,f,3*24
$PGRMM,WGS 84*06
$GPRTE,1,1,c,*37
$GPRMC,193516,A,4714.3397,N,00131.5923,W,0.0,286.0,170614,2.5,W,A*1A
$GPRMB,A,,,,,,,,,,,,V,A*1C
$GPGGA,193516,4714.3397,N,00131.5923,W,1,12,8.4,29.3,M,48.5,M,,*61
$GPGSA,A,3,01,03,07,08,11,15,16,18,19,21,22,30,9.8,8.4,5.0*35
$GPGSV,3,3,12,19,56,299,00,21,21,061,00,22,51,119,00,30,11,320,00*7B
$GPGLL,4714.3397,N,00131.5923,W,193516,A,A*5A
$GPBOD,,T,,M,,*47
$GPVTG,286.0,T,288.5,M,0.0,N,0.0,K*45
$PGRME,17.0,M,38.4,M,42.0,M*11
$PGRMZ,96,f,3*24
$PGRMM,WGS 84*06
$GPRTE,1,1,c,*37
$GPRMC,193518,A,4714.3397,N,00131.5923,W,0.0,286.0,170614,2.5,W,A*14
$GPRMB,A,,,,,,,,,,,,V,A*1C
$GPGGA,193518,4714.3397,N,00131.5923,W,1,12,8.4,29.3,M,48.5,M,,*6F
$GPGSA,A,3,01,03,07,08,11,15,16,18,19,21,22,30,9.8,8.4,5.0*35
$GPGSV,3,1,12,01,01,242,00,03,67,301,00,07,17,292,00,08,16,316,00*7F
$GPGLL,4714.3397,N,00131.5923,W,193518,A,A*54
$GPBOD,,T,,M,,*47
$GPVTG,286.0,T,288.5,M,0.0,N,0.0,K*45
$PGRME,17.0,M,38.4,M,42.0,M*11
$PGRMZ,96,f,3*24
$PGRMM,WGS 84*06
$GPRTE,1,1,c,*37
$GPRMC,193520,A,4714.3397,N,00131.5923,W,0.0,286.0,170614,2.5,W,A*1F
$GPRMB,A,,,,,,,,,,,,V,A*1C
$GPGGA,193520,4714.3397,N,00131.5923,W,1,12,8.4,29.3,M,48.5,M,,*64
$GPGSA,A,3,01,03,07,08,11,15,16,18,19,21,22,30,9.8,8.4,5.0*35
$GPGSV,3,2,12,11,18,259,00,15,04,033,00,16,48,182,00,18,38,063,00*7B
$GPGLL,4714.3397,N,00131.5923,W,193520,A,A*5F
$GPBOD,,T,,M,,*47
$GPVTG,286.0,T,288.5,M,0.0,N,0.0,K*45
$PGRME,17.0,M,38.4,M,42.0,M*11
$PGRMZ,96,f,3*24
$PGRMM,WGS 84*06
$GPRTE,1,1,c,*37
$GPRMC,193522,A,4714.3397,N,00131.5923,W,0.0,286.0,170614,2.5,W,A*1D
$GPRMB,A,,,,,,,,,,,,V,A*1C
$GPGGA,193522,4714.3397,N,00131.5923,W,1,12,8.4,29.3,M,48.5,M,,*66
$GPGSA,A,3,01,03,07,08,11,15,16,18,19,21,22,30,9.8,8.4,5.0*35
$GPGSV,3,3,12,19,56,299,00,21,21,061,00,22,51,119,00,30,11,320,00*7B
$GPGLL,4714.3397,N,00131.5923,W,193522,A,A*5D
$GPBOD,,T,,M,,*47
$GPVTG,286.0,T,288.5,M,0.0,N,0.0,K*45
$PGRME,17.0,M,38.4,M,42.0,M*11
$PGRMZ,96,f,3*24
$PGRMM,WGS 84*06
$GPRTE,1,1,c,*37
$GPRMC,193524,A,4714.3397,N,00131.5923,W,0.0,286.0,170614,2.5,W,A*1B
$GPRMB,A,,,,,,,,,,,,V,A*1C
$GPGGA,193524,4714.3397,N,00131.5923,W,1,12,8.4,29.3,M,48.5,M,,*60
$GPGSA,A,3,01,03,07,08,11,15,16,18,19,21,22,30,9.8,8.4,5.0*35
$GPGSV,3,1,12,01,01,242,00,03,67,301,00,07,17,292,00,08,16,316,00*7F
$GPGLL,4714.3397,N,00131.5923,W,193524,A,A*5B
$GPBOD,,T,,M,,*47
$GPVTG,286.0,T,288.5,M,0.0,N,0.0,K*45
$PGRME,17.1,M,38.4,M,42.1,M*11
$PGRMZ,96,f,3*24
$PGRMM,WGS 84*06
$GPRTE,1,1,c,*37
$GPRMC,193526,A,4714.3397,N,00131.5923,W,0.0,286.0,170614,2.5,W,A*19
$GPRMB,A,,,,,,,,,,,,V,A*1C
$GPGGA,193526,4714.3397,N,00131.5923,W,1,12,8.5,29.3,M,48.5,M,,*63
$GPGSA,A,3,01,03,07,08,11,15,16,18,19,21,22,30,9.8,8.5,5.0*34
$GPGSV,3,2,12,11,18,259,00,15,04,033,00,16,48,182,00,18,38,063,00*7B
$GPGLL,4714.3397,N,00131.5923,W,193526,A,A*59
$GPBOD,,T,,M,,*47
$GPVTG,286.0,T,288.5,M,0.0,N,0.0,K*45
$PGRME,17.0,M,38.4,M,42.0,M*11
$PGRMZ,96,f,3*24
$PGRMM,WGS 84*06
$GPRTE,1,1,c,*37
$GPRMC,193528,A,4714.3397,N,00131.5923,W,0.0,286.0,170614,2.5,W,A*17
$GPRMB,A,,,,,,,,,,,,V,A*1C
$GPGGA,193528,4714.3397,N,00131.5923,W,1,12,8.5,29.3,M,48.5,M,,*6D
$GPGSA,A,3,01,03,07,08,11,15,16,18,19,21,22,30,9.8,8.5,5.0*34
$GPGSV,3,3,12,19,56,299,00,21,20,061,00,22,51,119,00,30,11,320,00*7A
$GPGLL,4714.3397,N,00131.5923,W,193528,A,A*57
$GPBOD,,T,,M,,*47
$GPVTG,286.0,T,288.5,M,0.0,N,0.0,K*45
$PGRME,17.1,M,38.4,M,42.1,M*11
$PGRMZ,96,f,3*24
$PGRMM,WGS 84*06
$GPRTE,1,1,c,*37
$GPRMC,193530,A,4714.3397,N,00131.5923,W,0.0,286.0,170614,2.5,W,A*1E
$GPRMB,A,,,,,,,,,,,,V,A*1C
$GPGGA,193530,4714.3397,N,00131.5923,W,1,12,8.5,29.3,M,48.5,M,,*64
$GPGSA,A,3,01,03,07,08,11,15,16,18,19,21,22,30,9.8,8.5,5.0*34
$GPGSV,3,1,12,01,01,242,00,03,67,301,00,07,17,292,00,08,16,316,00*7F
$GPGLL,4714.3397,N,00131.5923,W,193530,A,A*5E
$GPBOD,,T,,M,,*47
$GPVTG,286.0,T,288.5,M,0.0,N,0.0,K*45
$PGRME,17.1,M,38.4,M,42.1,M*11
$PGRMZ,96,f,3*24
$PGRMM,WGS 84*06
$GPRTE,1,1,c,*37
$GPRMC,193532,A,4714.3397,N,00131.5923,W,0.0,286.0,170614,2.5,W,A*1C
$GPRMB,A,,,,,,,,,,,,V,A*1C
$GPGGA,193532,4714.3397,N,00131.5923,W,1,12,8.5,29.3,M,48.5,M,,*66
$GPGSA,A,3,01,03,07,08,11,15,16,18,19,21,22,30,9.9,8.5,5.0*35
$GPGSV,3,2,12,11,18,259,00,15,04,033,00,16,48,182,00,18,38,063,00*7B
$GPGLL,4714.3397,N,00131.5923,W,193532,A,A*5C
$GPBOD,,T,,M,,*47
$GPVTG,286.0,T,288.5,M,0.0,N,0.0,K*45
$PGRME,17.2,M,38.4,M,42.1,M*12
$PGRMZ,96,f,3*24
$PGRMM,WGS 84*06
$GPRTE,1,1,c,*37
$GPRMC,193534,A,4714.3397,N,00131.5923,W,0.0,286.0,170614,2.5,W,A*1A
$GPRMB,A,,,,,,,,,,,,V,A*1C
$GPGGA,193534,4714.3397,N,00131.5923,W,1,12,8.5,29.3,M,48.5,M,,*60
$GPGSA,A,3,01,03,07,08,11,15,16,18,19,21,22,30,9.9,8.5,5.0*35
$GPGSV,3,3,12,19,56,300,00,21,20,061,00,22,52,117,00,30,11,320,00*76
$GPGLL,4714.3397,N,00131.5923,W,193534,A,A*5A
$GPBOD,,T,,M,,*47
$GPVTG,286.0,T,288.5,M,0.0,N,0.0,K*45
$PGRME,17.2,M,38.5,M,42.1,M*13
$PGRMZ,96,f,3*24
$PGRMM,WGS 84*06
$GPRTE,1,1,c,*37
$GPRMC,193536,A,4714.3397,N,00131.5923,W,0.0,286.0,170614,2.5,W,A*18
$GPRMB,A,,,,,,,,,,,,V,A*1C
$GPGGA,193536,4714.3397,N,00131.5923,W,1,12,8.5,29.3,M,48.5,M,,*62
$GPGSA,A,3,01,03,07,08,11,15,16,18,19,21,22,30,9.9,8.5,5.1*34
$GPGSV,3,1,12,01,01,242,00,03,67,301,00,07,17,292,00,08,16,316,00*7F
$GPGLL,4714.3397,N,00131.5923,W,193536,A,A*58
$GPBOD,,T,,M,,*47
$GPVTG,286.0,T,288.5,M,0.0,N,0.0,K*45
$PGRME,17.3,M,38.5,M,42.2,M*11
$PGRMZ,96,f,3*24
$PGRMM,WGS 84*06
$GPRTE,1,1,c,*37
$GPRMC,193538,A,4714.3397,N,00131.5920,W,0.0,286.0,170614,2.5,W,A*15
$GPRMB,A,,,,,,,,,,,,V,A*1C
$GPGGA,193538,4714.3397,N,00131.5920,W,1,12,8.5,29.3,M,48.5,M,,*6F
$GPGSA,A,3,01,03,07,08,11,15,16,18,19,21,22,30,9.9,8.5,5.1*34
$GPGSV,3,2,12,11,18,259,00,15,04,033,00,16,48,182,00,18,38,063,00*7B
$GPGLL,4714.3397,N,00131.5920,W,193538,A,A*55
$GPBOD,,T,,M,,*47
$GPVTG,286.0,T,288.5,M,0.0,N,0.0,K*45
$PGRME,17.3,M,38.3,M,42.1,M*14
$PGRMZ,96,f,3*24
$PGRMM,WGS 84*06
$GPRTE,1,1,c,*37
