$IIGLL,4720.713,N,00308.950,W,083550,A,A*4A
$IIZDA,083550,26,07,2018,,*5C
$IIVTG,293.,T,,M,00.0,N,00.0,K,A*22
$IIXTE,A,A,0.50,L,N,A,*3D
$IIDPT,0002.4,,*74
$IIDBT,0007.9,f,0002.4,M,,*71
$IIVLW,0397.0,N,001.43,N*46
$IIVHW,,,330.,M,00.00,N,00.00,K*1F
$IIMWV,329,R,04.3,N,A*1C
$IIVWR,031.,L,04.3,N,02.2,M,008.0,K*6A
$IIMWD,,,299.,M,04.3,N,02.2,M*0B
$IIMTA,27.1,C*01
$IIMTW,21.1,C*11
$IIVWT,031.,L,04.3,N,02.2,M,008.0,K*6C
$IIHDG,330.,,,,*79
$IIHDM,330.,M*12
$IIGLL,4720.713,N,00308.950,W,083552,A,A*48
$IIZDA,083552,26,07,2018,,*5E
$IIVTG,293.,T,,M,00.0,N,00.0,K,A*22
$IIXTE,A,A,0.50,L,N,A,*3D
$IIDPT,0002.4,,*74
$IIDBT,0007.9,f,0002.4,M,,*71
$IIVLW,0397.0,N,001.43,N*46
$IIVHW,,,332.,M,00.00,N,00.00,K*1D
$IIMWV,335,R,04.3,N,A*11
$IIVWR,025.,L,04.3,N,02.2,M,008.0,K*6F
$IIMWD,,,306.,M,04.3,N,02.2,M*0C
$IIMTA,27.1,C*01
$IIMTW,21.1,C*11
$IIVWT,025.,L,04.3,N,02.2,M,008.0,K*69
$IIHDG,333.,,,,*7A
$IIHDM,333.,M*11
$IIGLL,4720.713,N,00308.950,W,083552,A,A*48
$IIZDA,083552,26,07,2018,,*5E
$IIVTG,293.,T,,M,00.0,N,00.0,K,A*22
$IIXTE,A,A,0.50,L,N,A,*3D
$IIDPT,0002.4,,*74
$IIDBT,0007.9,f,0002.4,M,,*71
$IIVLW,0397.0,N,001.43,N*46
$IIVHW,,,334.,M,00.00,N,00.00,K*1B
$IIMWV,331,R,04.2,N,A*14
$IIVWR,029.,L,04.2,N,02.2,M,007.8,K*65
$IIMWD,,,303.,M,04.3,N,02.2,M*09
$IIMTA,27.1,C*01
$IIMTW,21.1,C*11
$IIVWT,030.,L,04.3,N,02.2,M,008.0,K*6D
$IIHDG,334.,,,,*7D
$IIHDM,334.,M*16
$IIGLL,4720.713,N,00308.950,W,083554,A,A*4E
$IIZDA,083554,26,07,2018,,*58
$IIVTG,293.,T,,M,00.0,N,00.0,K,A*22
$IIXTE,A,A,0.50,L,N,A,*3D
$IIDPT,0002.4,,*74
$IIDBT,0007.9,f,0002.4,M,,*71
$IIVLW,0397.0,N,001.43,N*46
$IIVHW,,,335.,M,00.00,N,00.00,K*1A
$IIMWV,342,R,04.2,N,A*10
$IIVWR,018.,L,04.2,N,02.2,M,007.8,K*67
$IIMWD,,,305.,M,04.2,N,02.2,M*0E
$IIMTA,27.1,C*01
$IIMTW,21.1,C*11
$IIVWT,018.,L,04.2,N,02.2,M,007.8,K*61
$IIHDG,335.,,,,*7C
$IIHDM,335.,M*17
$IIGLL,4720.713,N,00308.950,W,083556,A,A*4C
$IIZDA,083556,26,07,2018,,*5A
$IIVTG,293.,T,,M,00.0,N,00.0,K,A*22
$IIXTE,A,A,0.50,L,N,A,*3D
$IIDPT,0002.4,,*74
$IIDBT,0007.9,f,0002.4,M,,*71
$IIVLW,0397.0,N,001.43,N*46
$IIVHW,,,336.,M,00.00,N,00.00,K*19
$IIMWV,341,R,04.2,N,A*13
$IIVWR,019.,L,04.2,N,02.2,M,007.8,K*66
$IIMWD,,,317.,M,04.2,N,02.2,M*0D
$IIMTA,27.1,C*01
$IIMTW,21.1,C*11
$IIVWT,019.,L,04.2,N,02.2,M,007.8,K*60
$IIHDG,336.,,,,*7F
$IIHDM,336.,M*14
$IIGLL,4720.713,N,00308.950,W,083556,A,A*4C
$IIZDA,083556,26,07,2018,,*5A
$IIVTG,293.,T,,M,00.0,N,00.0,K,A*22
$IIXTE,A,A,0.50,L,N,A,*3D
$IIDPT,0002.4,,*74
$IIDBT,0007.9,f,0002.4,M,,*71
$IIVLW,0397.0,N,001.43,N*46
$IIVHW,,,338.,M,00.00,N,00.00,K*17
$IIMWV,333,R,04.1,N,A*15
$IIVWR,027.,L,04.1,N,02.1,M,007.6,K*65
$IIMWD,,,310.,M,04.1,N,02.1,M*0A
$IIMTA,27.1,C*01
$IIMTW,21.1,C*11
$IIVWT,027.,L,04.1,N,02.1,M,007.6,K*63
$IIHDG,339.,,,,*70
$IIHDM,339.,M*1B
$IIGLL,4720.713,N,00308.950,W,083558,A,A*42
$IIZDA,083558,26,07,2018,,*54
$IIVTG,293.,T,,M,00.0,N,00.0,K,A*22
$IIXTE,A,A,0.50,L,N,A,*3D
$IIDPT,0002.3,,*73
$IIDBT,0007.6,f,0002.3,M,,*79
$IIVLW,0397.0,N,001.43,N*46
$IIVHW,,,339.,M,00.00,N,00.00,K*16
$IIMWV,336,R,04.1,N,A*10
$IIVWR,024.,L,04.1,N,02.1,M,007.6,K*66
$IIMWD,,,313.,M,04.1,N,02.1,M*09
$IIMTA,27.2,C*02
$IIMTW,21.1,C*11
$IIVWT,026.,L,04.1,N,02.1,M,007.6,K*62
$IIHDG,339.,,,,*70
$IIHDM,339.,M*1B
$IIGLL,4720.713,N,00308.950,W,083600,A,A*4C
$IIZDA,083600,26,07,2018,,*5A
$IIVTG,293.,T,,M,00.0,N,00.0,K,A*22
$IIXTE,A,A,0.50,L,N,A,*3D
$IIDPT,0002.2,,*72
$IIDBT,0007.2,f,0002.2,M,,*7C
$IIVLW,0397.0,N,001.43,N*46
$IIVHW,,,340.,M,00.00,N,00.00,K*18
$IIMWV,335,R,04.0,N,A*12
$IIVWR,025.,L,04.0,N,02.1,M,007.4,K*64
$IIMWD,,,315.,M,04.0,N,02.1,M*0E
$IIMTA,27.2,C*02
$IIMTW,21.1,C*11
$IIVWT,025.,L,04.0,N,02.1,M,007.4,K*62
$IIHDG,341.,,,,*7F
$IIHDM,341.,M*14
$IIGLL,4720.713,N,00308.950,W,083600,A,A*4C
$IIZDA,083600,26,07,2018,,*5A
$IIVTG,293.,T,,M,00.0,N,00.0,K,A*22
$IIXTE,A,A,0.50,L,N,A,*3D
$IIDPT,0002.2,,*72
$IIDBT,0007.2,f,0002.2,M,,*7C
$IIVLW,0397.0,N,001.43,N*46
$IIVHW,,,341.,M,00.00,N,00.00,K*19
$IIMWV,334,R,04.0,N,A*13
$IIVWR,026.,L,04.0,N,02.1,M,007.4,K*67
$IIMWD,,,315.,M,04.0,N,02.1,M*0E
$IIMTA,27.2,C*02
$IIMTW,21.1,C*11
$IIVWT,026.,L,04.0,N,02.1,M,007.4,K*61
$IIHDG,342.,,,,*7C
$IIHDM,342.,M*17
$IIGLL,4720.713,N,00308.950,W,083602,A,A*4E
$IIZDA,083602,26,07,2018,,*58
$IIVTG,293.,T,,M,00.0,N,00.0,K,A*22
$IIXTE,A,A,0.50,L,N,A,*3D
$IIDPT,0002.3,,*73
$IIDBT,0007.6,f,0002.3,M,,*79
$IIVLW,0397.0,N,001.43,N*46
$IIVHW,,,343.,M,00.00,N,00.00,K*1B
$IIMWV,329,R,04.0,N,A*1F
$IIVWR,031.,L,04.0,N,02.1,M,007.4,K*61
$IIMWD,,,311.,M,04.0,N,02.1,M*0A
$IIMTA,27.2,C*02
$IIMTW,21.1,C*11
$IIVWT,031.,L,04.0,N,02.1,M,007.4,K*67
$IIHDG,343.,,,,*7D
$IIHDM,343.,M*16
$IIGLL,4720.713,N,00308.950,W,083602,A,A*4E
$IIZDA,083602,26,07,2018,,*58
$IIVTG,293.,T,,M,00.0,N,00.0,K,A*22
$IIXTE,A,A,0.50,L,N,A,*3D
$IIDPT,0002.3,,*73
$IIDBT,0007.6,f,0002.3,M,,*79
$IIVLW,0397.0,N,001.43,N*46
$IIVHW,,,343.,M,00.00,N,00.00,K*1B
$IIMWV,331,R,04.0,N,A*16
$IIVWR,029.,L,04.0,N,02.1,M,007.4,K*68
$IIMWD,,,310.,M,04.0,N,02.1,M*0B
$IIMTA,27.2,C*02
$IIMTW,21.1,C*11
$IIVWT,033.,L,04.0,N,02.1,M,007.4,K*65
$IIHDG,343.,,,,*7D
$IIHDM,343.,M*16
$IIGLL,4720.713,N,00308.950,W,083604,A,A*48
$IIZDA,083604,26,07,2018,,*5E
$IIVTG,293.,T,,M,00.0,N,00.0,K,A*22
$IIXTE,A,A,0.50,L,N,A,*3D
$IIDPT,0002.2,,*72
$IIDBT,0007.2,f,0002.2,M,,*7C
$IIVLW,0397.0,N,001.43,N*46
$IIVHW,,,343.,M,00.00,N,00.00,K*1B
$IIMWV,322,R,04.0,N,A*14
$IIVWR,038.,L,04.0,N,02.1,M,007.4,K*68
$IIMWD,,,305.,M,04.0,N,02.1,M*0F
$IIMTA,27.2,C*02
$IIMTW,21.1,C*11
$IIVWT,038.,L,04.0,N,02.1,M,007.4,K*6E
$IIHDG,344.,,,,*7A
$IIHDM,344.,M*11
$IIGLL,4720.713,N,00308.950,W,083606,A,A*4A
$IIZDA,083606,26,07,2018,,*5C
$IIVTG,293.,T,,M,00.0,N,00.0,K,A*22
$IIXTE,A,A,0.50,L,N,A,*3D
$IIDPT,0002.3,,*73
$IIDBT,0007.6,f,0002.3,M,,*79
$IIVLW,0397.0,N,001.43,N*46
$IIVHW,,,344.,M,00.00,N,00.00,K*1C
$IIMWV,326,R,03.9,N,A*1E
$IIVWR,034.,L,03.9,N,02.0,M,007.2,K*6D
$IIMWD,,,310.,M,03.9,N,02.0,M*04
$IIMTA,27.2,C*02
$IIMTW,21.1,C*11
$IIVWT,034.,L,03.9,N,02.0,M,007.2,K*6B
$IIHDG,345.,,,,*7B
$IIHDM,345.,M*10
$IIGLL,4720.713,N,00308.950,W,083606,A,A*4A
$IIZDA,083606,26,07,2018,,*5C
$IIVTG,293.,T,,M,00.0,N,00.0,K,A*22
$IIXTE,A,A,0.50,L,N,A,*3D
$IIDPT,0002.2,,*72
$IIDBT,0007.2,f,0002.2,M,,*7C
$IIVLW,0397.0,N,001.43,N*46
$IIVHW,,,345.,M,00.00,N,00.00,K*1D
$IIMWV,342,R,03.9,N,A*1C
$IIVWR,018.,L,03.9,N,02.0,M,007.2,K*63
$IIMTA,27.2,C*02
$IIMTW,21.1,C*11
$IIVWT,018.,L,03.9,N,02.0,M,007.2,K*65
$IIHDG,345.,,,,*7B
$IIHDM,345.,M*10
$IIGLL,4720.713,N,00308.950,W,083608,A,A*44
$IIZDA,083608,26,07,2018,,*52
$IIVTG,293.,T,,M,00.0,N,00.0,K,A*22
$IIXTE,A,A,0.50,L,N,A,*3D
$IIDPT,0002.2,,*72
$IIDBT,0007.2,f,0002.2,M,,*7C
$IIVLW,0397.0,N,001.43,N*46
$IIVHW,,,345.,M,00.00,N,00.00,K*1D
$IIMWV,348,R,03.9,N,A*16
$IIVWR,012.,L,03.9,N,02.0,M,007.2,K*69
$IIMWD,,,333.,M,03.9,N,02.0,M*05
$IIMTA,27.2,C*02
$IIMTW,21.1,C*11
$IIVWT,012.,L,03.9,N,02.0,M,007.2,K*6F
$IIHDG,345.,,,,*7B
$IIHDM,345.,M*10
$IIGLL,4720.713,N,00308.950,W,083610,A,A*4D
$IIZDA,083610,26,07,2018,,*5B
$IIVTG,293.,T,,M,00.0,N,00.0,K,A*22
$IIXTE,A,A,0.50,L,N,A,*3D
$IIDPT,0002.2,,*72
$IIDBT,0007.2,f,0002.2,M,,*7C
$IIVLW,0397.0,N,001.43,N*46
$IIVHW,,,346.,M,00.00,N,00.00,K*1E
$IIMWV,338,R,03.9,N,A*11
$IIVWR,022.,L,03.9,N,02.0,M,007.2,K*6A
$IIMWD,,,324.,M,03.9,N,02.0,M*03
$IIMTA,27.2,C*02
$IIMTW,21.1,C*11
$IIVWT,022.,L,03.9,N,02.0,M,007.2,K*6C
$IIHDG,346.,,,,*78
$IIHDM,346.,M*13
$IIGLL,4720.713,N,00308.950,W,083610,A,A*4D
$IIZDA,083610,26,07,2018,,*5B
$IIVTG,293.,T,,M,00.0,N,00.0,K,A*22
$IIXTE,A,A,0.50,L,N,A,*3D
$IIDPT,0002.2,,*72
$IIDBT,0007.2,f,0002.2,M,,*7C
$IIVLW,0397.0,N,001.43,N*46
$IIVHW,,,345.,M,00.00,N,00.00,K*1D
$IIMWV,342,R,03.9,N,A*1C
$IIVWR,018.,L,03.9,N,02.0,M,007.2,K*63
$IIMWD,,,321.,M,03.9,N,02.0,M*06
$IIMTA,27.2,C*02
$IIMTW,21.1,C*11
$IIVWT,024.,L,03.9,N,02.0,M,007.2,K*6A
$IIHDG,345.,,,,*7B
$IIHDM,344.,M*11
$IIGLL,4720.713,N,00308.950,W,083612,A,A*4F
$IIZDA,083612,26,07,2018,,*59
$IIVTG,293.,T,,M,00.0,N,00.0,K,A*22
$IIXTE,A,A,0.50,L,N,A,*3D
$IIDPT,0002.2,,*72
$IIDBT,0007.2,f,0002.2,M,,*7C
$IIVLW,0397.0,N,001.43,N*46
$IIVHW,,,344.,M,00.00,N,00.00,K*1C
$IIMWV,341,R,03.9,N,A*1F
$IIVWR,019.,L,03.9,N,02.0,M,007.2,K*62
$IIMWD,,,326.,M,03.9,N,02.0,M*01
$IIMTA,27.3,C*03
$IIMTW,21.1,C*11
$IIVWT,018.,L,03.9,N,02.0,M,007.2,K*65
$IIHDG,344.,,,,*7A
$IIHDM,344.,M*11
$IIGLL,4720.713,N,00308.950,W,083612,A,A*4F
$IIZDA,083612,26,07,2018,,*59
$IIVTG,293.,T,,M,00.0,N,00.0,K,A*22
$IIXTE,A,A,0.50,L,N,A,*3D
$IIDPT,0002.2,,*72
$IIDBT,0007.2,f,0002.2,M,,*7C
$IIVLW,0397.0,N,001.43,N*46
$IIVHW,,,345.,M,00.00,N,00.00,K*1D
$IIMWV,332,R,03.9,N,A*1B
$IIVWR,028.,L,03.9,N,02.0,M,007.2,K*60
$IIMWD,,,321.,M,03.9,N,02.0,M*06
$IIMTA,27.3,C*03
$IIMTW,21.1,C*11
$IIVWT,028.,L,03.9,N,02.0,M,007.2,K*66
$IIHDG,345.,,,,*7B
$IIHDM,344.,M*11
$IIGLL,4720.713,N,00308.950,W,083614,A,A*49
$IIZDA,083614,26,07,2018,,*5F
$IIVTG,293.,T,,M,00.0,N,00.0,K,A*22
$IIXTE,A,A,0.50,L,N,A,*3D
$IIDPT,0002.2,,*72
$IIDBT,0007.2,f,0002.2,M,,*7C
$IIVLW,0397.0,N,001.43,N*46
$IIVHW,,,344.,M,00.00,N,00.00,K*1C
$IIMWV,318,R,03.8,N,A*12
$IIVWR,042.,L,03.8,N,02.0,M,007.0,K*6F
$IIMWD,,,302.,M,03.8,N,02.0,M*06
$IIMTA,27.3,C*03
$IIMTW,21.1,C*11
$IIVWT,042.,L,03.8,N,02.0,M,007.0,K*69
$IIHDG,343.,,,,*7D
$IIHDM,343.,M*16
$IIGLL,4720.713,N,00308.950,W,083616,A,A*4B
$IIZDA,083616,26,07,2018,,*5D
$IIVTG,293.,T,,M,00.0,N,00.0,K,A*22
$IIXTE,A,A,0.50,L,N,A,*3D
$IIDPT,0002.2,,*72
$IIDBT,0007.2,f,0002.2,M,,*7C
$IIVLW,0397.0,N,001.43,N*46
$IIVHW,,,343.,M,00.00,N,00.00,K*1B
$IIMWV,328,R,03.8,N,A*11
$IIVWR,032.,L,03.8,N,02.0,M,007.0,K*68
$IIMWD,,,310.,M,03.8,N,02.0,M*05
$IIMTA,27.3,C*03
$IIMTW,21.1,C*11
$IIVWT,033.,L,03.8,N,02.0,M,007.0,K*6F
$IIHDG,343.,,,,*7D
$IIHDM,343.,M*16
$IIGLL,4720.713,N,00308.950,W,083616,A,A*4B
$IIZDA,083616,26,07,2018,,*5D
$IIVTG,293.,T,,M,00.0,N,00.0,K,A*22
$IIXTE,A,A,0.50,L,N,A,*3D
$IIDPT,0002.2,,*72
$IIDBT,0007.2,f,0002.2,M,,*7C
$IIVLW,0397.0,N,001.43,N*46
$IIVHW,,,344.,M,00.00,N,00.00,K*1C
$IIMWV,320,R,03.8,N,A*19
$IIVWR,040.,L,03.8,N,02.0,M,007.0,K*6D
$IIMWD,,,311.,M,03.8,N,02.0,M*04
$IIMTA,27.3,C*03
$IIMTW,21.1,C*11
$IIVWT,032.,L,03.8,N,02.0,M,007.0,K*6E
$IIHDG,344.,,,,*7A
$IIHDM,344.,M*11
$IIGLL,4720.713,N,00308.950,W,083618,A,A*45
$IIZDA,083618,26,07,2018,,*53
$IIVTG,293.,T,,M,00.0,N,00.0,K,A*22
$IIXTE,A,A,0.50,L,N,A,*3D
$IIDPT,0002.2,,*72
$IIDBT,0007.2,f,0002.2,M,,*7C
$IIVLW,0397.0,N,001.43,N*46
$IIVHW,,,343.,M,00.00,N,00.00,K*1B
$IIMWV,328,R,03.8,N,A*11
$IIVWR,032.,L,03.8,N,02.0,M,007.0,K*68
$IIMTA,27.3,C*03
$IIMTW,21.1,C*11
$IIVWT,032.,L,03.8,N,02.0,M,007.0,K*6E
$IIHDG,342.,,,,*7C
$IIHDM,342.,M*17
$IIGLL,4720.713,N,00308.950,W,083620,A,A*4E
$IIZDA,083620,26,07,2018,,*58
$IIVTG,293.,T,,M,00.0,N,00.0,K,A*22
$IIXTE,A,A,0.50,L,N,A,*3D
$IIDPT,0002.2,,*72
$IIDBT,0007.2,f,0002.2,M,,*7C
$IIVLW,0397.0,N,001.43,N*46
$IIVHW,,,342.,M,00.00,N,00.00,K*1A
$IIMWV,338,R,03.8,N,A*10
$IIVWR,022.,L,03.8,N,02.0,M,007.0,K*69
$IIMWD,,,320.,M,03.8,N,02.0,M*06
$IIMTA,27.3,C*03
$IIMTW,21.1,C*11
$IIVWT,022.,L,03.8,N,02.0,M,007.0,K*6F
$IIHDG,342.,,,,*7C
$IIHDM,342.,M*17
$IIGLL,4720.713,N,00308.950,W,083620,A,A*4E
$IIZDA,083620,26,07,2018,,*58
$IIVTG,293.,T,,M,00.0,N,00.0,K,A*22
$IIXTE,A,A,0.50,L,N,A,*3D
$IIDPT,0002.2,,*72
$IIDBT,0007.2,f,0002.2,M,,*7C
$IIVLW,0397.0,N,001.43,N*46
$IIVHW,,,343.,M,00.00,N,00.00,K*1B
$IIMWV,345,R,03.8,N,A*1A
$IIVWR,015.,L,03.8,N,02.0,M,007.0,K*6D
$IIMTA,27.3,C*03
$IIMTW,21.1,C*11
$IIVWT,017.,L,03.8,N,02.0,M,007.0,K*69
$IIHDG,343.,,,,*7D
$IIHDM,343.,M*16
$IIGLL,4720.713,N,00308.950,W,083622,A,A*4C
$IIZDA,083622,26,07,2018,,*5A
$IIVTG,293.,T,,M,00.0,N,00.0,K,A*22
$IIXTE,A,A,0.50,L,N,A,*3D
$IIDPT,0002.2,,*72
$IIDBT,0007.2,f,0002.2,M,,*7C
$IIVLW,0397.0,N,001.43,N*46
$IIVHW,,,343.,M,00.00,N,00.00,K*1B
$IIMWV,346,R,03.8,N,A*19
$IIVWR,014.,L,03.8,N,02.0,M,007.0,K*6C
$IIMWD,,,328.,M,03.8,N,02.0,M*0E
$IIMTA,27.3,C*03
$IIMTW,21.1,C*11
$IIVWT,015.,L,03.8,N,02.0,M,007.0,K*6B
$IIHDG,342.,,,,*7C
$IIHDM,342.,M*17
$IIGLL,4720.713,N,00308.950,W,083624,A,A*4A
$IIZDA,083624,26,07,2018,,*5C
$IIVTG,293.,T,,M,00.0,N,00.0,K,A*22
$IIXTE,A,A,0.50,L,N,A,*3D
$IIDPT,0002.2,,*72
$IIDBT,0007.2,f,0002.2,M,,*7C
$IIVLW,0397.0,N,001.43,N*46
$IIVHW,,,342.,M,00.00,N,00.00,K*1A
$IIMWV,355,R,03.8,N,A*1B
$IIVWR,005.,L,03.8,N,02.0,M,007.0,K*6C
$IIMWD,,,332.,M,03.8,N,02.0,M*05
$IIMTA,27.3,C*03
$IIMTW,21.1,C*11
$IIVWT,005.,L,03.8,N,02.0,M,007.0,K*6A
$IIHDG,342.,,,,*7C
$IIHDM,342.,M*17
$IIGLL,4720.713,N,00308.949,W,083624,A,A*42
$IIZDA,083624,26,07,2018,,*5C
$IIVTG,293.,T,,M,00.0,N,00.0,K,A*22
$IIXTE,A,A,0.50,L,N,A,*3D
$IIDPT,0002.1,,*71
$IIDBT,0007.2,f,0002.2,M,,*7C
$IIVLW,0397.0,N,001.43,N*46
$IIVHW,,,343.,M,00.00,N,00.00,K*1B
$IIMWV,354,R,03.7,N,A*15
$IIVWR,006.,L,03.7,N,01.9,M,006.9,K*62
$IIMWD,,,337.,M,03.7,N,01.9,M*05
$IIMTA,27.3,C*03
$IIMTW,21.1,C*11
$IIVWT,006.,L,03.7,N,01.9,M,006.9,K*64
$IIHDG,343.,,,,*7D
$IIHDM,343.,M*16
$IIGLL,4720.713,N,00308.949,W,083626,A,A*40
$IIZDA,083626,26,07,2018,,*5E
$IIVTG,293.,T,,M,00.0,N,00.0,K,A*22
$IIXTE,A,A,0.50,L,N,A,*3D
$IIDPT,0002.1,,*71
$IIDBT,0006.9,f,0002.1,M,,*75
$IIVLW,0397.0,N,001.43,N*46
$IIVHW,,,344.,M,00.00,N,00.00,K*1C
$IIMWV,353,R,03.7,N,A*12
$IIVWR,007.,L,03.7,N,01.9,M,006.9,K*63
$IIMWD,,,336.,M,03.7,N,01.9,M*04
$IIMTA,27.4,C*04
$IIMTW,21.1,C*11
$IIVWT,008.,L,03.7,N,01.9,M,006.9,K*6A
$IIHDG,343.,,,,*7D
$IIHDM,343.,M*16
$IIGLL,4720.713,N,00308.949,W,083626,A,A*40
$IIZDA,083626,26,07,2018,,*5E
$IIVTG,293.,T,,M,00.0,N,00.0,K,A*22
$IIXTE,A,A,0.50,L,N,A,*3D
$IIDPT,0002.0,,*70
$IIDBT,0006.6,f,0002.0,M,,*7B
$IIVLW,0397.0,N,001.43,N*46
$IIVHW,,,343.,M,00.00,N,00.00,K*1B
$IIMWV,354,R,03.7,N,A*15
$IIVWR,006.,L,03.7,N,01.9,M,006.9,K*62
$IIMWD,,,336.,M,03.7,N,01.9,M*04
$IIMTA,27.4,C*04
$IIMTW,21.1,C*11
$IIVWT,007.,L,03.7,N,01.9,M,006.9,K*65
$IIHDG,342.,,,,*7C
$IIHDM,342.,M*17
$IIGLL,4720.713,N,00308.949,W,083628,A,A*4E
$IIZDA,083628,26,07,2018,,*50
$IIVTG,293.,T,,M,00.0,N,00.0,K,A*22
$IIXTE,A,A,0.50,L,N,A,*3D
$IIDPT,0002.0,,*70
$IIDBT,0006.6,f,0002.0,M,,*7B
$IIVLW,0397.0,N,001.43,N*46
$IIVHW,,,343.,M,00.00,N,00.00,K*1B
$IIMWV,350,R,03.7,N,A*11
$IIVWR,010.,L,03.7,N,01.9,M,006.9,K*65
$IIMWD,,,333.,M,03.7,N,01.9,M*01
$IIMTA,27.4,C*04
$IIMTW,21.1,C*11
$IIVWT,010.,L,03.7,N,01.9,M,006.9,K*63
$IIHDG,343.,,,,*7D
$IIHDM,343.,M*16
$IIGLL,4720.713,N,00308.949,W,083630,A,A*47
$IIZDA,083630,26,07,2018,,*59
$IIVTG,293.,T,,M,00.0,N,00.0,K,A*22
$IIXTE,A,A,0.50,L,N,A,*3D
$IIDPT,0002.1,,*71
$IIDBT,0006.9,f,0002.1,M,,*75
$IIVLW,0397.0,N,001.43,N*46
$IIVHW,,,343.,M,00.00,N,00.00,K*1B
$IIMWV,347,R,03.6,N,A*16
$IIVWR,013.,L,03.6,N,01.9,M,006.7,K*69
$IIMWD,,,330.,M,03.6,N,01.9,M*03
$IIMTA,27.4,C*04
$IIMTW,21.1,C*11
$IIVWT,013.,L,03.6,N,01.9,M,006.7,K*6F
$IIHDG,343.,,,,*7D
$IIHDM,343.,M*16
$IIGLL,4720.713,N,00308.949,W,083630,A,A*47
$IIZDA,083630,26,07,2018,,*59
$IIVTG,293.,T,,M,00.0,N,00.0,K,A*22
$IIXTE,A,A,0.50,L,N,A,*3D
$IIDPT,0002.1,,*71
$IIDBT,0006.9,f,0002.1,M,,*75
$IIVLW,0397.0,N,001.43,N*46
$IIVHW,,,341.,M,00.00,N,00.00,K*19
$IIMWV,355,R,03.6,N,A*15
$IIVWR,005.,L,03.6,N,01.9,M,006.7,K*6E
$IIMWD,,,337.,M,03.6,N,01.9,M*04
$IIMTA,27.4,C*04
$IIMTW,21.1,C*11
$IIVWT,005.,L,03.6,N,01.9,M,006.7,K*68
$IIHDG,341.,,,,*7F
$IIHDM,341.,M*14
$IIGLL,4720.713,N,00308.949,W,083632,A,A*45
$IIZDA,083632,26,07,2018,,*5B
$IIVTG,293.,T,,M,00.0,N,00.0,K,A*22
$IIXTE,A,A,0.50,L,N,A,*3D
$IIDPT,0002.1,,*71
$IIDBT,0006.9,f,0002.1,M,,*75
$IIVLW,0397.0,N,001.43,N*46
$IIVHW,,,341.,M,00.00,N,00.00,K*19
$IIMWV,349,R,03.6,N,A*18
$IIVWR,011.,L,03.6,N,01.9,M,006.7,K*6B
$IIMWD,,,340.,M,03.6,N,01.9,M*04
$IIMTA,27.4,C*04
$IIMTW,21.1,C*11
$IIVWT,001.,L,03.6,N,01.9,M,006.7,K*6C
$IIHDG,341.,,,,*7F
$IIHDM,341.,M*14
$IIGLL,4720.713,N,00308.949,W,083634,A,A*43
$IIZDA,083634,26,07,2018,,*5D
$IIVTG,293.,T,,M,00.0,N,00.0,K,A*22
$IIXTE,A,A,0.50,L,N,A,*3D
$IIDPT,0002.2,,*72
$IIDBT,0007.2,f,0002.2,M,,*7C
$IIVLW,0397.0,N,001.43,N*46
$IIVHW,,,340.,M,00.00,N,00.00,K*18
$IIMWV,353,R,03.5,N,A*10
$IIVWR,007.,L,03.5,N,01.8,M,006.5,K*6C
$IIMWD,,,333.,M,03.5,N,01.8,M*02
$IIMTA,27.4,C*04
$IIMTW,21.1,C*11
$IIVWT,007.,L,03.5,N,01.8,M,006.5,K*6A
$IIHDG,339.,,,,*70
$IIHDM,339.,M*1B
$IIGLL,4720.713,N,00308.949,W,083634,A,A*43
$IIZDA,083634,26,07,2018,,*5D
$IIVTG,293.,T,,M,00.0,N,00.0,K,A*22
$IIXTE,A,A,0.50,L,N,A,*3D
$IIDPT,0002.2,,*72
$IIDBT,0007.2,f,0002.2,M,,*7C
$IIVLW,0397.0,N,001.43,N*46
$IIVHW,,,338.,M,00.00,N,00.00,K*17
$IIMWV,356,R,03.5,N,A*15
$IIVWR,004.,L,03.5,N,01.8,M,006.5,K*6F
$IIMWD,,,333.,M,03.5,N,01.8,M*02
$IIMTA,27.4,C*04
$IIMTW,21.1,C*11
$IIVWT,004.,L,03.5,N,01.8,M,006.5,K*69
$IIHDG,337.,,,,*7E
$IIHDM,337.,M*15
$IIGLL,4720.713,N,00308.949,W,083636,A,A*41
$IIZDA,083636,26,07,2018,,*5F
$IIVTG,293.,T,,M,00.0,N,00.0,K,A*22
$IIXTE,A,A,0.50,L,N,A,*3D
$IIDPT,0002.1,,*71
$IIDBT,0006.9,f,0002.1,M,,*75
$IIVLW,0397.0,N,001.43,N*46
$IIVHW,,,337.,M,00.00,N,00.00,K*18
$IIMWV,357,R,03.5,N,A*14
$IIVWR,003.,L,03.5,N,01.8,M,006.5,K*68
$IIMWD,,,334.,M,03.5,N,01.8,M*05
$IIMTA,27.4,C*04
$IIMTW,21.1,C*11
$IIVWT,003.,L,03.5,N,01.8,M,006.5,K*6E
$IIHDG,336.,,,,*7F
$IIHDM,336.,M*14
$IIGLL,4720.713,N,00308.949,W,083636,A,A*41
$IIZDA,083636,26,07,2018,,*5F
$IIVTG,293.,T,,M,00.0,N,00.0,K,A*22
$IIXTE,A,A,0.50,L,N,A,*3D
$IIDPT,0002.0,,*70
$IIDBT,0006.6,f,0002.0,M,,*7B
$IIVLW,0397.0,N,001.43,N*46
$IIVHW,,,336.,M,00.00,N,00.00,K*19
$IIMWV,350,R,03.5,N,A*13
$IIVWR,010.,L,03.5,N,01.8,M,006.5,K*6A
$IIMTA,27.4,C*04
$IIMTW,21.1,C*11
$IIVWT,005.,L,03.5,N,01.8,M,006.5,K*68
$IIHDG,335.,,,,*7C
$IIHDM,334.,M*16
$IIGLL,4720.713,N,00308.949,W,083638,A,A*4F
$IIZDA,083638,26,07,2018,,*51
$IIVTG,293.,T,,M,00.0,N,00.0,K,A*22
$IIXTE,A,A,0.50,L,N,A,*3D
$IIDPT,0002.1,,*71
$IIDBT,0006.9,f,0002.1,M,,*75
$IIVLW,0397.0,N,001.43,N*46
$IIVHW,,,333.,M,00.00,N,00.00,K*1C
$IIMWV,354,R,03.4,N,A*16
$IIVWR,006.,L,03.4,N,01.7,M,006.3,K*65
$IIMWD,,,327.,M,03.4,N,01.7,M*09
$IIMTA,27.5,C*05
$IIMTW,21.1,C*11
$IIVWT,006.,L,03.4,N,01.7,M,006.3,K*63
$IIHDG,333.,,,,*7A
$IIHDM,333.,M*11
$IIGLL,4720.713,N,00308.949,W,083640,A,A*40
$IIZDA,083640,26,07,2018,,*5E
$IIVTG,293.,T,,M,00.0,N,00.0,K,A*22
$IIXTE,A,A,0.50,L,N,A,*3D
$IIDPT,0002.1,,*71
$IIDBT,0006.9,f,0002.1,M,,*75
$IIVLW,0397.0,N,001.43,N*46
$IIVHW,,,332.,M,00.00,N,00.00,K*1D
$IIMWV,353,R,03.4,N,A*11
$IIVWR,007.,L,03.4,N,01.7,M,006.3,K*64
$IIMWD,,,325.,M,03.4,N,01.7,M*0B
$IIMTA,27.5,C*05
$IIMTW,21.1,C*11
$IIVWT,007.,L,03.4,N,01.7,M,006.3,K*62
$IIHDG,332.,,,,*7B
$IIHDM,332.,M*10
$IIGLL,4720.713,N,00308.949,W,083640,A,A*40
$IIZDA,083640,26,07,2018,,*5E
$IIVTG,293.,T,,M,00.0,N,00.0,K,A*22
$IIXTE,A,A,0.50,L,N,A,*3D
$IIDPT,0002.0,,*70
$IIDBT,0006.6,f,0002.0,M,,*7B
$IIVLW,0397.0,N,001.43,N*46
$IIVHW,,,331.,M,00.00,N,00.00,K*1E
$IIMWV,352,R,03.4,N,A*10
$IIVWR,008.,L,03.4,N,01.7,M,006.3,K*6B
$IIMWD,,,324.,M,03.4,N,01.7,M*0A
$IIMTA,27.5,C*05
$IIMTW,21.1,C*11
$IIVWT,008.,L,03.4,N,01.7,M,006.3,K*6D
$IIHDG,331.,,,,*78
$IIHDM,331.,M*13
$IIGLL,4720.713,N,00308.949,W,083642,A,A*42
$IIZDA,083642,26,07,2018,,*5C
$IIVTG,293.,T,,M,00.0,N,00.0,K,A*22
$IIXTE,A,A,0.50,L,N,A,*3D
$IIDPT,0002.0,,*70
$IIDBT,0006.6,f,0002.0,M,,*7B
$IIVLW,0397.0,N,001.43,N*46
$IIVHW,,,330.,M,00.00,N,00.00,K*1F
$IIMWV,354,R,03.4,N,A*16
$IIVWR,006.,L,03.4,N,01.7,M,006.3,K*65
$IIMWD,,,322.,M,03.4,N,01.7,M*0C
$IIMTA,27.5,C*05
$IIMTW,21.1,C*11
$IIVWT,006.,L,03.4,N,01.7,M,006.3,K*63
$IIHDG,329.,,,,*71
$IIHDM,328.,M*1B
$IIGLL,4720.713,N,00308.949,W,083644,A,A*44
$IIZDA,083644,26,07,2018,,*5A
$IIVTG,293.,T,,M,00.0,N,00.0,K,A*22
$IIXTE,A,A,0.50,L,N,A,*3D
$IIDPT,0002.0,,*70
$IIDBT,0006.6,f,0002.0,M,,*7B
$IIVLW,0397.0,N,001.43,N*46
$IIVHW,,,328.,M,00.00,N,00.00,K*16
$IIMWV,351,R,03.3,N,A*14
$IIVWR,009.,L,03.3,N,01.7,M,006.1,K*6F
$IIMWD,,,319.,M,03.3,N,01.7,M*03
$IIMTA,27.5,C*05
$IIMTW,21.1,C*11
$IIVWT,009.,L,03.3,N,01.7,M,006.1,K*69
$IIHDG,328.,,,,*70
$IIHDM,328.,M*1B
$IIGLL,4720.713,N,00308.949,W,083644,A,A*44
$IIZDA,083644,26,07,2018,,*5A
$IIVTG,293.,T,,M,00.0,N,00.0,K,A*22
$IIXTE,A,A,0.50,L,N,A,*3D
$IIDPT,0002.0,,*70
$IIDBT,0006.9,f,0002.1,M,,*75
$IIVLW,0397.0,N,001.43,N*46
$IIVHW,,,328.,M,00.00,N,00.00,K*16
$IIMWV,348,R,03.3,N,A*1C
$IIVWR,012.,L,03.3,N,01.7,M,006.1,K*65
$IIMWD,,,315.,M,03.3,N,01.7,M*0F
$IIMTA,27.6,C*06
$IIMTW,21.1,C*11
$IIVWT,013.,L,03.3,N,01.7,M,006.1,K*62
$IIHDG,327.,,,,*7F
$IIHDM,327.,M*14
$IIGLL,4720.713,N,00308.949,W,083646,A,A*46
$IIZDA,083646,26,07,2018,,*58
$IIVTG,293.,T,,M,00.0,N,00.0,K,A*22
$IIXTE,A,A,0.50,L,N,A,*3D
$IIDPT,0002.1,,*71
$IIDBT,0006.9,f,0002.1,M,,*75
$IIVLW,0397.0,N,001.43,N*46
$IIVHW,,,326.,M,00.00,N,00.00,K*18
$IIMWV,352,R,03.3,N,A*17
$IIVWR,008.,L,03.3,N,01.7,M,006.1,K*6E
$IIMWD,,,319.,M,03.3,N,01.7,M*03
$IIMTA,27.6,C*06
$IIMTW,21.1,C*11
$IIVWT,008.,L,03.3,N,01.7,M,006.1,K*68
$IIHDG,326.,,,,*7E
$IIHDM,326.,M*15
$IIGLL,4720.713,N,00308.949,W,083648,A,A*48
$IIZDA,083648,26,07,2018,,*56
$IIVTG,293.,T,,M,00.0,N,00.0,K,A*22
$IIXTE,A,A,0.50,L,N,A,*3D
$IIDPT,0002.0,,*70
$IIDBT,0006.6,f,0002.0,M,,*7B
$IIVLW,0397.0,N,001.43,N*46
$IIVHW,,,326.,M,00.00,N,00.00,K*18
$IIMWV,348,R,03.3,N,A*1C
$IIVWR,012.,L,03.3,N,01.7,M,006.1,K*65
$IIMWD,,,318.,M,03.3,N,01.7,M*02
$IIMTA,27.6,C*06
$IIMTW,21.1,C*11
$IIVWT,012.,L,03.3,N,01.7,M,006.1,K*63
$IIHDG,326.,,,,*7E
$IIHDM,326.,M*15
$IIGLL,4720.713,N,00308.949,W,083648,A,A*48
$IIZDA,083648,26,07,2018,,*56
$IIVTG,293.,T,,M,00.0,N,00.0,K,A*22
$IIXTE,A,A,0.50,L,N,A,*3D
$IIDPT,0002.0,,*70
$IIDBT,0006.6,f,0002.0,M,,*7B
$IIVLW,0397.0,N,001.43,N*46
$IIVHW,,,326.,M,00.00,N,00.00,K*18
$IIMWV,348,R,03.2,N,A*1D
$IIVWR,012.,L,03.2,N,01.6,M,005.9,K*6E
$IIMWD,,,314.,M,03.2,N,01.6,M*0E
$IIMTA,27.6,C*06
$IIMTW,21.1,C*11
$IIVWT,012.,L,03.2,N,01.6,M,005.9,K*68
$IIHDG,325.,,,,*7D
$IIHDM,325.,M*16
$IIGLL,4720.713,N,00308.949,W,083650,A,A*41
$IIZDA,083650,26,07,2018,,*5F
$IIVTG,293.,T,,M,00.0,N,00.0,K,A*22
$IIXTE,A,A,0.50,L,N,A,*3D
$IIDPT,0002.2,,*72
$IIDBT,0007.2,f,0002.2,M,,*7C
$IIVLW,0397.0,N,001.43,N*46
$IIVHW,,,325.,M,00.00,N,00.00,K*1B
$IIMWV,345,R,03.2,N,A*10
$IIVWR,015.,L,03.2,N,01.6,M,005.9,K*69
$IIMWD,,,312.,M,03.2,N,01.6,M*08
$IIMTA,27.6,C*06
$IIMTW,21.1,C*11
$IIVWT,013.,L,03.2,N,01.6,M,005.9,K*69
$IIHDG,325.,,,,*7D
$IIHDM,325.,M*16
$IIGLL,4720.713,N,00308.949,W,083650,A,A*41
$IIZDA,083650,26,07,2018,,*5F
$IIVTG,293.,T,,M,00.0,N,00.0,K,A*22
$IIXTE,A,A,0.50,L,N,A,*3D
$IIDPT,0002.2,,*72
$IIDBT,0007.2,f,0002.2,M,,*7C
$IIVLW,0397.0,N,001.43,N*46
$IIVHW,,,325.,M,00.00,N,00.00,K*1B
$IIMWV,342,R,03.2,N,A*17
$IIVWR,018.,L,03.2,N,01.6,M,005.9,K*64
$IIMWD,,,307.,M,03.2,N,01.6,M*0C
$IIMTA,27.6,C*06
$IIMTW,21.1,C*11
$IIVWT,018.,L,03.2,N,01.6,M,005.9,K*62
$IIHDG,325.,,,,*7D
$IIHDM,325.,M*16
$IIGLL,4720.713,N,00308.949,W,083652,A,A*43
$IIZDA,083652,26,07,2018,,*5D
$IIVTG,293.,T,,M,00.0,N,00.0,K,A*22
$IIXTE,A,A,0.50,L,N,A,*3D
$IIDPT,0002.2,,*72
$IIDBT,0007.2,f,0002.2,M,,*7C
$IIVLW,0397.0,N,001.43,N*46
$IIVHW,,,325.,M,00.00,N,00.00,K*1B
$IIMWV,344,R,03.3,N,A*10
$IIVWR,016.,L,03.3,N,01.7,M,006.1,K*61
$IIMWD,,,307.,M,03.3,N,01.7,M*0C
$IIMTA,27.6,C*06
$IIMTW,21.2,C*12
$IIVWT,016.,L,03.3,N,01.7,M,006.1,K*67
$IIHDG,324.,,,,*7C
$IIHDM,324.,M*17
$IIGLL,4720.713,N,00308.949,W,083654,A,A*45
$IIZDA,083654,26,07,2018,,*5B
$IIVTG,293.,T,,M,00.0,N,00.0,K,A*22
$IIXTE,A,A,0.50,L,N,A,*3D
$IIDPT,0002.2,,*72
$IIDBT,0007.2,f,0002.2,M,,*7C
$IIVLW,0397.0,N,001.43,N*46
$IIVHW,,,325.,M,00.00,N,00.00,K*1B
$IIMWV,343,R,03.3,N,A*17
$IIVWR,017.,L,03.3,N,01.7,M,006.1,K*60
$IIMWD,,,308.,M,03.3,N,01.7,M*03
$IIMTA,27.6,C*06
$IIMTW,21.1,C*11
$IIVWT,017.,L,03.3,N,01.7,M,006.1,K*66
$IIHDG,325.,,,,*7D
$IIHDM,325.,M*16
$IIGLL,4720.713,N,00308.949,W,083654,A,A*45
$IIZDA,083654,26,07,2018,,*5B
$IIVTG,293.,T,,M,00.0,N,00.0,K,A*22
$IIXTE,A,A,0.50,L,N,A,*3D
$IIDPT,0002.2,,*72
$IIDBT,0007.2,f,0002.2,M,,*7C
$IIVLW,0397.0,N,001.43,N*46
$IIVHW,,,325.,M,00.00,N,00.00,K*1B
$IIMWV,341,R,03.3,N,A*15
$IIVWR,019.,L,03.3,N,01.7,M,006.1,K*6E
$IIMWD,,,306.,M,03.3,N,01.7,M*0D
$IIMTA,27.6,C*06
$IIMTW,21.1,C*11
$IIVWT,019.,L,03.3,N,01.7,M,006.1,K*68
$IIHDG,325.,,,,*7D
$IIHDM,325.,M*16
$IIGLL,4720.713,N,00308.949,W,083656,A,A*47
$IIZDA,083656,26,07,2018,,*59
$IIVTG,293.,T,,M,00.0,N,00.0,K,A*22
$IIXTE,A,A,0.50,L,N,A,*3D
$IIDPT,0002.2,,*72
$IIDBT,0007.2,f,0002.2,M,,*7C
$IIVLW,0397.0,N,001.43,N*46
$IIVHW,,,325.,M,00.00,N,00.00,K*1B
$IIMWV,343,R,03.3,N,A*17
$IIVWR,017.,L,03.3,N,01.7,M,006.1,K*60
$IIMWD,,,308.,M,03.3,N,01.7,M*03
$IIMTA,27.6,C*06
$IIMTW,21.1,C*11
$IIVWT,017.,L,03.3,N,01.7,M,006.1,K*66
$IIHDG,325.,,,,*7D
$IIHDM,325.,M*16
$IIGLL,4720.713,N,00308.949,W,083658,A,A*49
$IIZDA,083658,26,07,2018,,*57
$IIVTG,293.,T,,M,00.0,N,00.0,K,A*22
$IIXTE,A,A,0.50,L,N,A,*3D
$IIDPT,0002.2,,*72
$IIDBT,0007.2,f,0002.2,M,,*7C
$IIVLW,0397.0,N,001.43,N*46
$IIVHW,,,325.,M,00.00,N,00.00,K*1B
$IIMWV,342,R,03.4,N,A*11
$IIVWR,018.,L,03.4,N,01.7,M,006.3,K*6A
$IIMWD,,,307.,M,03.4,N,01.7,M*0B
$IIMTA,27.6,C*06
$IIMTW,21.1,C*11
$IIVWT,018.,L,03.4,N,01.7,M,006.3,K*6C
$IIHDG,326.,,,,*7E
$IIHDM,326.,M*15
$IIGLL,4720.713,N,00308.949,W,083658,A,A*49
$IIZDA,083658,26,07,2018,,*57
$IIVTG,293.,T,,M,00.0,N,00.0,K,A*22
$IIXTE,A,A,0.50,L,N,A,*3D
$IIDPT,0002.1,,*71
$IIDBT,0006.9,f,0002.1,M,,*75
$IIVLW,0397.0,N,001.43,N*46
$IIVHW,,,326.,M,00.00,N,00.00,K*18
$IIMWV,342,R,03.4,N,A*11
$IIVWR,018.,L,03.4,N,01.7,M,006.3,K*6A
$IIMWD,,,308.,M,03.4,N,01.7,M*04
$IIMTA,27.6,C*06
$IIMTW,21.1,C*11
$IIVWT,018.,L,03.4,N,01.7,M,006.3,K*6C
$IIHDG,326.,,,,*7E
$IIHDM,326.,M*15
$IIGLL,4720.713,N,00308.949,W,083700,A,A*45
$IIZDA,083700,26,07,2018,,*5B
$IIVTG,293.,T,,M,00.0,N,00.0,K,A*22
$IIXTE,A,A,0.50,L,N,A,*3D
$IIDPT,0002.2,,*72
$IIDBT,0007.2,f,0002.2,M,,*7C
$IIVLW,0397.0,N,001.43,N*46
$IIVHW,,,326.,M,00.00,N,00.00,K*18
$IIMWV,344,R,03.4,N,A*17
$IIVWR,016.,L,03.4,N,01.7,M,006.3,K*64
$IIMWD,,,309.,M,03.4,N,01.7,M*05
$IIMTA,27.7,C*07
$IIMTW,21.1,C*11
$IIVWT,017.,L,03.4,N,01.7,M,006.3,K*63
$IIHDG,326.,,,,*7E
$IIHDM,326.,M*15
$IIGLL,4720.713,N,00308.949,W,083702,A,A*47
$IIZDA,083702,26,07,2018,,*59
$IIVTG,293.,T,,M,00.0,N,00.0,K,A*22
$IIXTE,A,A,0.50,L,N,A,*3D
$IIDPT,0002.2,,*72
$IIDBT,0007.2,f,0002.2,M,,*7C
$IIVLW,0397.0,N,001.43,N*46
$IIVHW,,,326.,M,00.00,N,00.00,K*18
$IIMWV,342,R,03.4,N,A*11
$IIVWR,018.,L,03.4,N,01.7,M,006.3,K*6A
$IIMWD,,,310.,M,03.4,N,01.7,M*0D
$IIMTA,27.7,C*07
$IIMTW,21.1,C*11
$IIVWT,020.,L,03.4,N,01.7,M,006.3,K*67
$IIHDG,327.,,,,*7F
$IIHDM,327.,M*14
$IIGLL,4720.713,N,00308.949,W,083702,A,A*47
$IIZDA,083702,26,07,2018,,*59
$IIVTG,293.,T,,M,00.0,N,00.0,K,A*22
$IIXTE,A,A,0.50,L,N,A,*3D
$IIDPT,0002.2,,*72
$IIDBT,0007.2,f,0002.2,M,,*7C
$IIVLW,0397.0,N,001.43,N*46
$IIVHW,,,327.,M,00.00,N,00.00,K*19
$IIMWV,337,R,03.5,N,A*12
$IIVWR,023.,L,03.5,N,01.8,M,006.5,K*6A
$IIMWD,,,304.,M,03.5,N,01.8,M*06
$IIMTA,27.7,C*07
$IIMTW,21.1,C*11
$IIVWT,023.,L,03.5,N,01.8,M,006.5,K*6C
$IIHDG,328.,,,,*70
$IIHDM,328.,M*1B
$IIGLL,4720.712,N,00308.949,W,083704,A,A*40
$IIZDA,083704,26,07,2018,,*5F
$IIVTG,293.,T,,M,00.0,N,00.0,K,A*22
$IIXTE,A,A,0.50,L,N,A,*3D
$IIDPT,0002.0,,*70
$IIDBT,0006.6,f,0002.0,M,,*7B
$IIVLW,0397.0,N,001.43,N*46
$IIVHW,,,328.,M,00.00,N,00.00,K*16
$IIMWV,337,R,03.5,N,A*12
$IIVWR,023.,L,03.5,N,01.8,M,006.5,K*6A
$IIMWD,,,305.,M,03.5,N,01.8,M*07
$IIMTA,27.7,C*07
$IIMTW,21.1,C*11
$IIVWT,023.,L,03.5,N,01.8,M,006.5,K*6C
$IIHDG,328.,,,,*70
$IIHDM,328.,M*1B
$IIGLL,4720.712,N,00308.949,W,083706,A,A*42
$IIZDA,083706,26,07,2018,,*5D
$IIVTG,293.,T,,M,00.0,N,00.0,K,A*22
$IIXTE,A,A,0.50,L,N,A,*3D
$IIDPT,0002.2,,*72
$IIDBT,0007.2,f,0002.2,M,,*7C
$IIVLW,0397.0,N,001.43,N*46
$IIVHW,,,328.,M,00.00,N,00.00,K*16
$IIMWV,334,R,03.5,N,A*11
$IIVWR,026.,L,03.5,N,01.8,M,006.5,K*6F
$IIMWD,,,304.,M,03.5,N,01.8,M*06
$IIMTA,27.7,C*07
$IIMTW,21.1,C*11
$IIVWT,024.,L,03.5,N,01.8,M,006.5,K*6B
$IIHDG,329.,,,,*71
$IIHDM,329.,M*1A
$IIGLL,4720.712,N,00308.949,W,083706,A,A*42
$IIZDA,083706,26,07,2018,,*5D
$IIVTG,293.,T,,M,00.0,N,00.0,K,A*22
$IIXTE,A,A,0.50,L,N,A,*3D
$IIDPT,0002.2,,*72
$IIDBT,0007.2,f,0002.2,M,,*7C
$IIVLW,0397.0,N,001.43,N*46
$IIVHW,,,329.,M,00.00,N,00.00,K*17
$IIMWV,334,R,03.5,N,A*11
$IIVWR,026.,L,03.5,N,01.8,M,006.5,K*6F
$IIMWD,,,303.,M,03.5,N,01.8,M*01
$IIMTA,27.7,C*07
$IIMTW,21.1,C*11
$IIVWT,026.,L,03.5,N,01.8,M,006.5,K*69
$IIHDG,330.,,,,*79
$IIHDM,330.,M*12
$IIGLL,4720.712,N,00308.949,W,083708,A,A*4C
$IIZDA,083708,26,07,2018,,*53
$IIVTG,293.,T,,M,00.0,N,00.0,K,A*22
$IIXTE,A,A,0.50,L,N,A,*3D
$IIDPT,0002.2,,*72
$IIDBT,0007.2,f,0002.2,M,,*7C
$IIVLW,0397.0,N,001.43,N*46
$IIVHW,,,330.,M,00.00,N,00.00,K*1F
$IIMWV,335,R,03.5,N,A*10
$IIVWR,025.,L,03.5,N,01.8,M,006.5,K*6C
$IIMWD,,,305.,M,03.5,N,01.8,M*07
$IIMTA,27.7,C*07
$IIMTW,21.2,C*12
$IIVWT,025.,L,03.5,N,01.8,M,006.5,K*6A
$IIHDG,330.,,,,*79
$IIHDM,330.,M*12
$IIGLL,4720.712,N,00308.949,W,083708,A,A*4C
$IIZDA,083708,26,07,2018,,*53
$IIVTG,293.,T,,M,00.0,N,00.0,K,A*22
$IIXTE,A,A,0.50,L,N,A,*3D
$IIDPT,0002.1,,*71
$IIDBT,0006.6,f,0002.0,M,,*7B
$IIVLW,0397.0,N,001.43,N*46
$IIVHW,,,330.,M,00.00,N,00.00,K*1F
$IIMWV,333,R,03.5,N,A*16
$IIVWR,027.,L,03.5,N,01.8,M,006.5,K*6E
$IIMWD,,,303.,M,03.5,N,01.8,M*01
$IIMTA,27.7,C*07
$IIMTW,21.1,C*11
$IIVWT,027.,L,03.5,N,01.8,M,006.5,K*68
$IIHDG,331.,,,,*78
$IIHDM,331.,M*13
$IIGLL,4720.712,N,00308.949,W,083710,A,A*45
$IIZDA,083710,26,07,2018,,*5A
$IIVTG,293.,T,,M,00.0,N,00.0,K,A*22
$IIXTE,A,A,0.50,L,N,A,*3D
$IIDPT,0002.0,,*70
$IIDBT,0006.6,f,0002.0,M,,*7B
$IIVLW,0397.0,N,001.43,N*46
$IIVHW,,,332.,M,00.00,N,00.00,K*1D
$IIMWV,331,R,03.5,N,A*14
$IIVWR,029.,L,03.5,N,01.8,M,006.5,K*60
$IIMWD,,,303.,M,03.5,N,01.8,M*01
$IIMTA,27.7,C*07
$IIMTW,21.1,C*11
$IIVWT,028.,L,03.5,N,01.8,M,006.5,K*67
$IIHDG,332.,,,,*7B
$IIHDM,332.,M*10
$IIGLL,4720.712,N,00308.949,W,083712,A,A*47
$IIZDA,083712,26,07,2018,,*58
$IIVTG,293.,T,,M,00.0,N,00.0,K,A*22
$IIXTE,A,A,0.50,L,N,A,*3D
$IIDPT,0002.0,,*70
$IIDBT,0006.6,f,0002.0,M,,*7B
$IIVLW,0397.0,N,001.43,N*46
$IIVHW,,,332.,M,00.00,N,00.00,K*1D
$IIMWV,336,R,03.5,N,A*13
$IIVWR,024.,L,03.5,N,01.8,M,006.5,K*6D
$IIMWD,,,303.,M,03.5,N,01.8,M*01
$IIMTA,27.7,C*07
$IIMTW,21.1,C*11
$IIVWT,024.,L,03.5,N,01.8,M,006.5,K*6B
$IIHDG,332.,,,,*7B
$IIHDM,332.,M*10
$IIGLL,4720.712,N,00308.949,W,083712,A,A*47
$IIZDA,083712,26,07,2018,,*58
$IIVTG,293.,T,,M,00.0,N,00.0,K,A*22
$IIXTE,A,A,0.50,L,N,A,*3D
$IIDPT,0002.0,,*70
$IIDBT,0006.6,f,0002.0,M,,*7B
$IIVLW,0397.0,N,001.43,N*46
$IIVHW,,,332.,M,00.00,N,00.00,K*1D
$IIMWV,339,R,03.5,N,A*1C
$IIVWR,021.,L,03.5,N,01.8,M,006.5,K*68
$IIMWD,,,311.,M,03.5,N,01.8,M*02
$IIMTA,27.7,C*07
$IIMTW,21.1,C*11
$IIVWT,021.,L,03.5,N,01.8,M,006.5,K*6E
$IIHDG,332.,,,,*7B
$IIHDM,332.,M*10
$IIGLL,4720.712,N,00308.949,W,083714,A,A*41
$IIZDA,083714,26,07,2018,,*5E
$IIVTG,293.,T,,M,00.0,N,00.0,K,A*22
$IIXTE,A,A,0.50,L,N,A,*3D
$IIDPT,0002.0,,*70
$IIDBT,0006.6,f,0002.0,M,,*7B
$IIVLW,0397.0,N,001.43,N*46
$IIVHW,,,333.,M,00.00,N,00.00,K*1C
$IIMWV,335,R,03.5,N,A*10
$IIVWR,025.,L,03.5,N,01.8,M,006.5,K*6C
$IIMWD,,,310.,M,03.5,N,01.8,M*03
$IIMTA,27.7,C*07
$IIMTW,21.1,C*11
$IIVWT,023.,L,03.5,N,01.8,M,006.5,K*6C
$IIHDG,333.,,,,*7A
$IIHDM,333.,M*11
$IIGLL,4720.712,N,00308.949,W,083714,A,A*41
$IIZDA,083714,26,07,2018,,*5E
$IIVTG,293.,T,,M,00.0,N,00.0,K,A*22
$IIXTE,A,A,0.50,L,N,A,*3D
$IIDPT,0002.0,,*70
$IIDBT,0006.6,f,0002.0,M,,*7B
$IIVLW,0397.0,N,001.43,N*46
$IIVHW,,,333.,M,00.00,N,00.00,K*1C
$IIMWV,339,R,03.5,N,A*1C
$IIVWR,021.,L,03.5,N,01.8,M,006.5,K*68
$IIMWD,,,309.,M,03.5,N,01.8,M*0B
$IIMTA,27.7,C*07
$IIMTW,21.1,C*11
$IIVWT,024.,L,03.5,N,01.8,M,006.5,K*6B
$IIHDG,333.,,,,*7A
$IIHDM,333.,M*11
$IIGLL,4720.712,N,00308.949,W,083716,A,A*43
$IIZDA,083716,26,07,2018,,*5C
$IIVTG,293.,T,,M,00.0,N,00.0,K,A*22
$IIXTE,A,A,0.50,L,N,A,*3D
$IIDPT,0002.1,,*71
$IIDBT,0006.9,f,0002.1,M,,*75
$IIVLW,0397.0,N,001.43,N*46
$IIVHW,,,332.,M,00.00,N,00.00,K*1D
$IIMWV,338,R,03.5,N,A*1D
$IIVWR,022.,L,03.5,N,01.8,M,006.5,K*6B
$IIMWD,,,312.,M,03.5,N,01.8,M*01
$IIMTA,27.7,C*07
$IIMTW,21.2,C*12
$IIVWT,022.,L,03.5,N,01.8,M,006.5,K*6D
$IIHDG,332.,,,,*7B
$IIHDM,332.,M*10
$IIGLL,4720.712,N,00308.949,W,083718,A,A*4D
$IIZDA,083718,26,07,2018,,*52
$IIVTG,293.,T,,M,00.0,N,00.0,K,A*22
$IIXTE,A,A,0.50,L,N,A,*3D
$IIDPT,0002.0,,*70
$IIDBT,0006.6,f,0002.0,M,,*7B
$IIVLW,0397.0,N,001.43,N*46
$IIVHW,,,332.,M,00.00,N,00.00,K*1D
$IIMWV,336,R,03.5,N,A*13
$IIVWR,024.,L,03.5,N,01.8,M,006.5,K*6D
$IIMWD,,,308.,M,03.5,N,01.8,M*0A
$IIMTA,27.7,C*07
$IIMTW,21.2,C*12
$IIVWT,024.,L,03.5,N,01.8,M,006.5,K*6B
$IIHDG,333.,,,,*7A
$IIHDM,333.,M*11
$IIGLL,4720.712,N,00308.949,W,083718,A,A*4D
$IIZDA,083718,26,07,2018,,*52
$IIVTG,293.,T,,M,00.0,N,00.0,K,A*22
$IIXTE,A,A,0.50,L,N,A,*3D
$IIDPT,0002.0,,*70
$IIDBT,0006.6,f,0002.0,M,,*7B
$IIVLW,0397.0,N,001.43,N*46
$IIVHW,,,333.,M,00.00,N,00.00,K*1C
$IIMWV,333,R,03.6,N,A*15
$IIVWR,027.,L,03.6,N,01.9,M,006.7,K*6E
$IIMWD,,,308.,M,03.6,N,01.9,M*08
$IIMTA,27.7,C*07
$IIMTW,21.2,C*12
$IIVWT,025.,L,03.6,N,01.9,M,006.7,K*6A
$IIHDG,333.,,,,*7A
$IIHDM,333.,M*11
$IIGLL,4720.712,N,00308.949,W,083720,A,A*46
$IIZDA,083720,26,07,2018,,*59
$IIVTG,293.,T,,M,00.0,N,00.0,K,A*22
$IIXTE,A,A,0.50,L,N,A,*3D
$IIDPT,0002.0,,*70
$IIDBT,0006.6,f,0002.0,M,,*7B
$IIVLW,0397.0,N,001.43,N*46
$IIVHW,,,332.,M,00.00,N,00.00,K*1D
$IIMWV,333,R,03.7,N,A*14
$IIVWR,027.,L,03.7,N,01.9,M,006.9,K*61
$IIMWD,,,306.,M,03.7,N,01.9,M*07
$IIMTA,27.7,C*07
$IIMTW,21.2,C*12
$IIVWT,027.,L,03.7,N,01.9,M,006.9,K*67
$IIHDG,332.,,,,*7B
$IIHDM,332.,M*10
$IIGLL,4720.712,N,00308.949,W,083722,A,A*44
$IIZDA,083722,26,07,2018,,*5B
$IIVTG,293.,T,,M,00.0,N,00.0,K,A*22
$IIXTE,A,A,0.50,L,N,A,*3D
$IIDPT,0002.0,,*70
$IIDBT,0006.6,f,0002.0,M,,*7B
$IIVLW,0397.0,N,001.43,N*46
$IIVHW,,,332.,M,00.00,N,00.00,K*1D
$IIMWV,330,R,03.9,N,A*19
$IIVWR,030.,L,03.9,N,02.0,M,007.2,K*69
$IIMWD,,,302.,M,03.9,N,02.0,M*07
$IIMTA,27.7,C*07
$IIMTW,21.2,C*12
$IIVWT,030.,L,03.9,N,02.0,M,007.2,K*6F
$IIHDG,332.,,,,*7B
$IIHDM,332.,M*10
$IIGLL,4720.712,N,00308.949,W,083722,A,A*44
$IIZDA,083722,26,07,2018,,*5B
$IIVTG,293.,T,,M,00.0,N,00.0,K,A*22
$IIXTE,A,A,0.50,L,N,A,*3D
$IIDPT,0001.9,,*7A
$IIDBT,0006.2,f,0001.9,M,,*75
$IIVLW,0397.0,N,001.43,N*46
$IIVHW,,,333.,M,00.00,N,00.00,K*1C
$IIMWV,329,R,04.0,N,A*1F
$IIVWR,031.,L,04.0,N,02.1,M,007.4,K*61
$IIMWD,,,302.,M,04.0,N,02.1,M*08
$IIMTA,27.7,C*07
$IIMTW,21.2,C*12
$IIVWT,031.,L,04.0,N,02.1,M,007.4,K*67
$IIHDG,333.,,,,*7A
$IIHDM,333.,M*11
$IIGLL,4720.712,N,00308.949,W,083724,A,A*42
$IIZDA,083724,26,07,2018,,*5D
$IIVTG,293.,T,,M,00.0,N,00.0,K,A*22
$IIXTE,A,A,0.50,L,N,A,*3D
$IIDPT,0002.0,,*70
$IIDBT,0006.6,f,0002.0,M,,*7B
$IIVLW,0397.0,N,001.43,N*46
$IIVHW,,,332.,M,00.00,N,00.00,K*1D
$IIMWV,328,R,04.2,N,A*1C
$IIVWR,032.,L,04.2,N,02.2,M,007.8,K*6F
$IIMWD,,,301.,M,04.1,N,02.1,M*0A
$IIMTA,27.7,C*07
$IIMTW,21.2,C*12
$IIVWT,032.,L,04.1,N,02.1,M,007.6,K*67
$IIHDG,332.,,,,*7B
$IIHDM,332.,M*10
$IIGLL,4720.712,N,00308.949,W,083726,A,A*40
$IIZDA,083726,26,07,2018,,*5F
$IIVTG,293.,T,,M,00.0,N,00.0,K,A*22
$IIXTE,A,A,0.50,L,N,A,*3D
$IIDPT,0001.9,,*7A
$IIDBT,0006.2,f,0001.9,M,,*75
$IIVLW,0397.0,N,001.43,N*46
$IIVHW,,,332.,M,00.00,N,00.00,K*1D
$IIMWV,328,R,04.2,N,A*1C
$IIVWR,032.,L,04.2,N,02.2,M,007.8,K*6F
$IIMWD,,,300.,M,04.2,N,02.2,M*0B
$IIMTA,27.7,C*07
$IIMTW,21.2,C*12
$IIVWT,034.,L,04.3,N,02.2,M,008.0,K*69
$IIHDG,333.,,,,*7A
$IIHDM,333.,M*11
$IIGLL,4720.712,N,00308.949,W,083726,A,A*40
$IIZDA,083726,26,07,2018,,*5F
$IIVTG,293.,T,,M,00.0,N,00.0,K,A*22
$IIXTE,A,A,0.50,L,N,A,*3D
$IIDPT,0002.0,,*70
$IIDBT,0006.6,f,0002.0,M,,*7B
$IIVLW,0397.0,N,001.43,N*46
$IIVHW,,,334.,M,00.00,N,00.00,K*1B
$IIMWV,325,R,04.3,N,A*10
$IIVWR,035.,L,04.3,N,02.2,M,008.0,K*6E
$IIMWD,,,299.,M,04.3,N,02.2,M*0B
$IIMTA,27.7,C*07
$IIMTW,21.2,C*12
$IIVWT,035.,L,04.3,N,02.2,M,008.0,K*68
$IIHDG,335.,,,,*7C
$IIHDM,335.,M*17
$IIGLL,4720.712,N,00308.949,W,083728,A,A*4E
$IIZDA,083728,26,07,2018,,*51
$IIVTG,293.,T,,M,00.0,N,00.0,K,A*22
$IIXTE,A,A,0.50,L,N,A,*3D
$IIDPT,0002.1,,*71
$IIDBT,0006.9,f,0002.1,M,,*75
$IIVLW,0397.0,N,001.43,N*46
$IIVHW,,,335.,M,00.00,N,00.00,K*1A
$IIMWV,323,R,04.4,N,A*11
$IIVWR,037.,L,04.4,N,02.3,M,008.1,K*6B
$IIMWD,,,298.,M,04.4,N,02.3,M*0C
$IIMTA,27.7,C*07
$IIMTW,21.2,C*12
$IIVWT,037.,L,04.4,N,02.3,M,008.1,K*6D
$IIHDG,336.,,,,*7F
$IIHDM,336.,M*14
$IIGLL,4720.712,N,00308.949,W,083730,A,A*47
$IIZDA,083730,26,07,2018,,*58
$IIVTG,293.,T,,M,00.0,N,00.0,K,A*22
$IIXTE,A,A,0.50,L,N,A,*3D
$IIDPT,0002.0,,*70
$IIDBT,0006.6,f,0002.0,M,,*7B
$IIVLW,0397.0,N,001.43,N*46
$IIVHW,,,337.,M,00.00,N,00.00,K*18
$IIMWV,322,R,04.4,N,A*10
$IIVWR,038.,L,04.4,N,02.3,M,008.1,K*64
$IIMWD,,,299.,M,04.4,N,02.3,M*0D
$IIMTA,27.7,C*07
$IIMTW,21.2,C*12
$IIVWT,037.,L,04.4,N,02.3,M,008.1,K*6D
$IIHDG,337.,,,,*7E
$IIHDM,337.,M*15
$IIGLL,4720.712,N,00308.949,W,083730,A,A*47
$IIZDA,083730,26,07,2018,,*58
$IIVTG,293.,T,,M,00.0,N,00.0,K,A*22
$IIXTE,A,A,0.50,L,N,A,*3D
$IIDPT,0002.0,,*70
$IIDBT,0006.6,f,0002.0,M,,*7B
$IIVLW,0397.0,N,001.43,N*46
$IIVHW,,,338.,M,00.00,N,00.00,K*17
$IIMWV,319,R,04.4,N,A*18
$IIVWR,041.,L,04.4,N,02.3,M,008.1,K*6A
$IIMWD,,,298.,M,04.4,N,02.3,M*0C
$IIMTA,27.7,C*07
$IIMTW,21.2,C*12
$IIVWT,041.,L,04.4,N,02.3,M,008.1,K*6C
$IIHDG,339.,,,,*70
$IIHDM,340.,M*15
$IIGLL,4720.712,N,00308.949,W,083732,A,A*45
$IIZDA,083732,26,07,2018,,*5A
$IIVTG,293.,T,,M,00.0,N,00.0,K,A*22
$IIXTE,A,A,0.50,L,N,A,*3D
$IIDPT,0002.0,,*70
$IIDBT,0006.6,f,0002.0,M,,*7B
$IIVLW,0397.0,N,001.43,N*46
$IIVHW,,,341.,M,00.00,N,00.00,K*19
$IIMWV,319,R,04.5,N,A*19
$IIVWR,041.,L,04.5,N,02.3,M,008.3,K*69
$IIMWD,,,300.,M,04.5,N,02.3,M*0D
$IIMTA,27.7,C*07
$IIMTW,21.2,C*12
$IIVWT,041.,L,04.5,N,02.3,M,008.3,K*6F
$IIHDG,341.,,,,*7F
$IIHDM,341.,M*14
$IIGLL,4720.712,N,00308.949,W,083732,A,A*45
$IIZDA,083732,26,07,2018,,*5A
$IIVTG,293.,T,,M,00.0,N,00.0,K,A*22
$IIXTE,A,A,0.50,L,N,A,*3D
$IIDPT,0002.0,,*70
$IIDBT,0006.6,f,0002.0,M,,*7B
$IIVLW,0397.0,N,001.43,N*46
$IIVHW,,,341.,M,00.00,N,00.00,K*19
$IIMWV,317,R,04.7,N,A*15
$IIVWR,043.,L,04.7,N,02.4,M,008.7,K*6A
$IIMWD,,,299.,M,04.6,N,02.4,M*08
$IIMTA,27.8,C*08
$IIMTW,21.2,C*12
$IIVWT,042.,L,04.6,N,02.4,M,008.5,K*6E
$IIHDG,341.,,,,*7F
$IIHDM,341.,M*14
$IIGLL,4720.712,N,00308.949,W,083734,A,A*43
$IIZDA,083734,26,07,2018,,*5C
$IIVTG,293.,T,,M,00.0,N,00.0,K,A*22
$IIXTE,A,A,0.50,L,N,A,*3D
$IIDPT,0002.0,,*70
$IIDBT,0006.6,f,0002.0,M,,*7B
$IIVLW,0397.0,N,001.43,N*46
$IIVHW,,,342.,M,00.00,N,00.00,K*1A
$IIMWV,315,R,04.7,N,A*17
$IIVWR,045.,L,04.7,N,02.4,M,008.7,K*6C
$IIMWD,,,298.,M,04.7,N,02.4,M*08
$IIMTA,27.8,C*08
$IIMTW,21.2,C*12
$IIVWT,043.,L,04.7,N,02.4,M,008.7,K*6C
$IIHDG,342.,,,,*7C
$IIHDM,342.,M*17
$IIGLL,4720.712,N,00308.949,W,083736,A,A*41
$IIZDA,083736,26,07,2018,,*5E
$IIVTG,293.,T,,M,00.0,N,00.0,K,A*22
$IIXTE,A,A,0.50,L,N,A,*3D
$IIDPT,0002.2,,*72
$IIDBT,0007.2,f,0002.2,M,,*7C
$IIVLW,0397.0,N,001.43,N*46
$IIVHW,,,342.,M,00.00,N,00.00,K*1A
$IIMWV,314,R,04.8,N,A*19
$IIVWR,046.,L,04.8,N,02.5,M,008.9,K*6F
$IIMWD,,,297.,M,04.8,N,02.5,M*09
$IIMTA,27.8,C*08
$IIMTW,21.2,C*12
$IIVWT,045.,L,04.8,N,02.5,M,008.9,K*6A
$IIHDG,341.,,,,*7F
$IIHDM,341.,M*14
$IIGLL,4720.712,N,00308.949,W,083736,A,A*41
$IIZDA,083736,26,07,2018,,*5E
$IIVTG,293.,T,,M,00.0,N,00.0,K,A*22
$IIXTE,A,A,0.50,L,N,A,*3D
$IIDPT,0002.2,,*72
$IIDBT,0006.9,f,0002.1,M,,*75
$IIVLW,0397.0,N,001.43,N*46
$IIVHW,,,340.,M,00.00,N,00.00,K*18
$IIMWV,314,R,04.8,N,A*19
$IIVWR,046.,L,04.8,N,02.5,M,008.9,K*6F
$IIMWD,,,294.,M,04.8,N,02.5,M*0A
$IIMTA,27.8,C*08
$IIMTW,21.2,C*12
$IIVWT,046.,L,04.8,N,02.5,M,008.9,K*69
$IIHDG,340.,,,,*7E
$IIHDM,340.,M*15
$IIGLL,4720.712,N,00308.949,W,083738,A,A*4F
$IIZDA,083738,26,07,2018,,*50
$IIVTG,293.,T,,M,00.0,N,00.0,K,A*22
$IIXTE,A,A,0.50,L,N,A,*3D
$IIDPT,0002.0,,*70
$IIDBT,0006.6,f,0002.0,M,,*7B
$IIVLW,0397.0,N,001.43,N*46
$IIVHW,,,339.,M,00.00,N,00.00,K*16
$IIMWV,312,R,04.8,N,A*1F
$IIVWR,048.,L,04.8,N,02.5,M,008.9,K*61
$IIMWD,,,291.,M,04.8,N,02.5,M*0F
$IIMTA,27.7,C*07
$IIMTW,21.2,C*12
$IIVWT,048.,L,04.8,N,02.5,M,008.9,K*67
$IIHDG,340.,,,,*7E
$IIHDM,340.,M*15
$IIGLL,4720.712,N,00308.949,W,083740,A,A*40
$IIZDA,083740,26,07,2018,,*5F
$IIVTG,293.,T,,M,00.0,N,00.0,K,A*22
$IIXTE,A,A,0.50,L,N,A,*3D
$IIDPT,0002.0,,*70
$IIDBT,0006.6,f,0002.0,M,,*7B
$IIVLW,0397.0,N,001.43,N*46
$IIVHW,,,339.,M,00.00,N,00.00,K*16
$IIMWV,309,R,04.8,N,A*15
$IIVWR,051.,L,04.8,N,02.5,M,008.9,K*69
$IIMWD,,,291.,M,04.8,N,02.5,M*0F
$IIMTA,27.7,C*07
$IIMTW,21.2,C*12
$IIVWT,049.,L,04.8,N,02.5,M,008.9,K*66
$IIHDG,339.,,,,*70
$IIHDM,339.,M*1B
$IIGLL,4720.712,N,00308.949,W,083740,A,A*40
$IIZDA,083740,26,07,2018,,*5F
$IIVTG,293.,T,,M,00.0,N,00.0,K,A*22
$IIXTE,A,A,0.50,L,N,A,*3D
$IIDPT,0002.0,,*70
$IIDBT,0006.6,f,0002.0,M,,*7B
$IIVLW,0397.0,N,001.43,N*46
$IIVHW,,,337.,M,00.00,N,00.00,K*18
$IIMWV,308,R,05.0,N,A*1D
$IIVWR,052.,L,05.0,N,02.6,M,009.3,K*6B
$IIMWD,,,288.,M,04.9,N,02.5,M*06
$IIMTA,27.7,C*07
$IIMTW,21.2,C*12
$IIVWT,052.,L,05.0,N,02.6,M,009.3,K*6D
$IIHDG,336.,,,,*7F
$IIHDM,336.,M*14
$IIGLL,4720.712,N,00308.949,W,083742,A,A*42
$IIZDA,083742,26,07,2018,,*5D
$IIVTG,293.,T,,M,00.0,N,00.0,K,A*22
$IIXTE,A,A,0.50,L,N,A,*3D
$IIDPT,0002.0,,*70
$IIDBT,0006.6,f,0002.0,M,,*7B
$IIVLW,0397.0,N,001.43,N*46
$IIVHW,,,335.,M,00.00,N,00.00,K*1A
$IIMWV,307,R,05.0,N,A*12
$IIVWR,053.,L,05.0,N,02.6,M,009.3,K*6A
$IIMWD,,,282.,M,05.0,N,02.6,M*07
$IIMTA,27.7,C*07
$IIMTW,21.2,C*12
$IIVWT,053.,L,05.0,N,02.6,M,009.3,K*6C
$IIHDG,335.,,,,*7C
$IIHDM,335.,M*17
$IIGLL,4720.712,N,00308.949,W,083742,A,A*42
$IIZDA,083742,26,07,2018,,*5D
$IIVTG,293.,T,,M,00.0,N,00.0,K,A*22
$IIXTE,A,A,0.50,L,N,A,*3D
$IIDPT,0002.0,,*70
$IIDBT,0006.6,f,0002.0,M,,*7B
$IIVLW,0397.0,N,001.43,N*46
$IIVHW,,,333.,M,00.00,N,00.00,K*1C
$IIMWV,304,R,05.4,N,A*15
$IIVWR,056.,L,05.4,N,02.8,M,010.0,K*6E
$IIMWD,,,278.,M,05.4,N,02.8,M*08
$IIMTA,27.7,C*07
$IIMTW,21.2,C*12
$IIVWT,056.,L,05.4,N,02.8,M,010.0,K*68
$IIHDG,332.,,,,*7B
$IIHDM,332.,M*10
$IIGLL,4720.713,N,00308.949,W,083744,A,A*45
$IIZDA,083744,26,07,2018,,*5B
$IIVTG,293.,T,,M,00.0,N,00.0,K,A*22
$IIXTE,A,A,0.50,L,N,A,*3D
$IIDPT,0002.0,,*70
$IIDBT,0006.6,f,0002.0,M,,*7B
$IIVLW,0397.0,N,001.43,N*46
$IIVHW,,,330.,M,00.00,N,00.00,K*1F
$IIMWV,306,R,05.7,N,A*14
$IIVWR,054.,L,05.7,N,02.9,M,010.6,K*68
$IIMWD,,,276.,M,05.6,N,02.9,M*05
$IIMTA,27.7,C*07
$IIMTW,21.2,C*12
$IIVWT,056.,L,05.6,N,02.9,M,010.4,K*6F
$IIHDG,328.,,,,*70
$IIHDM,328.,M*1B
$IIGLL,4720.713,N,00308.949,W,083746,A,A*47
$IIZDA,083746,26,07,2018,,*59
$IIVTG,293.,T,,M,00.0,N,00.0,K,A*22
$IIXTE,A,A,0.50,L,N,A,*3D
$IIDPT,0002.0,,*70
$IIDBT,0006.6,f,0002.0,M,,*7B
$IIVLW,0397.0,N,001.43,N*46
$IIVHW,,,326.,M,00.00,N,00.00,K*18
$IIMWV,306,R,05.8,N,A*1B
$IIVWR,054.,L,05.8,N,03.0,M,010.7,K*6E
$IIMWD,,,272.,M,05.8,N,03.0,M*07
$IIMTA,27.7,C*07
$IIMTW,21.2,C*12
$IIVWT,054.,L,05.8,N,03.0,M,010.7,K*68
$IIHDG,325.,,,,*7D
$IIHDM,325.,M*16
$IIGLL,4720.713,N,00308.949,W,083746,A,A*47
$IIZDA,083746,26,07,2018,,*59
$IIVTG,293.,T,,M,00.0,N,00.0,K,A*22
$IIXTE,A,A,0.50,L,N,A,*3D
$IIDPT,0002.0,,*70
$IIDBT,0006.6,f,0002.0,M,,*7B
$IIVLW,0397.0,N,001.43,N*46
$IIVHW,,,324.,M,00.00,N,00.00,K*1A
$IIMWV,306,R,06.0,N,A*10
$IIVWR,054.,L,06.0,N,03.1,M,011.1,K*63
$IIMWD,,,272.,M,05.8,N,03.0,M*07
$IIMTA,27.7,C*07
$IIMTW,21.2,C*12
$IIVWT,054.,L,05.8,N,03.0,M,010.7,K*68
$IIHDG,323.,,,,*7B
$IIHDM,323.,M*10
$IIGLL,4720.713,N,00308.949,W,083748,A,A*49
$IIZDA,083748,26,07,2018,,*57
$IIVTG,293.,T,,M,00.0,N,00.0,K,A*22
$IIXTE,A,A,0.50,L,N,A,*3D
$IIDPT,0002.1,,*71
$IIDBT,0006.9,f,0002.1,M,,*75
$IIVLW,0397.0,N,001.43,N*46
$IIVHW,,,321.,M,00.00,N,00.00,K*1F
$IIMWV,309,R,06.2,N,A*1D
$IIVWR,051.,L,06.2,N,03.2,M,011.5,K*63
$IIMWD,,,272.,M,06.2,N,03.2,M*0C
$IIMTA,27.7,C*07
$IIMTW,21.2,C*12
$IIVWT,051.,L,06.2,N,03.2,M,011.5,K*65
$IIHDG,319.,,,,*72
$IIHDM,319.,M*19
$IIGLL,4720.713,N,00308.949,W,083750,A,A*40
$IIZDA,083750,26,07,2018,,*5E
$IIVTG,293.,T,,M,00.0,N,00.0,K,A*22
$IIXTE,A,A,0.50,L,N,A,*3D
$IIDPT,0002.0,,*70
$IIDBT,0006.6,f,0002.0,M,,*7B
$IIVLW,0397.0,N,001.43,N*46
$IIVHW,,,318.,M,00.00,N,00.00,K*15
$IIMWV,311,R,06.2,N,A*14
$IIVWR,049.,L,06.2,N,03.2,M,011.5,K*6A
$IIMWD,,,270.,M,06.2,N,03.2,M*0E
$IIMTA,27.7,C*07
$IIMTW,21.2,C*12
$IIVWT,049.,L,06.2,N,03.2,M,011.5,K*6C
$IIHDG,317.,,,,*7C
$IIHDM,317.,M*17
$IIGLL,4720.713,N,00308.949,W,083750,A,A*40
$IIZDA,083750,26,07,2018,,*5E
$IIVTG,293.,T,,M,00.0,N,00.0,K,A*22
$IIXTE,A,A,0.50,L,N,A,*3D
$IIDPT,0002.0,,*70
$IIDBT,0006.6,f,0002.0,M,,*7B
$IIVLW,0397.0,N,001.43,N*46
$IIVHW,,,316.,M,00.00,N,00.00,K*1B
$IIMWV,310,R,06.4,N,A*13
$IIVWR,050.,L,06.4,N,03.3,M,011.9,K*69
$IIMWD,,,266.,M,06.4,N,03.3,M*0E
$IIMTA,27.7,C*07
$IIMTW,21.2,C*12
$IIVWT,050.,L,06.4,N,03.3,M,011.9,K*6F
$IIHDG,315.,,,,*7E
$IIHDM,315.,M*15
$IIGLL,4720.713,N,00308.949,W,083752,A,A*42
$IIZDA,083752,26,07,2018,,*5C
$IIVTG,293.,T,,M,00.0,N,00.0,K,A*22
$IIXTE,A,A,0.50,L,N,A,*3D
$IIDPT,0002.0,,*70
$IIDBT,0006.6,f,0002.0,M,,*7B
$IIVLW,0397.0,N,001.43,N*46
$IIVHW,,,314.,M,00.00,N,00.00,K*19
$IIMWV,313,R,06.4,N,A*10
$IIVWR,047.,L,06.4,N,03.3,M,011.9,K*6F
$IIMWD,,,266.,M,06.4,N,03.3,M*0E
$IIMTA,27.7,C*07
$IIMTW,21.2,C*12
$IIVWT,050.,L,06.4,N,03.3,M,011.9,K*6F
$IIHDG,313.,,,,*78
$IIHDM,313.,M*13
$IIGLL,4720.713,N,00308.949,W,083752,A,A*42
$IIZDA,083752,26,07,2018,,*5C
$IIVTG,293.,T,,M,00.0,N,00.0,K,A*22
$IIXTE,A,A,0.50,L,N,A,*3D
$IIDPT,0002.0,,*70
$IIDBT,0006.6,f,0002.0,M,,*7B
$IIVLW,0397.0,N,001.43,N*46
$IIVHW,,,312.,M,00.00,N,00.00,K*1F
$IIMWV,320,R,06.5,N,A*11
$IIVWR,040.,L,06.5,N,03.3,M,012.0,K*63
$IIMWD,,,273.,M,06.5,N,03.3,M*0B
$IIMTA,27.7,C*07
$IIMTW,21.2,C*12
$IIVWT,040.,L,06.5,N,03.3,M,012.0,K*65
$IIHDG,312.,,,,*79
$IIHDM,312.,M*12
$IIGLL,4720.713,N,00308.949,W,083754,A,A*44
$IIZDA,083754,26,07,2018,,*5A
$IIVTG,293.,T,,M,00.0,N,00.0,K,A*22
$IIXTE,A,A,0.50,L,N,A,*3D
$IIDPT,0002.0,,*70
$IIDBT,0006.6,f,0002.0,M,,*7B
$IIVLW,0397.0,N,001.43,N*46
$IIVHW,,,313.,M,00.00,N,00.00,K*1E
$IIMWV,322,R,06.8,N,A*1E
$IIVWR,038.,L,06.8,N,03.5,M,012.6,K*61
$IIMWD,,,273.,M,06.6,N,03.4,M*0F
$IIMTA,27.7,C*07
$IIMTW,21.2,C*12
$IIVWT,038.,L,06.8,N,03.5,M,012.6,K*67
$IIHDG,313.,,,,*78
$IIHDM,313.,M*13
$IIGLL,4720.713,N,00308.949,W,083756,A,A*46
$IIZDA,083756,26,07,2018,,*58
$IIVTG,293.,T,,M,00.0,N,00.0,K,A*22
$IIXTE,A,A,0.50,L,N,A,*3D
$IIDPT,0002.2,,*72
$IIDBT,0007.2,f,0002.2,M,,*7C
$IIVLW,0397.0,N,001.43,N*46
$IIVHW,,,313.,M,00.00,N,00.00,K*1E
$IIMWV,331,R,06.9,N,A*1D
$IIVWR,029.,L,06.9,N,03.5,M,012.8,K*6E
$IIMWD,,,284.,M,06.9,N,03.5,M*09
$IIMTA,27.7,C*07
$IIMTW,21.2,C*12
$IIVWT,029.,L,06.9,N,03.5,M,012.8,K*68
$IIHDG,313.,,,,*78
$IIHDM,313.,M*13
$IIGLL,4720.713,N,00308.949,W,083756,A,A*46
$IIZDA,083756,26,07,2018,,*58
$IIVTG,293.,T,,M,00.0,N,00.0,K,A*22
$IIXTE,A,A,0.50,L,N,A,*3D
$IIDPT,0002.1,,*71
$IIDBT,0006.9,f,0002.1,M,,*75
$IIVLW,0397.0,N,001.43,N*46
$IIVHW,,,313.,M,00.00,N,00.00,K*1E
$IIMWV,332,R,06.9,N,A*1E
$IIVWR,028.,L,06.9,N,03.5,M,012.8,K*6F
$IIMWD,,,286.,M,06.9,N,03.5,M*0B
$IIMTA,27.7,C*07
$IIMTW,21.1,C*11
$IIVWT,027.,L,06.9,N,03.5,M,012.8,K*66
$IIHDG,314.,,,,*7F
$IIHDM,314.,M*14
$IIGLL,4720.713,N,00308.949,W,083758,A,A*48
$IIZDA,083758,26,07,2018,,*56
$IIVTG,293.,T,,M,00.0,N,00.0,K,A*22
$IIXTE,A,A,0.50,L,N,A,*3D
$IIDPT,0002.1,,*71
$IIDBT,0006.9,f,0002.1,M,,*75
$IIVLW,0397.0,N,001.43,N*46
$IIVHW,,,315.,M,00.00,N,00.00,K*18
$IIMWV,330,R,06.9,N,A*1C
$IIVWR,030.,L,06.9,N,03.5,M,012.8,K*66
$IIMWD,,,286.,M,06.9,N,03.5,M*0B
$IIMTA,27.7,C*07
$IIMTW,21.2,C*12
$IIVWT,028.,L,06.9,N,03.5,M,012.8,K*69
$IIHDG,316.,,,,*7D
$IIHDM,316.,M*16
$IIGLL,4720.713,N,00308.949,W,083800,A,A*4A
$IIZDA,083800,26,07,2018,,*54
$IIVTG,293.,T,,M,00.0,N,00.0,K,A*22
$IIXTE,A,A,0.50,L,N,A,*3D
$IIDPT,0002.2,,*72
$IIDBT,0007.2,f,0002.2,M,,*7C
$IIVLW,0397.0,N,001.43,N*46
$IIVHW,,,317.,M,00.00,N,00.00,K*1A
$IIMWV,330,R,06.9,N,A*1C
$IIVWR,030.,L,06.9,N,03.5,M,012.8,K*66
$IIMWD,,,285.,M,06.9,N,03.5,M*08
$IIMTA,27.7,C*07
$IIMTW,21.2,C*12
$IIVWT,030.,L,06.9,N,03.5,M,012.8,K*60
$IIHDG,317.,,,,*7C
$IIHDM,317.,M*17
$IIGLL,4720.713,N,00308.949,W,083800,A,A*4A
$IIZDA,083800,26,07,2018,,*54
$IIVTG,293.,T,,M,00.0,N,00.0,K,A*22
$IIXTE,A,A,0.50,L,N,A,*3D
$IIDPT,0002.2,,*72
$IIDBT,0007.2,f,0002.2,M,,*7C
$IIVLW,0397.0,N,001.43,N*46
$IIVHW,,,317.,M,00.00,N,00.00,K*1A
$IIMWV,333,R,06.8,N,A*1E
$IIVWR,027.,L,06.8,N,03.5,M,012.6,K*6F
$IIMWD,,,290.,M,06.8,N,03.5,M*0D
$IIMTA,27.7,C*07
$IIMTW,21.2,C*12
$IIVWT,027.,L,06.8,N,03.5,M,012.6,K*69
$IIHDG,317.,,,,*7C
$IIHDM,317.,M*17
$IIGLL,4720.713,N,00308.949,W,083802,A,A*48
$IIZDA,083802,26,07,2018,,*56
$IIVTG,293.,T,,M,00.0,N,00.0,K,A*22
$IIXTE,A,A,0.50,L,N,A,*3D
$IIDPT,0002.1,,*71
$IIDBT,0006.9,f,0002.1,M,,*75
$IIVLW,0397.0,N,001.43,N*46
$IIVHW,,,318.,M,00.00,N,00.00,K*15
$IIMWV,331,R,06.8,N,A*1C
$IIVWR,029.,L,06.8,N,03.5,M,012.6,K*61
$IIMWD,,,290.,M,06.8,N,03.5,M*0D
$IIMTA,27.7,C*07
$IIMTW,21.2,C*12
$IIVWT,028.,L,06.8,N,03.5,M,012.6,K*66
$IIHDG,319.,,,,*72
$IIHDM,321.,M*12
$IIGLL,4720.713,N,00308.949,W,083804,A,A*4E
$IIZDA,083804,26,07,2018,,*50
$IIVTG,293.,T,,M,00.0,N,00.0,K,A*22
$IIXTE,A,A,0.50,L,N,A,*3D
$IIDPT,0002.1,,*71
$IIDBT,0006.9,f,0002.1,M,,*75
$IIVLW,0397.0,N,001.43,N*46
$IIVHW,,,321.,M,00.00,N,00.00,K*1F
$IIMWV,331,R,06.8,N,A*1C
$IIVWR,029.,L,06.8,N,03.5,M,012.6,K*61
$IIMWD,,,292.,M,06.8,N,03.5,M*0F
$IIMTA,27.7,C*07
$IIMTW,21.2,C*12
$IIVWT,029.,L,06.8,N,03.5,M,012.6,K*67
$IIHDG,321.,,,,*79
$IIHDM,321.,M*12
$IIGLL,4720.713,N,00308.949,W,083804,A,A*4E
$IIZDA,083804,26,07,2018,,*50
$IIVTG,293.,T,,M,00.0,N,00.0,K,A*22
$IIXTE,A,A,0.50,L,N,A,*3D
$IIDPT,0002.1,,*71
$IIDBT,0006.9,f,0002.1,M,,*75
$IIVLW,0397.0,N,001.43,N*46
$IIVHW,,,321.,M,00.00,N,00.00,K*1F
$IIMWV,338,R,06.8,N,A*15
$IIVWR,022.,L,06.8,N,03.5,M,012.6,K*6A
$IIMWD,,,295.,M,06.9,N,03.5,M*09
$IIMTA,27.7,C*07
$IIMTW,21.2,C*12
$IIVWT,022.,L,06.8,N,03.5,M,012.6,K*6C
$IIHDG,322.,,,,*7A
$IIHDM,322.,M*11
$IIGLL,4720.713,N,00308.949,W,083806,A,A*4C
$IIZDA,083806,26,07,2018,,*52
$IIVTG,293.,T,,M,00.0,N,00.0,K,A*22
$IIXTE,A,A,0.50,L,N,A,*3D
$IIDPT,0002.0,,*70
$IIDBT,0006.6,f,0002.0,M,,*7B
$IIVLW,0397.0,N,001.43,N*46
$IIVHW,,,323.,M,00.00,N,00.00,K*1D
$IIMWV,337,R,06.8,N,A*1A
$IIVWR,023.,L,06.8,N,03.5,M,012.6,K*6B
$IIMWD,,,300.,M,06.8,N,03.5,M*05
$IIMTA,27.7,C*07
$IIMTW,21.2,C*12
$IIVWT,023.,L,06.8,N,03.5,M,012.6,K*6D
$IIHDG,324.,,,,*7C
$IIHDM,324.,M*17
$IIGLL,4720.713,N,00308.949,W,083806,A,A*4C
$IIZDA,083806,26,07,2018,,*52
$IIVTG,293.,T,,M,00.0,N,00.0,K,A*22
$IIXTE,A,A,0.50,L,N,A,*3D
$IIDPT,0002.0,,*70
$IIDBT,0006.6,f,0002.0,M,,*7B
$IIVLW,0397.0,N,001.43,N*46
$IIVHW,,,325.,M,00.00,N,00.00,K*1B
$IIMWV,342,R,06.7,N,A*17
$IIVWR,018.,L,06.7,N,03.4,M,012.4,K*6F
$IIMWD,,,303.,M,06.7,N,03.4,M*08
$IIMTA,27.7,C*07
$IIMTW,21.2,C*12
$IIVWT,022.,L,06.7,N,03.4,M,012.4,K*60
$IIHDG,325.,,,,*7D
$IIHDM,325.,M*16
$IIGLL,4720.713,N,00308.949,W,083808,A,A*42
$IIZDA,083808,26,07,2018,,*5C
$IIVTG,293.,T,,M,00.0,N,00.0,K,A*22
$IIXTE,A,A,0.50,L,N,A,*3D
$IIDPT,0002.0,,*70
$IIDBT,0006.6,f,0002.0,M,,*7B
$IIVLW,0397.0,N,001.43,N*46
$IIVHW,,,325.,M,00.00,N,00.00,K*1B
$IIMWV,346,R,06.6,N,A*12
$IIVWR,014.,L,06.6,N,03.4,M,012.2,K*64
$IIMWD,,,307.,M,06.7,N,03.4,M*0C
$IIMTA,27.7,C*07
$IIMTW,21.2,C*12
$IIVWT,018.,L,06.7,N,03.4,M,012.4,K*69
$IIHDG,325.,,,,*7D
$IIHDM,325.,M*16
$IIGLL,4720.713,N,00308.949,W,083810,A,A*4B
$IIZDA,083810,26,07,2018,,*55
$IIVTG,293.,T,,M,00.0,N,00.0,K,A*22
$IIXTE,A,A,0.50,L,N,A,*3D
$IIDPT,0002.0,,*70
$IIDBT,0006.6,f,0002.0,M,,*7B
$IIVLW,0397.0,N,001.43,N*46
$IIVHW,,,326.,M,00.00,N,00.00,K*18
$IIMWV,347,R,06.6,N,A*13
$IIVWR,013.,L,06.6,N,03.4,M,012.2,K*63
$IIMWD,,,312.,M,06.6,N,03.4,M*09
$IIMTA,27.7,C*07
$IIMTW,21.2,C*12
$IIVWT,013.,L,06.6,N,03.4,M,012.2,K*65
$IIHDG,326.,,,,*7E
$IIHDM,326.,M*15
$IIGLL,4720.713,N,00308.949,W,083810,A,A*4B
$IIZDA,083810,26,07,2018,,*55
$IIVTG,293.,T,,M,00.0,N,00.0,K,A*22
$IIXTE,A,A,0.50,L,N,A,*3D
$IIDPT,0002.0,,*70
$IIDBT,0006.6,f,0002.0,M,,*7B
$IIVLW,0397.0,N,001.43,N*46
$IIVHW,,,326.,M,00.00,N,00.00,K*18
$IIMWV,347,R,06.7,N,A*12
$IIVWR,013.,L,06.7,N,03.4,M,012.4,K*64
$IIMWD,,,313.,M,06.7,N,03.4,M*09
$IIMTA,27.7,C*07
$IIMTW,21.2,C*12
$IIVWT,013.,L,06.7,N,03.4,M,012.4,K*62
$IIHDG,326.,,,,*7E
$IIHDM,326.,M*15
$IIGLL,4720.713,N,00308.949,W,083812,A,A*49
$IIZDA,083812,26,07,2018,,*57
$IIVTG,293.,T,,M,00.0,N,00.0,K,A*22
$IIXTE,A,A,0.50,L,N,A,*3D
$IIDPT,0002.2,,*72
$IIDBT,0007.2,f,0002.2,M,,*7C
$IIVLW,0397.0,N,001.43,N*46
$IIVHW,,,325.,M,00.00,N,00.00,K*1B
$IIMWV,348,R,07.0,N,A*1B
$IIVWR,012.,L,07.0,N,03.6,M,013.0,K*64
$IIMWD,,,313.,M,06.9,N,03.5,M*06
$IIMTA,27.7,C*07
$IIMTW,21.2,C*12
$IIVWT,012.,L,06.9,N,03.5,M,012.8,K*60
$IIHDG,324.,,,,*7C
$IIHDM,324.,M*17
$IIGLL,4720.713,N,00308.949,W,083814,A,A*4F
$IIZDA,083814,26,07,2018,,*51
$IIVTG,293.,T,,M,00.0,N,00.0,K,A*22
$IIXTE,A,A,0.50,L,N,A,*3D
$IIDPT,0002.0,,*70
$IIDBT,0006.6,f,0002.0,M,,*7B
$IIVLW,0397.0,N,001.43,N*46
$IIVHW,,,324.,M,00.00,N,00.00,K*1A
$IIMWV,347,R,07.2,N,A*16
$IIVWR,013.,L,07.2,N,03.7,M,013.3,K*65
$IIMWD,,,312.,M,07.0,N,03.6,M*0C
$IIMTA,27.7,C*07
$IIMTW,21.2,C*12
$IIVWT,012.,L,07.0,N,03.6,M,013.0,K*62
$IIHDG,324.,,,,*7C
$IIHDM,324.,M*17
$IIGLL,4720.713,N,00308.949,W,083814,A,A*4F
$IIZDA,083814,26,07,2018,,*51
$IIVTG,293.,T,,M,00.0,N,00.0,K,A*22
$IIXTE,A,A,0.50,L,N,A,*3D
$IIDPT,0002.0,,*70
$IIDBT,0006.6,f,0002.0,M,,*7B
$IIVLW,0397.0,N,001.43,N*46
$IIVHW,,,325.,M,00.00,N,00.00,K*1B
$IIMWV,346,R,07.3,N,A*16
$IIVWR,014.,L,07.3,N,03.8,M,013.5,K*6A
$IIMWD,,,311.,M,07.3,N,03.8,M*02
$IIMTA,27.7,C*07
$IIMTW,21.2,C*12
$IIVWT,014.,L,07.3,N,03.8,M,013.5,K*6C
$IIHDG,325.,,,,*7D
$IIHDM,325.,M*16
$IIGLL,4720.713,N,00308.949,W,083816,A,A*4D
$IIZDA,083816,26,07,2018,,*53
$IIVTG,293.,T,,M,00.0,N,00.0,K,A*22
$IIXTE,A,A,0.50,L,N,A,*3D
$IIDPT,0001.9,,*7A
$IIDBT,0006.2,f,0001.9,M,,*75
$IIVLW,0397.0,N,001.43,N*46
$IIVHW,,,324.,M,00.00,N,00.00,K*1A
$IIMWV,348,R,07.3,N,A*18
$IIVWR,012.,L,07.3,N,03.8,M,013.5,K*6C
$IIMWD,,,312.,M,07.3,N,03.8,M*01
$IIMTA,27.7,C*07
$IIMTW,21.2,C*12
$IIVWT,012.,L,07.3,N,03.8,M,013.5,K*6A
$IIHDG,324.,,,,*7C
$IIHDM,324.,M*17
$IIGLL,4720.713,N,00308.949,W,083818,A,A*43
$IIZDA,083818,26,07,2018,,*5D
$IIVTG,293.,T,,M,00.0,N,00.0,K,A*22
$IIXTE,A,A,0.50,L,N,A,*3D
$IIDPT,0001.8,,*7B
$IIDBT,0005.9,f,0001.8,M,,*7C
$IIVLW,0397.0,N,001.43,N*46
$IIVHW,,,323.,M,00.00,N,00.00,K*1D
$IIMWV,348,R,07.2,N,A*19
$IIVWR,012.,L,07.2,N,03.7,M,013.3,K*64
$IIMWD,,,312.,M,07.3,N,03.8,M*01
$IIMTA,27.7,C*07
$IIMTW,21.2,C*12
$IIVWT,012.,L,07.3,N,03.8,M,013.5,K*6A
$IIHDG,323.,,,,*7B
$IIHDM,323.,M*10
$IIGLL,4720.713,N,00308.949,W,083818,A,A*43
$IIZDA,083818,26,07,2018,,*5D
$IIVTG,293.,T,,M,00.0,N,00.0,K,A*22
$IIXTE,A,A,0.50,L,N,A,*3D
$IIDPT,0001.9,,*7A
$IIDBT,0006.2,f,0001.9,M,,*75
$IIVLW,0397.0,N,001.43,N*46
$IIVHW,,,323.,M,00.00,N,00.00,K*1D
$IIMWV,348,R,07.2,N,A*19
$IIVWR,012.,L,07.2,N,03.7,M,013.3,K*64
$IIMWD,,,311.,M,07.2,N,03.7,M*0C
$IIMTA,27.7,C*07
$IIMTW,21.2,C*12
$IIVWT,012.,L,07.2,N,03.7,M,013.3,K*62
$IIHDG,323.,,,,*7B
$IIHDM,323.,M*10
$IIGLL,4720.713,N,00308.949,W,083820,A,A*48
$IIZDA,083820,26,07,2018,,*56
$IIVTG,293.,T,,M,00.0,N,00.0,K,A*22
$IIXTE,A,A,0.50,L,N,A,*3D
$IIDPT,0002.1,,*71
$IIDBT,0006.9,f,0002.1,M,,*75
$IIVLW,0397.0,N,001.43,N*46
$IIVHW,,,322.,M,00.00,N,00.00,K*1C
$IIMWV,350,R,07.1,N,A*13
$IIVWR,010.,L,07.1,N,03.7,M,013.1,K*67
$IIMWD,,,313.,M,07.1,N,03.7,M*0D
$IIMTA,27.7,C*07
$IIMTW,21.2,C*12
$IIVWT,010.,L,07.1,N,03.7,M,013.1,K*61
$IIHDG,322.,,,,*7A
$IIHDM,322.,M*11
$IIGLL,4720.713,N,00308.949,W,083820,A,A*48
$IIZDA,083820,26,07,2018,,*56
$IIVTG,293.,T,,M,00.0,N,00.0,K,A*22
$IIXTE,A,A,0.50,L,N,A,*3D
$IIDPT,0002.0,,*70
$IIDBT,0006.6,f,0002.0,M,,*7B
$IIVLW,0397.0,N,001.43,N*46
$IIVHW,,,321.,M,00.00,N,00.00,K*1F
$IIMWV,352,R,07.1,N,A*11
$IIVWR,008.,L,07.1,N,03.7,M,013.1,K*6E
$IIMWD,,,313.,M,07.0,N,03.6,M*0D
$IIMTA,27.7,C*07
$IIMTW,21.2,C*12
$IIVWT,008.,L,07.0,N,03.6,M,013.0,K*69
$IIHDG,321.,,,,*79
$IIHDM,321.,M*12
$IIGLL,4720.713,N,00308.949,W,083822,A,A*4A
$IIZDA,083822,26,07,2018,,*54
$IIVTG,293.,T,,M,00.0,N,00.0,K,A*22
$IIXTE,A,A,0.50,L,N,A,*3D
$IIDPT,0001.9,,*7A
$IIDBT,0006.2,f,0001.9,M,,*75
$IIVLW,0397.0,N,001.43,N*46
$IIVHW,,,320.,M,00.00,N,00.00,K*1E
$IIMWV,349,R,07.0,N,A*1A
$IIVWR,011.,L,07.0,N,03.6,M,013.0,K*67
$IIMWD,,,313.,M,07.0,N,03.6,M*0D
$IIMTA,27.7,C*07
$IIMTW,21.2,C*12
$IIVWT,008.,L,07.0,N,03.6,M,013.0,K*69
$IIHDG,321.,,,,*79
$IIHDM,321.,M*12
$IIGLL,4720.713,N,00308.949,W,083824,A,A*4C
$IIZDA,083824,26,07,2018,,*52
$IIVTG,293.,T,,M,00.0,N,00.0,K,A*22
$IIXTE,A,A,0.50,L,N,A,*3D
$IIDPT,0002.0,,*70
$IIDBT,0006.6,f,0002.0,M,,*7B
$IIVLW,0397.0,N,001.43,N*46
$IIVHW,,,321.,M,00.00,N,00.00,K*1F
$IIMWV,347,R,06.9,N,A*1C
$IIVWR,013.,L,06.9,N,03.5,M,012.8,K*67
$IIMWD,,,309.,M,07.0,N,03.6,M*06
$IIMTA,27.7,C*07
$IIMTW,21.2,C*12
$IIVWT,011.,L,07.0,N,03.6,M,013.0,K*61
$IIHDG,321.,,,,*79
$IIHDM,321.,M*12
$IIGLL,4720.713,N,00308.949,W,083824,A,A*4C
$IIZDA,083824,26,07,2018,,*52
$IIVTG,293.,T,,M,00.0,N,00.0,K,A*22
$IIXTE,A,A,0.50,L,N,A,*3D
$IIDPT,0002.0,,*70
$IIDBT,0006.6,f,0002.0,M,,*7B
$IIVLW,0397.0,N,001.43,N*46
$IIVHW,,,320.,M,00.00,N,00.00,K*1E
$IIMWV,349,R,06.9,N,A*12
$IIVWR,011.,L,06.9,N,03.5,M,012.8,K*65
$IIMWD,,,308.,M,06.9,N,03.5,M*0C
$IIMTA,27.7,C*07
$IIMTW,21.2,C*12
$IIVWT,012.,L,06.9,N,03.5,M,012.8,K*60
$IIHDG,320.,,,,*78
$IIHDM,320.,M*13
$IIGLL,4720.713,N,00308.949,W,083826,A,A*4E
$IIZDA,083826,26,07,2018,,*50
$IIVTG,293.,T,,M,00.0,N,00.0,K,A*22
$IIXTE,A,A,0.50,L,N,A,*3D
$IIDPT,0001.9,,*7A
$IIDBT,0006.2,f,0001.9,M,,*75
$IIVLW,0397.0,N,001.43,N*46
$IIVHW,,,320.,M,00.00,N,00.00,K*1E
$IIMWV,348,R,06.9,N,A*13
$IIVWR,012.,L,06.9,N,03.5,M,012.8,K*66
$IIMWD,,,308.,M,06.9,N,03.5,M*0C
$IIMTA,27.7,C*07
$IIMTW,21.2,C*12
$IIVWT,012.,L,06.9,N,03.5,M,012.8,K*60
$IIHDG,320.,,,,*78
$IIHDM,320.,M*13
$IIGLL,4720.713,N,00308.949,W,083828,A,A*40
$IIZDA,083828,26,07,2018,,*5E
$IIVTG,293.,T,,M,00.0,N,00.0,K,A*22
$IIXTE,A,A,0.50,L,N,A,*3D
$IIDPT,0002.0,,*70
$IIDBT,0006.6,f,0002.0,M,,*7B
$IIVLW,0397.0,N,001.43,N*46
$IIVHW,,,320.,M,00.00,N,00.00,K*1E
$IIMWV,343,R,06.9,N,A*18
$IIVWR,017.,L,06.9,N,03.5,M,012.8,K*63
$IIMWD,,,306.,M,06.9,N,03.5,M*02
$IIMTA,27.7,C*07
$IIMTW,21.2,C*12
$IIVWT,014.,L,06.9,N,03.5,M,012.8,K*66
$IIHDG,319.,,,,*72
$IIHDM,319.,M*19
$IIGLL,4720.713,N,00308.949,W,083828,A,A*40
$IIZDA,083828,26,07,2018,,*5E
$IIVTG,293.,T,,M,00.0,N,00.0,K,A*22
$IIXTE,A,A,0.50,L,N,A,*3D
$IIDPT,0002.2,,*72
$IIDBT,0006.6,f,0002.0,M,,*7B
$IIVLW,0397.0,N,001.43,N*46
$IIVHW,,,319.,M,00.00,N,00.00,K*14
$IIMWV,343,R,06.9,N,A*18
$IIVWR,017.,L,06.9,N,03.5,M,012.8,K*63
$IIMWD,,,303.,M,06.9,N,03.5,M*07
$IIMTA,27.6,C*06
$IIMTW,21.2,C*12
$IIVWT,017.,L,06.9,N,03.5,M,012.8,K*65
$IIHDG,318.,,,,*73
$IIHDM,318.,M*18
$IIGLL,4720.713,N,00308.949,W,083830,A,A*49
$IIZDA,083830,26,07,2018,,*57
$IIVTG,293.,T,,M,00.0,N,00.0,K,A*22
$IIXTE,A,A,0.50,L,N,A,*3D
$IIDPT,0002.0,,*70
$IIDBT,0006.6,f,0002.0,M,,*7B
$IIVLW,0397.0,N,001.43,N*46
$IIVHW,,,317.,M,00.00,N,00.00,K*1A
$IIMWV,340,R,06.8,N,A*1A
$IIVWR,020.,L,06.8,N,03.5,M,012.6,K*68
$IIMWD,,,299.,M,06.8,N,03.5,M*04
$IIMTA,27.6,C*06
$IIMTW,21.2,C*12
$IIVWT,018.,L,06.8,N,03.5,M,012.6,K*65
$IIHDG,317.,,,,*7C
$IIHDM,317.,M*17
$IIGLL,4720.712,N,00308.949,W,083830,A,A*48
$IIZDA,083830,26,07,2018,,*57
$IIVTG,293.,T,,M,00.0,N,00.0,K,A*22
$IIXTE,A,A,0.50,L,N,A,*3D
$IIDPT,0002.0,,*70
$IIDBT,0006.6,f,0002.0,M,,*7B
$IIVLW,0397.0,N,001.43,N*46
$IIVHW,,,316.,M,00.00,N,00.00,K*1B
$IIMWV,338,R,06.9,N,A*14
$IIVWR,022.,L,06.9,N,03.5,M,012.8,K*65
$IIMWD,,,296.,M,06.9,N,03.5,M*0A
$IIMTA,27.6,C*06
$IIMTW,21.2,C*12
$IIVWT,021.,L,06.9,N,03.5,M,012.8,K*60
$IIHDG,316.,,,,*7D
$IIHDM,316.,M*16
$IIGLL,4720.712,N,00308.949,W,083832,A,A*4A
$IIZDA,083832,26,07,2018,,*55
$IIVTG,293.,T,,M,00.0,N,00.0,K,A*22
$IIXTE,A,A,0.50,L,N,A,*3D
$IIDPT,0002.0,,*70
$IIDBT,0006.6,f,0002.0,M,,*7B
$IIVLW,0397.0,N,001.43,N*46
$IIVHW,,,315.,M,00.00,N,00.00,K*18
$IIMWV,337,R,06.9,N,A*1B
$IIVWR,023.,L,06.9,N,03.5,M,012.8,K*64
$IIMWD,,,294.,M,06.9,N,03.5,M*08
$IIMTA,27.6,C*06
$IIMTW,21.2,C*12
$IIVWT,022.,L,06.9,N,03.5,M,012.8,K*63
$IIHDG,314.,,,,*7F
$IIHDM,314.,M*14
$IIGLL,4720.712,N,00308.949,W,083834,A,A*4C
$IIZDA,083834,26,07,2018,,*53
$IIVTG,293.,T,,M,00.0,N,00.0,K,A*22
$IIXTE,A,A,0.50,L,N,A,*3D
$IIDPT,0001.8,,*7B
$IIDBT,0005.9,f,0001.8,M,,*7C
$IIVLW,0397.0,N,001.43,N*46
$IIVHW,,,312.,M,00.00,N,00.00,K*1F
$IIMWV,335,R,07.0,N,A*11
$IIVWR,025.,L,07.0,N,03.6,M,013.0,K*60
$IIMWD,,,292.,M,06.9,N,03.5,M*0E
$IIMTA,27.6,C*06
$IIMTW,21.2,C*12
$IIVWT,024.,L,07.0,N,03.6,M,013.0,K*67
$IIHDG,312.,,,,*79
$IIHDM,312.,M*12
$IIGLL,4720.712,N,00308.949,W,083834,A,A*4C
$IIZDA,083834,26,07,2018,,*53
$IIVTG,293.,T,,M,00.0,N,00.0,K,A*22
$IIXTE,A,A,0.50,L,N,A,*3D
$IIDPT,0001.9,,*7A
$IIDBT,0006.2,f,0001.9,M,,*75
$IIVLW,0397.0,N,001.43,N*46
$IIVHW,,,311.,M,00.00,N,00.00,K*1C
$IIMWV,334,R,07.0,N,A*10
$IIVWR,026.,L,07.0,N,03.6,M,013.0,K*63
$IIMTA,27.6,C*06
$IIMTW,21.2,C*12
$IIVWT,025.,L,07.0,N,03.6,M,013.0,K*66
$IIHDG,311.,,,,*7A
$IIHDM,311.,M*11
$IIGLL,4720.712,N,00308.949,W,083836,A,A*4E
$IIZDA,083836,26,07,2018,,*51
$IIVTG,293.,T,,M,00.0,N,00.0,K,A*22
$IIXTE,A,A,0.50,L,N,A,*3D
$IIDPT,0002.0,,*70
$IIDBT,0006.6,f,0002.0,M,,*7B
$IIVLW,0397.0,N,001.43,N*46
$IIVHW,,,310.,M,00.00,N,00.00,K*1D
$IIMWV,334,R,07.0,N,A*10
$IIVWR,026.,L,07.0,N,03.6,M,013.0,K*63
$IIMWD,,,284.,M,07.0,N,03.6,M*02
$IIMTA,27.6,C*06
$IIMTW,21.2,C*12
$IIVWT,027.,L,07.0,N,03.6,M,013.0,K*64
$IIHDG,309.,,,,*73
$IIHDM,309.,M*18
$IIGLL,4720.712,N,00308.949,W,083838,A,A*40
$IIZDA,083838,26,07,2018,,*5F
$IIVTG,293.,T,,M,00.0,N,00.0,K,A*22
$IIXTE,A,A,0.50,L,N,A,*3D
$IIDPT,0002.0,,*70
$IIDBT,0006.6,f,0002.0,M,,*7B
$IIVLW,0397.0,N,001.43,N*46
